"","...1","city_state","city","state","year","lat","lng","Anti_American_Indian_or_Alaska_Native","Anti_Arab","Anti_Asian","Anti_Atheism_Agnosticism","Anti_Bisexual","Anti_Black_or_African_American","Anti_Buddhist","Anti_Catholic","Anti_Eastern_Orthodox_Russian__Greek__Other","Anti_Female","Anti_Gay_Male","Anti_Gender_Non_Conforming","Anti_Heterosexual","Anti_Hindu","Anti_Hispanic_or_Latino","Anti_Islamic_Muslim","Anti_Jehovahs_Witness","Anti_Jewish","Anti_Lesbian_Female","Anti_Lesbian__Gay__Bisexual__or_Transgender_Mixed_Group","Anti_Male","Anti_Mental_Disability","Anti_Mormon","Anti_Multiple_Races__Group","Anti_Multiple_Religions__Group","Anti_Native_Hawaiian_or_Other_Pacific_Islander","Anti_Other_Christian","Anti_Other_Race_Ethnicity_Ancestry","Anti_Other_Religion","Anti_Physical_Disability","Anti_Protestant","Anti_Sikh","Anti_Transgender","Anti_White","Unknown_offenders_motivation_not_known","total_cases","Anti_Race","Anti_Gender","Anti_Religion","Anti_Sexual_Orientation","Anti_Ableism"
"1",1168,"Anchorage, AK","Anchorage","AK",2011,61.1508,-149.1091,2,0,0,0,0,2,0,0,0,0,0,0,0,0,0,1,0,0,1,0,0,0,0,0,0,0,0,0,0,0,1,0,0,1,0,8,5,0,2,1,0
"2",1169,"Fultondale, AL","Fultondale","AL",2011,33.6177,-86.8015,0,0,0,0,0,1,0,0,0,0,0,0,0,0,0,0,0,0,0,0,0,0,0,0,0,0,0,0,0,0,0,0,0,0,0,1,1,0,0,0,0
"3",1170,"Hoover, AL","Hoover","AL",2011,33.3754,-86.8064,0,0,0,0,0,1,0,0,0,0,0,0,0,0,1,0,0,0,0,0,0,0,0,0,0,0,0,0,0,0,0,0,0,0,0,2,2,0,0,0,0
"4",1171,"Irondale, AL","Irondale","AL",2011,33.544,-86.6599,0,0,0,0,0,1,0,0,0,0,0,0,0,0,0,0,0,0,0,0,0,0,0,0,0,0,0,0,0,0,0,0,0,1,0,2,2,0,0,0,0
"5",1172,"Hueytown, AL","Hueytown","AL",2011,33.4237,-87.022,0,0,0,0,0,0,0,0,0,0,0,0,0,0,0,0,0,0,0,0,0,0,0,0,0,0,0,0,0,0,0,0,0,1,0,1,1,0,0,0,0
"6",1173,"Adamsville, AL","Adamsville","AL",2011,33.6063,-86.9745,0,0,0,0,0,0,0,0,0,0,0,0,0,0,0,0,0,0,0,0,0,0,0,0,0,0,0,0,0,0,0,0,0,2,0,2,2,0,0,0,0
"7",1174,"Saraland, AL","Saraland","AL",2011,30.8478,-88.1004,0,0,0,0,0,2,0,0,0,0,0,0,0,0,0,0,0,0,0,0,0,0,0,0,0,0,0,0,0,0,0,0,0,0,0,2,2,0,0,0,0
"8",1175,"Mount Vernon, AL","Mount Vernon","AL",2011,31.0889,-88.0137,0,0,0,0,0,0,0,0,0,0,0,0,0,0,0,0,0,0,0,0,0,0,0,0,0,0,0,0,0,0,0,0,0,1,0,1,1,0,0,0,0
"9",1176,"Montgomery, AL","Montgomery","AL",2011,32.3473,-86.2666,0,0,0,0,0,0,0,0,0,0,0,0,0,0,0,0,0,0,0,0,0,0,0,0,0,0,0,1,0,0,0,0,0,0,0,1,0,0,0,0,0
"10",1177,"Prattville, AL","Prattville","AL",2011,32.4605,-86.4588,0,0,0,0,0,1,0,0,0,0,0,0,0,0,0,0,0,0,0,0,0,0,0,0,0,0,0,0,0,0,0,0,0,0,0,1,1,0,0,0,0
"11",1178,"Foley, AL","Foley","AL",2011,30.3983,-87.6649,0,0,0,0,0,0,0,0,0,0,0,0,0,0,0,0,0,0,0,0,0,0,0,2,0,0,0,0,0,0,0,0,0,0,0,2,2,0,0,0,0
"12",1179,"Orange Beach, AL","Orange Beach","AL",2011,30.2941,-87.5851,0,0,0,0,0,1,0,0,0,0,2,0,0,0,0,0,0,0,0,0,0,0,0,0,0,0,0,0,0,0,0,0,0,0,0,3,1,0,0,2,0
"13",1180,"Greenville, AL","Greenville","AL",2011,31.8437,-86.6379,0,0,0,0,0,1,0,0,0,0,0,0,0,0,0,0,0,0,0,0,0,0,0,0,0,0,0,0,0,0,0,0,0,0,0,1,1,0,0,0,0
"14",1181,"Jacksonville, AL","Jacksonville","AL",2011,33.8088,-85.7545,0,0,0,0,0,1,0,0,0,0,0,0,0,0,0,0,0,0,0,0,0,0,0,0,0,0,0,0,0,0,0,0,0,0,0,1,1,0,0,0,0
"15",1182,"Piedmont, AL","Piedmont","AL",2011,33.9268,-85.6148,0,0,0,0,0,1,0,0,0,0,0,0,0,0,0,0,0,0,0,0,0,0,0,0,0,0,0,0,0,0,0,0,0,0,0,1,1,0,0,0,0
"16",1183,"Weaver, AL","Weaver","AL",2011,33.7602,-85.8117,0,0,0,0,0,1,0,0,0,0,0,0,0,0,0,0,0,0,0,0,0,0,0,0,0,0,0,0,0,0,0,0,0,0,0,1,1,0,0,0,0
"17",1184,"Oxford, AL","Oxford","AL",2011,33.5967,-85.8687,0,0,0,0,0,1,0,0,0,0,2,0,0,0,1,0,0,0,0,1,0,0,0,0,0,0,0,0,0,0,0,0,0,0,0,5,2,0,0,3,0
"18",1185,"Centre, AL","Centre","AL",2011,34.1551,-85.6699,0,0,0,0,0,1,0,0,0,0,0,0,0,0,0,0,0,0,0,0,0,0,0,0,0,0,0,0,0,0,0,0,0,0,0,1,1,0,0,0,0
"19",1186,"Clanton, AL","Clanton","AL",2011,32.844,-86.623,0,0,0,0,0,0,0,0,0,0,0,0,0,0,0,0,0,0,0,0,0,0,0,0,0,0,0,0,0,0,0,0,0,2,0,2,2,0,0,0,0
"20",1187,"Jackson, AL","Jackson","AL",2011,31.5318,-87.8915,0,0,0,0,0,0,0,0,0,0,0,0,0,0,0,0,0,0,0,0,0,0,0,1,0,0,0,0,0,0,0,0,0,0,0,1,1,0,0,0,0
"21",1188,"Heflin, AL","Heflin","AL",2011,33.6471,-85.5698,0,0,0,0,0,1,0,0,0,0,0,0,0,0,0,0,0,0,0,0,0,0,0,0,0,0,0,0,0,0,0,0,0,0,0,1,1,0,0,0,0
"22",1189,"Elba, AL","Elba","AL",2011,31.4172,-86.0759,0,0,0,0,0,1,0,0,0,0,0,0,0,0,0,0,0,0,0,0,0,0,0,0,0,0,0,0,0,0,0,0,0,0,0,1,1,0,0,0,0
"23",1190,"Enterprise, AL","Enterprise","AL",2011,31.3276,-85.8459,0,0,0,0,0,1,0,0,0,0,0,0,0,0,0,0,0,0,0,0,0,0,0,1,0,0,0,0,0,0,0,0,0,0,0,2,2,0,0,0,0
"24",1191,"Sheffield, AL","Sheffield","AL",2011,34.757,-87.6977,0,0,0,0,0,1,0,0,0,0,0,0,0,0,0,0,0,0,0,0,0,0,0,0,0,0,0,0,0,0,0,0,0,0,0,1,1,0,0,0,0
"25",1192,"Tuscumbia, AL","Tuscumbia","AL",2011,34.7204,-87.7035,0,0,0,0,0,1,0,0,0,0,0,0,0,0,0,0,0,0,0,0,0,0,0,0,0,0,0,0,0,0,0,0,0,0,0,1,1,0,0,0,0
"26",1193,"Ozark, AL","Ozark","AL",2011,31.4508,-85.6473,0,0,0,0,0,0,0,0,0,0,0,0,0,0,0,0,0,0,0,0,0,0,0,0,0,0,0,0,0,0,0,0,0,1,0,1,1,0,0,0,0
"27",1194,"Fort Payne, AL","Fort Payne","AL",2011,34.4557,-85.6965,0,0,0,0,0,0,0,0,0,0,0,0,1,0,0,0,0,0,0,0,0,0,0,0,0,0,0,0,0,0,0,0,0,1,0,2,1,0,0,1,0
"28",1195,"Fyffe, AL","Fyffe","AL",2011,34.4496,-85.9049,0,0,0,0,0,0,0,0,0,0,0,0,0,0,0,0,0,0,0,0,0,0,0,0,2,0,0,0,0,0,0,0,0,0,0,2,0,0,0,0,0
"29",1196,"Abbeville, AL","Abbeville","AL",2011,31.5664,-85.2528,0,0,0,0,0,0,0,0,0,0,0,0,0,0,0,0,0,0,0,0,0,0,0,0,0,0,0,0,0,0,0,0,0,2,0,2,2,0,0,0,0
"30",1197,"Town Creek, AL","Town Creek","AL",2011,34.6718,-87.4063,0,0,0,0,0,0,0,0,0,0,0,0,0,0,0,0,0,0,0,0,0,1,0,0,0,0,0,0,0,0,0,0,0,0,0,1,0,0,0,0,1
"31",1198,"Guntersville, AL","Guntersville","AL",2011,34.367,-86.2638,0,0,0,0,0,0,0,0,0,0,0,0,0,0,0,0,0,1,0,0,0,0,0,0,0,0,0,1,0,0,0,0,0,0,0,2,1,0,0,0,0
"32",1199,"Douglas, AL","Douglas","AL",2011,34.1705,-86.3224,0,0,0,0,0,0,0,0,0,0,0,0,0,0,1,0,0,0,0,0,0,0,0,0,0,0,0,0,0,0,0,0,0,0,0,1,1,0,0,0,0
"33",1200,"Decatur, AL","Decatur","AL",2011,34.573,-86.9906,0,0,0,0,0,0,0,0,0,0,0,0,0,0,2,0,0,0,0,0,0,0,0,0,0,0,0,0,0,0,0,0,0,1,0,3,3,0,0,0,0
"34",1201,"Roanoke, AL","Roanoke","AL",2011,33.1454,-85.3694,0,0,0,0,0,2,0,0,0,0,0,0,0,0,0,0,0,0,0,0,0,1,0,0,0,0,0,0,0,0,0,0,0,1,0,4,3,0,0,0,1
"35",1202,"Phenix City, AL","Phenix City","AL",2011,32.4588,-85.0251,0,0,0,0,0,1,0,0,0,0,0,0,0,0,0,0,0,0,0,0,0,0,0,0,0,0,0,0,0,0,0,0,0,0,0,1,1,0,0,0,0
"36",1203,"Alabaster, AL","Alabaster","AL",2011,33.2198,-86.8225,0,0,0,0,0,0,0,0,0,0,0,0,0,0,1,0,0,0,0,0,0,0,0,0,0,0,0,0,0,0,0,0,0,0,0,1,1,0,0,0,0
"37",1204,"Pelham, AL","Pelham","AL",2011,33.3114,-86.7573,0,0,1,0,0,0,0,0,0,0,0,0,0,0,0,0,0,0,0,0,0,0,0,0,0,0,0,0,0,0,0,0,0,0,0,1,1,0,0,0,0
"38",1205,"Sylacauga, AL","Sylacauga","AL",2011,33.1778,-86.2606,0,0,0,0,0,2,0,0,0,0,0,0,0,0,0,0,0,0,0,0,0,0,0,0,0,0,0,0,0,0,0,0,0,0,0,2,2,0,0,0,0
"39",1206,"Lincoln, AL","Lincoln","AL",2011,33.5935,-86.1371,0,0,0,0,0,1,0,0,0,0,0,0,0,0,0,0,0,0,0,0,0,0,0,0,0,0,0,0,0,0,0,0,0,1,0,2,2,0,0,0,0
"40",1207,"Tuscaloosa, AL","Tuscaloosa","AL",2011,33.2348,-87.5267,0,0,0,0,0,1,0,0,0,0,0,0,0,0,1,0,0,0,0,0,0,0,0,0,0,0,0,1,0,0,0,0,0,0,0,3,2,0,0,0,0
"41",1208,"Jasper, AL","Jasper","AL",2011,33.8503,-87.2708,0,0,0,0,0,1,0,0,0,0,0,0,0,0,0,0,0,0,0,0,0,0,0,0,0,0,0,0,0,0,0,0,0,1,0,2,2,0,0,0,0
"42",1209,"Parrish, AL","Parrish","AL",2011,33.7323,-87.2802,0,0,0,0,0,0,0,0,0,0,0,0,0,0,0,0,0,0,0,1,0,0,0,0,0,0,0,0,0,0,0,0,0,0,0,1,0,0,0,1,0
"43",1210,"Haleyville, AL","Haleyville","AL",2011,34.2331,-87.6175,0,0,0,0,0,1,0,0,0,0,0,0,0,0,0,0,0,0,0,0,0,0,0,0,0,0,0,0,0,0,0,0,0,0,0,1,1,0,0,0,0
"44",1211,"Siloam Springs, AR","Siloam Springs","AR",2011,36.1844,-94.5318,0,0,0,0,0,0,0,0,0,0,1,0,0,0,0,0,0,0,0,0,0,0,0,0,0,0,0,0,0,0,0,0,0,0,0,1,0,0,0,1,0
"45",1212,"Conway, AR","Conway","AR",2011,35.0754,-92.4694,0,0,0,0,0,1,0,0,0,0,0,0,0,0,0,0,0,0,0,0,0,0,0,0,0,0,0,0,0,0,0,0,0,0,0,1,1,0,0,0,0
"46",1213,"Paragould, AR","Paragould","AR",2011,36.0555,-90.5149,0,0,0,0,0,1,0,0,0,0,0,0,0,0,0,0,0,0,0,0,0,0,0,0,0,0,0,0,0,0,0,0,0,0,0,1,1,0,0,0,0
"47",1214,"Newport, AR","Newport","AR",2011,35.6234,-91.2322,0,0,0,0,0,0,0,0,0,0,0,0,0,0,0,0,0,0,0,0,0,0,0,0,0,0,0,0,0,0,0,0,0,1,0,1,1,0,0,0,0
"48",1215,"Texarkana, AR","Texarkana","AR",2011,33.4361,-93.996,0,0,0,0,0,1,0,0,0,0,0,0,0,0,0,0,0,0,0,0,0,0,0,0,0,0,0,0,0,0,0,0,0,1,0,2,2,0,0,0,0
"49",1216,"Osceola, AR","Osceola","AR",2011,35.6942,-89.9934,0,0,0,0,0,0,0,0,0,0,0,0,0,0,0,0,0,0,0,0,0,0,0,0,0,0,0,0,0,0,0,0,0,1,0,1,1,0,0,0,0
"50",1217,"Helena-West Helena, AR","Helena-West Helena","AR",2011,34.5314,-90.6201,1,0,0,0,0,8,0,0,0,0,0,0,0,0,0,0,0,0,0,0,0,0,0,0,0,0,0,0,0,0,0,0,0,0,0,9,9,0,0,0,0
"51",1218,"Russellville, AR","Russellville","AR",2011,35.2763,-93.1383,0,0,0,0,0,0,0,0,0,0,0,0,0,0,0,0,0,0,0,0,0,0,0,0,0,0,0,1,0,0,0,0,0,0,0,1,0,0,0,0,0
"52",1219,"Forrest City, AR","Forrest City","AR",2011,35.0135,-90.7931,0,0,0,0,0,1,0,0,0,0,0,0,0,0,0,0,0,0,0,0,0,0,0,0,0,0,0,0,0,0,0,0,0,0,0,1,1,0,0,0,0
"53",1220,"Benton, AR","Benton","AR",2011,34.5775,-92.5712,0,0,0,0,0,1,0,0,0,0,0,0,0,0,0,0,0,0,0,0,0,0,0,0,0,0,0,0,0,0,0,0,0,0,0,1,1,0,0,0,0
"54",1221,"Bald Knob, AR","Bald Knob","AR",2011,35.3123,-91.5709,0,0,0,0,0,0,0,0,0,0,0,0,0,0,0,0,0,0,0,0,0,0,0,0,0,0,0,0,0,0,0,0,0,2,0,2,2,0,0,0,0
"55",1222,"Avondale, AZ","Avondale","AZ",2011,33.3858,-112.3236,0,0,0,0,0,1,0,0,0,0,0,0,0,0,1,0,0,0,0,0,0,0,0,0,0,0,0,0,0,0,0,0,0,0,0,2,2,0,0,0,0
"56",1223,"Buckeye, AZ","Buckeye","AZ",2011,33.4314,-112.6429,0,0,0,0,0,1,0,0,0,0,0,0,0,0,0,0,0,3,0,0,0,0,0,0,0,0,0,0,0,0,0,0,0,0,0,4,4,0,0,0,0
"57",1224,"Chandler, AZ","Chandler","AZ",2011,33.2826,-111.8516,0,0,0,0,0,0,0,0,0,0,0,0,0,0,1,0,0,0,0,0,0,0,0,0,0,0,0,0,0,0,0,0,0,0,0,1,1,0,0,0,0
"58",1225,"Gilbert, AZ","Gilbert","AZ",2011,33.3101,-111.7463,0,0,0,0,0,1,0,0,0,0,0,0,0,0,0,0,0,0,0,0,0,0,0,0,0,0,0,0,2,0,0,0,0,0,0,3,1,0,2,0,0
"59",1226,"Glendale, AZ","Glendale","AZ",2011,33.5791,-112.2311,0,0,0,0,0,3,0,0,0,0,1,0,0,0,1,1,0,1,1,0,0,0,0,0,0,0,0,0,0,0,0,0,0,1,0,9,6,0,1,2,0
"60",1227,"Mesa, AZ","Mesa","AZ",2011,33.4017,-111.718,0,0,2,0,0,2,0,0,0,0,1,0,0,0,0,0,0,2,0,0,0,0,0,0,0,0,0,0,1,0,0,0,0,0,0,8,6,0,1,1,0
"61",1228,"Phoenix, AZ","Phoenix","AZ",2011,33.5722,-112.0891,2,0,4,0,0,38,0,0,0,0,24,0,0,0,21,5,0,9,4,0,0,1,0,1,0,0,0,7,2,0,0,0,0,5,0,123,80,0,7,28,1
"62",1229,"Scottsdale, AZ","Scottsdale","AZ",2011,33.6872,-111.8651,0,0,0,0,0,3,0,0,0,0,0,0,0,0,0,0,0,2,0,0,0,0,0,0,0,0,0,0,0,0,0,0,0,0,0,5,5,0,0,0,0
"63",1230,"Surprise, AZ","Surprise","AZ",2011,33.68,-112.4524,0,0,0,0,0,1,0,0,0,0,0,0,0,0,0,0,0,0,0,0,0,0,0,0,0,0,0,0,0,0,0,0,0,0,0,1,1,0,0,0,0
"64",1231,"Tempe, AZ","Tempe","AZ",2011,33.3881,-111.9318,0,0,0,0,0,2,0,0,0,0,0,0,0,0,0,0,0,1,0,0,0,0,0,0,0,0,0,0,0,0,0,0,0,0,0,3,3,0,0,0,0
"65",1232,"Wickenburg, AZ","Wickenburg","AZ",2011,33.9837,-112.7668,0,0,0,0,0,1,0,0,0,0,0,0,0,0,0,0,0,0,0,0,0,0,0,0,0,0,0,0,0,0,0,0,0,0,0,1,1,0,0,0,0
"66",1233,"Coolidge, AZ","Coolidge","AZ",2011,32.9395,-111.5261,0,0,0,0,0,0,0,0,0,0,0,0,0,0,0,0,0,0,0,0,0,0,0,0,0,0,0,0,0,0,0,0,0,1,0,1,1,0,0,0,0
"67",1234,"Apache Junction, AZ","Apache Junction","AZ",2011,33.3985,-111.5351,0,0,0,0,0,0,0,0,0,0,0,0,0,0,2,0,0,0,0,0,0,0,0,0,0,0,0,0,0,0,0,0,0,0,0,2,2,0,0,0,0
"68",1235,"Maricopa, AZ","Maricopa","AZ",2011,33.0404,-112.0006,0,0,0,0,0,0,0,0,0,0,0,0,0,0,1,0,0,0,1,0,0,0,0,0,0,0,0,0,0,0,0,0,0,0,0,2,1,0,0,1,0
"69",1236,"Prescott Valley, AZ","Prescott Valley","AZ",2011,34.5983,-112.3176,0,0,0,0,0,0,0,0,0,0,0,0,0,0,1,0,0,0,0,0,0,0,0,0,0,0,0,0,0,0,0,0,0,0,0,1,1,0,0,0,0
"70",1237,"Camp Verde, AZ","Camp Verde","AZ",2011,34.5699,-111.8573,0,0,0,0,0,0,0,0,0,0,0,0,0,0,0,0,0,1,0,0,0,0,0,0,0,0,0,0,0,0,0,0,0,0,0,1,1,0,0,0,0
"71",1238,"Somerton, AZ","Somerton","AZ",2011,32.6009,-114.699,0,0,0,0,0,1,0,0,0,0,0,0,0,0,0,0,0,0,0,0,0,0,0,0,0,0,0,0,0,0,0,0,0,0,0,1,1,0,0,0,0
"72",1239,"Yuma, AZ","Yuma","AZ",2011,32.5992,-114.5488,0,0,0,0,0,0,0,0,0,0,0,0,0,0,1,0,0,0,0,0,0,0,0,0,0,0,0,0,0,0,0,0,0,2,0,3,3,0,0,0,0
"73",1240,"Berkeley, CA","Berkeley","CA",2011,37.8723,-122.276,0,0,0,0,0,0,0,0,0,0,1,0,0,0,0,0,0,2,0,1,0,0,0,0,0,0,0,0,0,0,0,0,0,0,0,4,2,0,0,2,0
"74",1241,"Fremont, CA","Fremont","CA",2011,37.5265,-121.9852,0,0,0,0,0,0,0,0,0,0,0,0,0,0,0,0,0,1,0,0,0,0,0,0,0,0,0,0,0,0,0,0,0,0,0,1,1,0,0,0,0
"75",1242,"Hayward, CA","Hayward","CA",2011,37.6328,-122.0772,0,0,0,0,0,0,0,0,0,0,0,0,0,0,0,0,0,1,0,0,0,0,0,0,0,0,0,0,0,0,0,0,0,0,0,1,1,0,0,0,0
"76",1243,"Livermore, CA","Livermore","CA",2011,37.6862,-121.7608,0,0,0,0,0,1,0,0,0,0,0,0,0,0,0,0,0,0,0,0,0,0,0,1,0,0,0,0,0,0,0,0,0,0,0,2,2,0,0,0,0
"77",1244,"Newark, CA","Newark","CA",2011,37.5204,-122.0312,0,0,0,0,0,2,0,0,0,0,0,0,0,0,0,0,0,0,0,0,0,0,0,0,0,0,0,2,0,0,0,0,0,0,0,4,2,0,0,0,0
"78",1245,"Oakland, CA","Oakland","CA",2011,37.7903,-122.2165,0,0,0,0,0,1,0,0,0,0,3,0,0,0,0,1,0,1,0,0,0,0,0,0,0,0,0,1,0,0,0,0,0,2,0,9,4,0,1,3,0
"79",1246,"San Leandro, CA","San Leandro","CA",2011,37.7071,-122.1601,0,0,0,0,0,1,0,0,0,0,0,0,0,0,0,0,0,0,0,0,0,0,0,0,0,0,0,0,0,0,0,0,0,0,0,1,1,0,0,0,0
"80",1247,"Union City, CA","Union City","CA",2011,37.603,-122.0187,0,0,0,0,0,0,0,0,0,0,2,0,0,0,1,0,0,0,0,0,0,0,0,0,0,0,0,0,0,0,0,0,0,0,0,3,1,0,0,2,0
"81",1248,"Dublin, CA","Dublin","CA",2011,37.7161,-121.8963,0,0,0,0,0,1,0,0,0,0,0,0,0,0,0,0,0,0,0,0,0,0,0,0,0,0,0,0,0,0,0,0,0,0,0,1,1,0,0,0,0
"82",1249,"Chico, CA","Chico","CA",2011,39.7575,-121.8152,0,0,0,0,0,2,0,1,0,0,1,0,0,0,0,0,0,0,0,0,0,0,0,0,0,0,0,1,0,0,0,0,0,0,0,5,2,0,1,1,0
"83",1250,"Antioch, CA","Antioch","CA",2011,37.9789,-121.7958,0,0,0,0,0,3,0,0,0,0,1,0,0,0,1,2,0,0,0,0,0,0,0,0,0,0,0,0,0,0,0,0,0,0,0,7,4,0,2,1,0
"84",1251,"Brentwood, CA","Brentwood","CA",2011,37.9355,-121.7191,0,0,0,0,0,0,0,0,0,0,1,0,0,0,0,0,0,1,0,1,0,0,0,0,0,0,0,0,0,0,0,0,0,0,0,3,1,0,0,2,0
"85",1252,"Concord, CA","Concord","CA",2011,37.9722,-122.0016,0,0,0,0,0,2,0,0,0,0,3,0,0,0,1,0,0,0,0,4,0,0,0,0,0,0,0,0,0,0,0,0,0,0,0,10,3,0,0,7,0
"86",1253,"El Cerrito, CA","El Cerrito","CA",2011,37.9197,-122.3025,0,0,0,0,0,0,0,0,0,0,0,0,0,0,0,1,0,1,0,0,0,0,0,0,0,0,0,0,0,0,0,0,0,0,0,2,1,0,1,0,0
"87",1254,"Hercules, CA","Hercules","CA",2011,38.0064,-122.2564,0,0,0,0,0,0,0,0,0,0,0,0,0,0,0,0,0,1,0,0,0,0,0,0,0,0,0,0,0,0,0,0,0,0,0,1,1,0,0,0,0
"88",1255,"Pinole, CA","Pinole","CA",2011,37.9931,-122.2834,0,0,0,0,0,1,0,0,0,0,0,0,0,0,0,0,0,0,0,0,0,0,0,0,0,0,0,0,0,0,0,0,0,0,0,1,1,0,0,0,0
"89",1256,"Pittsburg, CA","Pittsburg","CA",2011,38.0182,-121.8964,0,0,0,0,0,1,0,0,0,0,0,0,0,0,0,0,0,0,0,0,0,0,0,0,0,0,0,0,0,0,0,0,0,0,0,1,1,0,0,0,0
"90",1257,"Richmond, CA","Richmond","CA",2011,37.9477,-122.339,0,0,0,0,0,0,0,0,0,0,0,0,0,0,2,0,0,0,0,0,0,0,0,0,0,0,0,0,0,0,0,0,0,0,0,2,2,0,0,0,0
"91",1258,"San Pablo, CA","San Pablo","CA",2011,37.9628,-122.3425,0,0,0,0,0,0,0,0,0,0,0,0,0,0,0,0,0,0,0,0,0,0,0,0,0,0,0,0,1,0,0,0,0,0,0,1,0,0,1,0,0
"92",1259,"Walnut Creek, CA","Walnut Creek","CA",2011,37.9024,-122.0398,0,0,1,0,0,4,0,0,0,0,0,0,0,0,0,1,0,6,0,1,0,0,0,0,0,0,0,1,1,0,0,0,0,0,0,15,11,0,2,1,0
"93",1260,"South Lake Tahoe, CA","South Lake Tahoe","CA",2011,38.9393,-119.9828,0,0,0,0,0,0,0,0,0,0,0,0,0,0,0,0,0,0,0,0,0,0,0,0,0,0,0,0,0,1,0,0,0,0,0,1,0,0,0,0,1
"94",1261,"Clovis, CA","Clovis","CA",2011,36.8278,-119.6831,0,0,1,0,0,2,0,0,0,0,0,0,0,0,0,0,0,0,0,0,0,0,0,0,0,0,0,0,0,0,0,0,0,0,0,3,3,0,0,0,0
"95",1262,"Fresno, CA","Fresno","CA",2011,36.7831,-119.7941,0,0,0,0,0,1,0,0,0,0,0,0,0,0,0,0,0,0,0,0,0,0,0,0,0,0,0,1,0,0,0,0,0,0,0,2,1,0,0,0,0
"96",1263,"Parlier, CA","Parlier","CA",2011,36.6087,-119.5434,0,0,0,0,0,0,0,0,0,0,0,0,0,0,0,0,0,0,0,0,0,0,0,0,0,0,0,0,0,0,0,0,0,1,0,1,1,0,0,0,0
"97",1264,"Sanger, CA","Sanger","CA",2011,36.699,-119.5575,0,0,0,0,1,0,0,0,0,0,0,0,0,0,0,0,0,0,0,0,0,0,0,0,0,0,0,0,0,0,0,0,0,0,0,1,0,0,0,1,0
"98",1265,"Selma, CA","Selma","CA",2011,36.5715,-119.6143,0,0,0,0,0,0,0,0,0,0,0,0,0,0,0,0,0,0,0,1,0,0,0,0,0,0,0,0,0,0,0,0,0,0,0,1,0,0,0,1,0
"99",1266,"Eureka, CA","Eureka","CA",2011,40.7942,-124.1568,0,0,0,0,0,2,0,0,0,0,0,0,0,0,0,0,0,2,0,0,0,0,0,0,0,0,0,0,0,0,0,0,0,0,0,4,4,0,0,0,0
"100",1267,"Arvin, CA","Arvin","CA",2011,35.1944,-118.8306,0,0,0,0,0,0,0,0,0,0,1,0,0,0,0,0,0,0,0,0,0,0,0,0,0,0,0,0,0,0,0,0,0,0,0,1,0,0,0,1,0
"101",1268,"Bakersfield, CA","Bakersfield","CA",2011,35.3529,-119.0359,0,0,0,0,0,3,0,0,0,0,1,0,0,0,0,0,0,0,0,1,0,0,0,0,0,0,0,0,0,0,0,0,0,0,0,5,3,0,0,2,0
"102",1269,"Delano, CA","Delano","CA",2011,35.767,-119.2637,0,0,0,0,0,0,0,0,0,0,1,0,0,0,0,0,0,0,0,0,0,0,0,0,0,0,0,0,0,0,0,0,0,0,0,1,0,0,0,1,0
"103",1270,"Tehachapi, CA","Tehachapi","CA",2011,35.1274,-118.4749,0,0,0,0,0,1,0,0,0,0,0,0,0,0,0,0,0,0,1,0,0,0,0,0,0,0,0,0,0,0,0,0,0,0,0,2,1,0,0,1,0
"104",1271,"Lemoore, CA","Lemoore","CA",2011,36.2949,-119.7983,0,0,0,0,0,0,0,0,0,0,0,0,0,0,0,0,0,0,0,0,0,0,0,0,0,0,0,0,0,0,0,0,0,1,0,1,1,0,0,0,0
"105",1272,"Clearlake, CA","Clearlake","CA",2011,38.959,-122.633,0,0,0,0,0,1,0,0,0,0,0,0,0,0,0,0,0,0,0,0,0,0,0,0,0,0,0,0,0,0,0,0,0,0,0,1,1,0,0,0,0
"106",1273,"Susanville, CA","Susanville","CA",2011,40.4205,-120.6129,0,0,0,0,0,0,0,0,0,0,0,0,0,0,0,0,0,0,0,0,0,0,0,0,0,0,0,0,0,0,0,0,0,1,0,1,1,0,0,0,0
"107",1274,"Alhambra, CA","Alhambra","CA",2011,34.084,-118.1355,0,0,0,0,0,0,0,0,0,0,0,0,0,0,0,0,0,0,0,0,0,0,0,0,0,0,0,1,0,0,0,0,0,0,0,1,0,0,0,0,0
"108",1275,"Artesia, CA","Artesia","CA",2011,33.8676,-118.0806,0,0,0,0,0,0,0,0,0,0,0,0,0,0,1,0,0,0,0,0,0,0,0,0,0,0,0,0,0,0,0,0,0,0,0,1,1,0,0,0,0
"109",1276,"Azusa, CA","Azusa","CA",2011,34.1386,-117.9124,0,0,0,0,0,4,0,0,0,0,0,0,0,0,0,0,0,0,0,0,0,0,0,0,0,0,0,0,0,0,0,0,0,0,0,4,4,0,0,0,0
"110",1277,"Baldwin Park, CA","Baldwin Park","CA",2011,34.0829,-117.9721,0,0,0,0,0,2,0,0,0,0,1,0,0,0,1,0,0,0,0,0,0,0,0,0,0,0,0,0,0,0,0,0,0,0,0,4,3,0,0,1,0
"111",1278,"Bellflower, CA","Bellflower","CA",2011,33.888,-118.1271,0,0,0,0,0,0,0,0,0,0,0,0,0,0,1,0,0,0,0,0,0,0,0,0,0,0,0,0,0,0,0,0,0,0,0,1,1,0,0,0,0
"112",1279,"Westlake Village, CA","Westlake Village","CA",2011,34.1369,-118.822,0,0,0,0,0,0,0,0,0,0,0,0,0,0,0,0,0,0,0,0,0,0,0,0,0,0,0,0,1,0,0,0,0,0,0,1,0,0,1,0,0
"113",1280,"Beverly Hills, CA","Beverly Hills","CA",2011,34.0786,-118.4021,0,0,0,0,0,1,0,0,0,0,0,0,0,0,0,0,0,4,0,0,0,0,0,0,0,0,0,0,0,0,0,0,0,0,0,5,5,0,0,0,0
"114",1281,"Burbank, CA","Burbank","CA",2011,34.1879,-118.3235,0,0,0,0,0,0,0,0,0,0,0,0,0,0,0,1,0,1,0,1,0,0,0,1,0,0,0,1,0,0,0,0,0,0,0,5,2,0,1,1,0
"115",1282,"Claremont, CA","Claremont","CA",2011,34.1259,-117.7153,0,0,0,0,0,1,0,0,0,0,0,0,0,0,0,0,0,0,1,1,0,0,0,0,0,0,0,0,0,0,0,0,0,0,0,3,1,0,0,2,0
"116",1283,"Covina, CA","Covina","CA",2011,34.0903,-117.8817,0,0,0,0,0,1,0,0,0,0,0,0,0,0,0,0,0,0,0,0,0,0,0,0,0,0,0,0,0,0,0,0,0,0,0,1,1,0,0,0,0
"117",1284,"Cerritos, CA","Cerritos","CA",2011,33.8677,-118.0686,0,0,0,0,0,1,0,0,0,0,0,0,0,0,0,0,0,0,0,0,0,0,0,0,0,0,0,0,0,0,0,0,0,0,0,1,1,0,0,0,0
"118",1285,"West Hollywood, CA","West Hollywood","CA",2011,34.0882,-118.3718,0,0,0,0,0,1,0,0,0,0,2,0,0,0,0,0,0,0,0,7,0,0,0,0,0,0,0,0,0,0,0,0,0,1,0,11,2,0,0,9,0
"119",1286,"Santa Clarita, CA","Santa Clarita","CA",2011,34.4175,-118.4964,0,0,0,0,0,3,0,0,0,0,0,0,0,0,2,0,0,0,1,1,0,0,0,0,0,0,0,1,0,0,0,0,0,0,0,8,5,0,0,2,0
"120",1287,"Diamond Bar, CA","Diamond Bar","CA",2011,33.9991,-117.8161,0,0,0,0,0,0,0,0,0,0,0,0,0,0,0,0,0,0,0,1,0,0,0,0,0,0,0,0,0,0,0,0,0,0,0,1,0,0,0,1,0
"121",1288,"Downey, CA","Downey","CA",2011,33.9379,-118.1312,0,0,0,0,0,0,0,0,0,0,0,0,0,0,1,0,0,1,0,0,0,0,0,0,0,0,0,0,0,0,0,0,0,0,0,2,2,0,0,0,0
"122",1289,"El Monte, CA","El Monte","CA",2011,34.0739,-118.0291,0,0,0,0,0,4,0,0,0,0,0,0,0,0,0,0,0,0,0,1,0,0,0,1,0,0,0,0,0,0,0,0,0,0,0,6,5,0,0,1,0
"123",1290,"Glendale, CA","Glendale","CA",2011,34.1818,-118.2468,0,0,0,0,0,1,0,0,0,0,1,0,0,0,0,0,0,0,0,0,0,0,0,0,0,0,0,2,0,0,0,0,0,1,0,5,2,0,0,1,0
"124",1291,"Hawaiian Gardens, CA","Hawaiian Gardens","CA",2011,33.8303,-118.0728,0,0,0,0,0,2,0,0,0,0,0,0,0,0,0,0,0,0,0,0,0,0,0,0,0,0,0,1,0,0,0,0,0,0,0,3,2,0,0,0,0
"125",1292,"Hawthorne, CA","Hawthorne","CA",2011,33.9146,-118.3476,0,0,0,0,0,0,0,0,0,0,0,0,0,0,0,1,0,0,0,0,0,0,0,1,0,0,0,0,0,0,0,0,0,0,0,2,1,0,1,0,0
"126",1293,"Calabasas, CA","Calabasas","CA",2011,34.1375,-118.6689,0,0,0,0,0,0,0,0,0,0,0,0,0,0,0,0,0,1,0,0,0,0,0,0,0,0,0,0,0,0,0,0,0,0,0,1,1,0,0,0,0
"127",1294,"Malibu, CA","Malibu","CA",2011,34.0368,-118.7845,0,0,0,0,0,0,0,0,0,0,0,0,0,0,0,0,0,0,0,0,0,0,0,0,0,0,0,1,0,0,0,0,0,0,0,1,0,0,0,0,0
"128",1295,"Lakewood, CA","Lakewood","CA",2011,33.8471,-118.1221,0,0,0,0,0,1,0,0,0,0,0,0,0,0,0,0,0,0,0,0,0,0,0,0,0,0,0,0,0,0,0,0,0,0,0,1,1,0,0,0,0
"129",1296,"La Mirada, CA","La Mirada","CA",2011,33.9025,-118.0093,0,0,0,0,0,1,0,0,0,0,0,0,0,0,0,0,0,0,0,0,0,0,0,0,0,0,0,0,0,0,0,0,0,0,0,1,1,0,0,0,0
"130",1297,"La Puente, CA","La Puente","CA",2011,34.0323,-117.9533,0,0,0,0,0,1,0,0,0,0,0,0,0,0,0,0,0,0,0,0,0,0,0,0,0,0,0,0,0,0,0,0,0,0,0,1,1,0,0,0,0
"131",1298,"La Verne, CA","La Verne","CA",2011,34.1208,-117.7702,0,0,0,0,0,0,0,0,0,0,0,0,0,0,0,0,0,1,0,0,0,0,0,0,0,0,0,0,0,0,0,0,0,0,0,1,1,0,0,0,0
"132",1299,"Long Beach, CA","Long Beach","CA",2011,33.7981,-118.1675,0,0,0,0,0,0,0,0,0,0,2,0,0,0,0,0,0,0,0,1,0,0,0,0,0,0,0,0,3,0,0,0,0,0,0,6,0,0,3,3,0
"133",1300,"Los Angeles, CA","Los Angeles","CA",2011,34.1139,-118.4068,0,0,2,0,1,55,0,1,0,0,9,0,0,0,13,4,0,23,5,26,0,0,0,2,1,0,0,15,4,0,0,0,0,9,0,170,104,0,9,41,0
"134",1301,"Lynwood, CA","Lynwood","CA",2011,33.924,-118.2017,0,0,0,0,0,1,0,0,0,0,0,0,0,0,0,0,0,0,0,0,0,0,0,0,0,0,0,0,0,0,0,0,0,0,0,1,1,0,0,0,0
"135",1302,"Manhattan Beach, CA","Manhattan Beach","CA",2011,33.8895,-118.3972,0,0,0,0,0,1,0,0,0,0,0,0,0,0,0,0,0,1,0,0,0,0,0,0,0,0,0,0,0,0,0,0,0,0,0,2,2,0,0,0,0
"136",1303,"Norwalk, CA","Norwalk","CA",2011,33.9069,-118.0829,0,0,0,0,0,3,0,0,0,0,0,0,0,0,0,0,0,0,0,1,0,0,0,0,0,0,0,0,0,0,0,0,0,0,0,4,3,0,0,1,0
"137",1304,"Palmdale, CA","Palmdale","CA",2011,34.5944,-118.1057,0,0,0,0,0,8,0,0,0,0,0,0,0,0,1,0,0,0,0,2,0,0,0,0,0,0,0,0,0,0,0,0,0,1,0,12,10,0,0,2,0
"138",1305,"Paramount, CA","Paramount","CA",2011,33.8976,-118.1652,0,0,0,0,0,1,0,0,0,0,0,0,0,0,0,0,0,0,0,0,0,0,0,0,0,0,0,0,0,0,0,0,0,0,0,1,1,0,0,0,0
"139",1306,"Pico Rivera, CA","Pico Rivera","CA",2011,33.9902,-118.0888,0,0,0,0,0,0,0,0,0,0,0,0,0,0,1,0,0,0,0,0,0,0,0,0,0,0,0,0,0,0,0,0,0,0,0,1,1,0,0,0,0
"140",1307,"Redondo Beach, CA","Redondo Beach","CA",2011,33.8574,-118.3766,0,0,0,0,0,3,0,0,0,0,0,0,0,0,1,0,0,0,0,1,0,0,0,0,0,0,0,0,0,0,0,0,0,0,0,5,4,0,0,1,0
"141",1308,"Rolling Hills Estates, CA","Rolling Hills Estates","CA",2011,33.7783,-118.3509,0,0,0,0,0,0,0,0,0,0,0,0,0,0,0,0,0,0,0,0,0,0,0,0,0,0,0,1,0,0,0,0,0,0,0,1,0,0,0,0,0
"142",1309,"San Dimas, CA","San Dimas","CA",2011,34.1082,-117.809,0,0,0,0,0,0,0,0,0,0,0,0,0,0,0,0,0,0,0,0,0,0,0,0,0,0,0,0,1,0,0,0,0,0,0,1,0,0,1,0,0
"143",1310,"San Gabriel, CA","San Gabriel","CA",2011,34.0948,-118.099,0,0,1,0,0,0,0,0,0,0,0,0,0,0,0,0,0,0,0,0,0,0,0,0,0,0,0,0,0,0,0,0,0,0,0,1,1,0,0,0,0
"144",1311,"Santa Monica, CA","Santa Monica","CA",2011,34.0232,-118.4813,0,0,0,0,0,1,0,0,0,0,0,0,0,0,1,0,0,3,0,0,0,0,0,0,0,0,0,0,0,0,0,0,0,0,0,5,5,0,0,0,0
"145",1312,"South Gate, CA","South Gate","CA",2011,33.9448,-118.1926,0,0,0,0,0,0,0,0,0,0,0,0,0,0,1,0,0,0,1,0,0,0,0,0,0,0,0,0,0,0,0,0,0,0,0,2,1,0,0,1,0
"146",1313,"Temple City, CA","Temple City","CA",2011,34.1021,-118.0579,0,0,0,0,0,0,0,0,0,0,0,0,0,0,0,0,0,0,0,0,0,0,0,0,0,0,0,1,0,0,0,0,0,0,0,1,0,0,0,0,0
"147",1314,"Torrance, CA","Torrance","CA",2011,33.8346,-118.3417,0,0,0,0,0,1,0,0,0,0,0,0,0,0,0,0,0,0,0,0,0,0,0,0,0,0,0,0,0,0,0,0,0,0,0,1,1,0,0,0,0
"148",1315,"West Covina, CA","West Covina","CA",2011,34.0555,-117.9112,0,0,0,0,0,1,0,0,0,0,0,0,0,0,0,0,0,0,0,1,0,0,0,1,0,0,0,0,0,0,0,0,0,1,0,4,3,0,0,1,0
"149",1316,"Whittier, CA","Whittier","CA",2011,33.9678,-118.0188,0,0,0,0,0,1,0,0,0,0,0,0,0,0,0,0,0,0,0,0,0,0,0,0,0,0,0,0,0,0,0,0,0,0,0,1,1,0,0,0,0
"150",1317,"Carson, CA","Carson","CA",2011,33.8374,-118.2559,0,0,0,0,0,4,0,1,0,0,0,0,0,0,0,0,0,0,0,0,0,0,0,0,0,0,0,0,0,0,0,0,0,0,0,5,4,0,1,0,0
"151",1318,"Rancho Palos Verdes, CA","Rancho Palos Verdes","CA",2011,33.7554,-118.3637,0,0,0,0,0,0,0,0,0,0,0,0,0,0,0,0,0,0,0,0,0,0,0,0,0,0,0,0,1,0,0,0,0,0,0,1,0,0,1,0,0
"152",1319,"Lancaster, CA","Lancaster","CA",2011,34.6935,-118.1753,0,0,0,0,0,3,0,0,0,0,2,0,0,0,0,0,0,0,0,3,0,0,0,0,0,0,0,0,0,0,0,0,0,0,0,8,3,0,0,5,0
"153",1320,"Novato, CA","Novato","CA",2011,38.092,-122.5576,0,0,0,0,0,0,0,0,0,0,1,0,0,0,0,0,0,1,0,0,0,0,0,1,0,0,0,0,0,0,0,0,0,0,0,3,2,0,0,1,0
"154",1321,"San Rafael, CA","San Rafael","CA",2011,37.9905,-122.5222,0,0,1,0,0,1,0,0,0,0,0,0,0,0,0,0,0,0,0,0,0,0,0,1,0,0,0,0,0,0,0,0,0,0,0,3,3,0,0,0,0
"155",1322,"Fort Bragg, CA","Fort Bragg","CA",2011,39.4399,-123.8013,0,0,0,0,0,0,0,0,0,0,1,0,0,0,0,0,0,0,0,0,0,0,0,0,0,0,0,0,0,0,0,0,0,0,0,1,0,0,0,1,0
"156",1323,"Greenfield, CA","Greenfield","CA",2011,36.3232,-121.2451,0,0,0,0,0,0,0,0,0,0,0,0,0,0,0,0,0,0,1,0,0,0,0,0,0,0,0,0,0,0,0,0,0,0,0,1,0,0,0,1,0
"157",1324,"Monterey, CA","Monterey","CA",2011,36.5922,-121.8807,0,0,0,0,0,0,0,0,0,0,2,0,0,0,0,0,0,0,0,0,0,0,0,1,0,0,0,0,0,0,0,0,0,0,0,3,1,0,0,2,0
"158",1325,"Salinas, CA","Salinas","CA",2011,36.6884,-121.6317,0,0,0,0,0,0,0,0,0,0,1,0,0,0,0,0,0,0,0,0,0,1,0,0,0,0,0,0,0,0,0,0,0,0,0,2,0,0,0,1,1
"159",1326,"Soledad, CA","Soledad","CA",2011,36.4432,-121.3426,0,0,0,0,0,0,0,0,0,0,0,0,0,0,0,0,0,0,0,0,0,0,0,0,0,0,0,1,0,0,0,0,0,0,0,1,0,0,0,0,0
"160",1327,"Napa, CA","Napa","CA",2011,38.2976,-122.3011,0,0,0,0,0,0,0,0,0,0,0,0,0,0,0,0,0,1,0,0,0,0,0,0,0,0,0,1,0,0,0,0,0,0,0,2,1,0,0,0,0
"161",1328,"Grass Valley, CA","Grass Valley","CA",2011,39.2237,-121.0521,0,0,0,0,0,0,0,0,0,0,1,0,0,0,0,0,0,0,0,0,0,0,0,0,0,0,0,0,0,0,0,0,0,0,0,1,0,0,0,1,0
"162",1329,"Anaheim, CA","Anaheim","CA",2011,33.839,-117.8572,0,0,0,0,0,2,0,1,0,0,0,0,0,0,0,0,0,0,0,1,0,0,0,0,0,0,0,1,0,0,0,0,0,0,0,5,2,0,1,1,0
"163",1330,"Costa Mesa, CA","Costa Mesa","CA",2011,33.6667,-117.9135,0,0,0,0,0,0,0,0,0,0,1,0,0,0,1,0,0,0,0,0,0,0,0,0,0,0,0,0,0,0,0,0,0,0,0,2,1,0,0,1,0
"164",1331,"Cypress, CA","Cypress","CA",2011,33.8171,-118.0386,0,0,1,0,0,1,0,0,0,0,0,0,1,0,1,0,0,0,0,0,0,0,0,0,0,0,0,0,0,0,0,0,0,0,0,4,3,0,0,1,0
"165",1332,"Fountain Valley, CA","Fountain Valley","CA",2011,33.7105,-117.9514,0,0,0,0,0,2,0,0,0,0,1,0,0,0,0,0,0,0,0,0,0,0,0,0,0,0,0,0,0,0,0,0,0,0,0,3,2,0,0,1,0
"166",1333,"Fullerton, CA","Fullerton","CA",2011,33.8841,-117.9279,0,0,0,0,0,1,0,0,0,0,0,0,0,0,0,0,0,0,0,0,0,0,0,0,0,0,0,0,0,0,0,0,0,0,0,1,1,0,0,0,0
"167",1334,"Garden Grove, CA","Garden Grove","CA",2011,33.7787,-117.9601,0,0,1,0,0,2,0,0,0,0,0,0,0,0,0,0,0,0,0,0,0,0,0,0,0,0,0,0,1,0,0,0,0,0,0,4,3,0,1,0,0
"168",1335,"Huntington Beach, CA","Huntington Beach","CA",2011,33.696,-118.0025,0,0,1,0,0,7,0,0,0,0,0,0,0,0,2,0,0,1,0,1,0,0,0,0,0,0,0,0,0,0,0,0,0,0,0,12,11,0,0,1,0
"169",1336,"Laguna Beach, CA","Laguna Beach","CA",2011,33.5448,-117.7612,0,0,0,0,0,1,0,0,0,0,0,0,0,0,0,0,0,0,0,0,0,0,0,0,0,0,0,0,0,0,0,0,0,0,0,1,1,0,0,0,0
"170",1337,"La Habra, CA","La Habra","CA",2011,33.9278,-117.9513,0,0,1,0,0,0,0,0,0,0,0,0,0,0,0,0,0,0,0,0,0,0,0,1,0,0,0,0,0,0,0,0,0,0,0,2,2,0,0,0,0
"171",1338,"Newport Beach, CA","Newport Beach","CA",2011,33.6151,-117.8669,0,0,0,0,0,0,0,0,0,0,0,0,0,0,0,0,0,4,0,0,0,0,0,0,0,0,0,1,0,0,0,0,0,0,0,5,4,0,0,0,0
"172",1339,"Orange, CA","Orange","CA",2011,33.8038,-117.8218,0,0,0,0,0,0,0,0,0,0,0,0,0,0,2,0,0,0,0,0,0,0,0,0,0,0,0,0,0,0,0,0,0,0,0,2,2,0,0,0,0
"173",1340,"San Clemente, CA","San Clemente","CA",2011,33.4498,-117.6103,0,0,0,0,0,0,0,0,0,0,0,0,0,0,0,0,0,0,0,0,0,0,0,1,0,0,0,0,0,0,0,0,0,0,0,1,1,0,0,0,0
"174",1341,"Santa Ana, CA","Santa Ana","CA",2011,33.7366,-117.8819,0,0,0,0,0,1,0,0,0,0,3,0,0,0,1,0,0,1,1,2,0,0,0,2,0,0,0,0,0,1,0,0,0,0,0,12,5,0,0,6,1
"175",1342,"Stanton, CA","Stanton","CA",2011,33.8002,-117.9935,0,0,0,0,0,1,0,0,0,0,0,0,0,0,0,0,0,0,0,0,0,0,0,0,0,0,0,0,0,0,0,0,0,0,0,1,1,0,0,0,0
"176",1343,"Tustin, CA","Tustin","CA",2011,33.7309,-117.8106,0,0,0,0,0,0,0,0,0,0,0,0,0,0,1,0,0,0,0,0,0,0,0,0,0,0,0,1,0,0,0,0,0,0,0,2,1,0,0,0,0
"177",1344,"Westminster, CA","Westminster","CA",2011,33.7523,-117.9938,0,0,1,0,0,3,0,0,0,0,0,0,0,0,1,0,0,1,0,0,0,0,0,1,0,0,0,0,0,0,0,0,0,0,0,7,7,0,0,0,0
"178",1345,"Yorba Linda, CA","Yorba Linda","CA",2011,33.889,-117.7714,0,0,0,0,0,0,0,0,0,0,0,0,0,0,0,0,0,1,0,0,0,0,0,0,0,0,0,0,0,0,0,0,0,0,0,1,1,0,0,0,0
"179",1346,"Irvine, CA","Irvine","CA",2011,33.6772,-117.7738,0,0,1,0,0,0,0,1,0,0,2,0,0,0,0,0,0,0,0,0,0,0,0,0,0,0,0,3,0,0,0,0,0,0,0,7,1,0,1,2,0
"180",1347,"Mission Viejo, CA","Mission Viejo","CA",2011,33.6095,-117.655,0,0,0,0,0,1,0,0,0,0,0,0,0,0,1,0,0,1,0,0,0,0,0,1,0,0,0,0,0,0,0,0,0,0,0,4,4,0,0,0,0
"181",1348,"Dana Point, CA","Dana Point","CA",2011,33.4733,-117.6968,0,0,0,0,0,0,0,0,0,0,0,0,0,0,0,0,0,0,0,0,0,0,0,1,0,0,0,1,0,0,0,0,0,0,0,2,1,0,0,0,0
"182",1349,"Aliso Viejo, CA","Aliso Viejo","CA",2011,33.5792,-117.7289,0,0,0,0,0,0,0,0,0,0,0,0,0,0,0,0,0,0,0,0,0,0,0,1,0,0,0,0,0,0,0,0,0,0,0,1,1,0,0,0,0
"183",1350,"Banning, CA","Banning","CA",2011,33.946,-116.8992,0,0,0,0,0,1,0,0,0,0,0,0,0,0,0,0,0,0,0,0,0,0,0,0,0,0,0,0,0,0,0,0,0,0,0,1,1,0,0,0,0
"184",1351,"Beaumont, CA","Beaumont","CA",2011,33.9076,-116.9766,0,0,0,0,0,3,0,0,0,0,0,0,0,0,2,0,0,0,0,0,0,0,0,0,0,0,0,0,0,0,0,0,0,0,0,5,5,0,0,0,0
"185",1352,"Blythe, CA","Blythe","CA",2011,33.622,-114.6188,0,0,0,0,0,1,0,0,0,0,0,0,0,0,0,0,0,0,0,0,0,0,0,0,0,0,0,0,0,0,0,0,0,0,0,1,1,0,0,0,0
"186",1353,"Coachella, CA","Coachella","CA",2011,33.6905,-116.143,0,0,0,0,0,1,0,0,0,0,0,0,0,0,0,1,0,0,0,0,0,0,0,0,0,0,0,0,0,0,0,0,0,0,0,2,1,0,1,0,0
"187",1354,"Hemet, CA","Hemet","CA",2011,33.7341,-116.9969,0,0,0,0,0,1,0,0,0,0,0,0,0,0,1,0,0,0,0,0,0,0,0,0,0,0,0,0,0,0,0,0,0,0,0,2,2,0,0,0,0
"188",1355,"Norco, CA","Norco","CA",2011,33.9252,-117.5499,0,0,0,0,0,1,0,0,0,0,0,0,0,0,0,0,0,0,0,0,0,0,0,0,0,0,0,0,0,0,0,0,0,0,0,1,1,0,0,0,0
"189",1356,"Palm Springs, CA","Palm Springs","CA",2011,33.8017,-116.5382,0,0,0,0,0,0,0,0,0,0,0,0,1,0,0,0,0,2,0,4,0,0,0,0,0,0,0,1,1,0,0,0,0,1,0,10,3,0,1,5,0
"190",1357,"Perris, CA","Perris","CA",2011,33.7899,-117.2233,0,0,0,0,0,0,0,0,0,0,1,0,0,0,0,0,0,0,0,0,0,0,0,0,0,0,0,0,0,0,0,0,0,0,0,1,0,0,0,1,0
"191",1358,"Riverside, CA","Riverside","CA",2011,33.9381,-117.3948,0,0,0,0,0,11,0,0,0,0,4,0,0,0,5,0,0,0,0,0,0,1,0,0,0,0,0,1,1,0,0,0,0,2,0,25,18,0,1,4,1
"192",1359,"Corona, CA","Corona","CA",2011,33.8616,-117.5649,0,0,0,0,0,1,0,0,0,0,0,0,0,0,0,0,0,0,0,0,0,0,0,0,0,0,0,0,0,0,0,0,0,0,0,1,1,0,0,0,0
"193",1360,"Palm Desert, CA","Palm Desert","CA",2011,33.7378,-116.3695,0,0,0,0,0,0,0,0,0,0,1,0,0,0,0,0,0,0,0,0,0,0,0,0,0,0,0,0,0,0,0,0,0,0,0,1,0,0,0,1,0
"194",1361,"Cathedral City, CA","Cathedral City","CA",2011,33.8363,-116.4642,0,0,0,0,0,1,0,0,0,0,1,0,0,0,0,0,0,1,0,0,0,0,0,0,0,0,0,0,0,0,0,0,0,0,0,3,2,0,0,1,0
"195",1362,"Lake Elsinore, CA","Lake Elsinore","CA",2011,33.6847,-117.3344,0,0,0,0,0,1,0,0,0,0,0,0,0,0,0,0,0,0,0,0,0,0,0,0,0,0,0,0,0,0,0,0,0,0,0,1,1,0,0,0,0
"196",1363,"La Quinta, CA","La Quinta","CA",2011,33.6536,-116.2785,0,0,0,0,0,0,0,0,0,0,0,0,0,0,0,0,0,1,0,0,0,0,0,0,0,0,0,0,0,0,0,0,0,0,0,1,1,0,0,0,0
"197",1364,"Moreno Valley, CA","Moreno Valley","CA",2011,33.9244,-117.2045,0,0,1,0,0,1,0,0,0,0,0,0,0,0,0,0,0,0,0,0,0,0,0,0,0,0,0,0,0,0,0,0,0,0,0,2,2,0,0,0,0
"198",1365,"Murrieta, CA","Murrieta","CA",2011,33.572,-117.1909,0,0,0,0,0,3,0,0,0,0,0,0,0,0,1,0,0,1,0,0,0,0,0,0,0,0,0,0,0,0,0,0,0,0,0,5,5,0,0,0,0
"199",1366,"Galt, CA","Galt","CA",2011,38.2693,-121.3,0,0,0,0,0,0,0,0,0,0,0,0,0,0,1,0,0,0,0,0,0,0,0,0,0,0,0,0,0,0,0,0,0,0,0,1,1,0,0,0,0
"200",1367,"Sacramento, CA","Sacramento","CA",2011,38.5667,-121.4683,0,0,0,0,0,2,0,0,0,0,4,0,0,0,1,1,0,1,2,4,0,0,0,0,1,0,0,1,0,0,0,0,0,0,0,17,4,0,1,10,0
"201",1368,"Elk Grove, CA","Elk Grove","CA",2011,38.416,-121.3842,0,0,0,0,0,3,0,0,0,0,0,0,0,0,0,0,0,0,1,0,0,0,0,0,0,0,0,0,0,0,0,0,0,0,0,4,3,0,0,1,0
"202",1369,"Rancho Cordova, CA","Rancho Cordova","CA",2011,38.574,-121.2523,0,0,0,0,0,0,0,0,0,0,0,0,0,0,0,0,0,0,0,0,0,0,0,0,0,0,0,1,0,0,0,0,0,0,0,1,0,0,0,0,0
"203",1370,"Citrus Heights, CA","Citrus Heights","CA",2011,38.6948,-121.288,0,0,0,0,0,1,0,0,0,0,0,0,0,0,0,0,0,0,0,0,0,0,0,0,0,0,0,0,0,0,0,0,0,0,0,1,1,0,0,0,0
"204",1371,"Barstow, CA","Barstow","CA",2011,34.8661,-117.0472,0,0,0,0,0,0,0,0,0,0,0,0,0,0,0,0,0,0,0,0,0,0,0,2,0,0,0,0,0,0,0,0,0,0,0,2,2,0,0,0,0
"205",1372,"Chino, CA","Chino","CA",2011,33.9836,-117.6654,0,0,0,0,0,0,0,0,0,0,0,0,0,0,0,0,0,1,0,0,0,0,0,0,0,0,0,0,0,0,0,0,0,0,0,1,1,0,0,0,0
"206",1373,"Montclair, CA","Montclair","CA",2011,34.0714,-117.698,0,0,1,0,0,0,0,0,0,0,0,0,0,0,0,0,0,0,0,0,0,0,0,0,0,0,0,0,0,0,0,0,0,0,0,1,1,0,0,0,0
"207",1374,"Ontario, CA","Ontario","CA",2011,34.0393,-117.6064,0,0,0,0,0,1,0,0,0,0,0,0,0,0,0,0,0,0,0,0,0,0,0,0,0,0,0,1,0,0,0,0,0,0,0,2,1,0,0,0,0
"208",1375,"Rialto, CA","Rialto","CA",2011,34.1174,-117.3894,0,0,0,0,0,1,0,0,0,0,1,0,0,0,1,0,0,0,0,0,0,0,0,0,0,0,0,0,0,0,0,0,0,0,0,3,2,0,0,1,0
"209",1376,"San Bernardino, CA","San Bernardino","CA",2011,34.1417,-117.2946,0,0,0,0,0,1,0,0,0,0,0,0,0,0,1,0,0,0,0,0,0,0,0,0,0,0,0,0,0,0,0,0,0,0,0,2,2,0,0,0,0
"210",1377,"Upland, CA","Upland","CA",2011,34.1178,-117.6603,0,0,0,0,0,1,0,0,0,0,0,0,0,0,0,0,0,0,0,0,0,0,0,1,0,0,0,0,0,0,0,0,0,0,0,2,2,0,0,0,0
"211",1378,"Victorville, CA","Victorville","CA",2011,34.5277,-117.3536,0,0,0,0,0,0,0,0,0,0,0,0,0,0,1,0,0,0,0,0,0,0,0,0,0,0,0,0,0,0,0,0,0,2,0,3,3,0,0,0,0
"212",1379,"Highland, CA","Highland","CA",2011,34.1113,-117.1654,0,0,0,0,0,1,0,0,0,0,0,0,0,0,0,0,0,0,0,0,0,0,0,0,0,0,0,0,0,0,0,0,0,0,0,1,1,0,0,0,0
"213",1380,"Chula Vista, CA","Chula Vista","CA",2011,32.6281,-117.0145,0,0,0,0,0,3,0,0,0,0,0,0,0,0,0,1,0,0,0,0,0,0,0,0,0,0,0,2,0,0,0,0,0,0,0,6,3,0,1,0,0
"214",1381,"Escondido, CA","Escondido","CA",2011,33.1347,-117.0722,0,0,0,0,0,4,0,0,0,0,0,0,0,0,1,0,0,0,0,0,0,0,0,0,0,0,0,0,0,0,0,0,0,0,0,5,5,0,0,0,0
"215",1382,"Imperial Beach, CA","Imperial Beach","CA",2011,32.5689,-117.1184,0,0,0,0,0,0,0,0,0,0,0,0,0,0,1,0,0,0,0,0,0,0,0,0,0,0,0,0,0,0,0,0,0,0,0,1,1,0,0,0,0
"216",1383,"La Mesa, CA","La Mesa","CA",2011,32.7703,-117.0204,0,0,0,0,0,0,0,0,0,0,0,0,0,0,1,0,0,0,1,1,0,0,0,0,0,0,0,0,0,0,0,0,0,0,0,3,1,0,0,2,0
"217",1384,"Oceanside, CA","Oceanside","CA",2011,33.2247,-117.3083,0,0,0,0,0,4,0,0,0,0,0,0,0,0,0,0,0,1,0,0,0,0,0,0,0,0,0,0,0,0,0,0,0,0,0,5,5,0,0,0,0
"218",1385,"San Diego, CA","San Diego","CA",2011,32.8312,-117.1225,0,0,0,0,0,6,0,0,0,0,0,0,0,0,2,0,0,10,1,17,0,0,0,0,0,0,0,3,1,0,0,0,0,2,0,42,20,0,1,18,0
"219",1386,"San Marcos, CA","San Marcos","CA",2011,33.135,-117.1744,0,0,0,0,0,1,0,0,0,0,0,0,0,0,0,0,0,0,0,1,0,0,0,0,0,0,0,1,0,0,0,0,0,0,0,3,1,0,0,1,0
"220",1387,"Vista, CA","Vista","CA",2011,33.1896,-117.2386,0,0,0,0,0,0,0,0,0,0,0,0,0,0,0,0,0,1,0,0,0,0,0,0,0,0,0,2,2,0,0,0,0,1,0,6,2,0,2,0,0
"221",1388,"Lemon Grove, CA","Lemon Grove","CA",2011,32.7331,-117.0344,0,0,0,0,0,0,0,0,0,0,0,0,0,0,1,0,0,0,0,0,0,0,0,0,0,0,0,0,0,0,0,0,0,0,0,1,1,0,0,0,0
"222",1389,"Santee, CA","Santee","CA",2011,32.8554,-116.9851,0,0,1,0,0,1,0,0,0,0,0,0,0,0,0,0,0,0,0,0,0,0,0,3,1,0,0,0,0,0,0,0,0,0,0,6,5,0,0,0,0
"223",1390,"Poway, CA","Poway","CA",2011,32.9871,-117.0201,0,0,0,0,0,1,0,0,0,0,1,0,0,0,0,0,0,1,0,0,0,0,0,0,0,0,0,0,0,0,0,0,0,0,0,3,2,0,0,1,0
"224",1391,"Encinitas, CA","Encinitas","CA",2011,33.049,-117.2613,0,0,0,0,0,0,0,0,0,0,0,0,0,0,0,0,0,1,0,1,0,0,0,0,0,0,0,0,0,0,0,0,0,0,0,2,1,0,0,1,0
"225",1392,"San Francisco, CA","San Francisco","CA",2011,37.7562,-122.443,0,0,1,0,0,5,0,0,0,0,19,0,0,0,1,2,0,5,2,0,0,0,0,2,3,0,0,3,0,0,0,0,0,3,0,46,17,0,2,21,0
"226",1393,"Escalon, CA","Escalon","CA",2011,37.7912,-120.9982,0,0,0,0,0,1,0,0,0,0,1,0,0,0,0,0,0,0,0,0,0,0,0,0,0,0,0,0,0,0,0,0,0,0,0,2,1,0,0,1,0
"227",1394,"Lodi, CA","Lodi","CA",2011,38.1218,-121.2932,0,0,0,0,0,2,0,0,0,0,0,0,0,0,0,0,0,0,0,0,0,0,0,0,0,0,0,1,0,0,0,0,0,0,0,3,2,0,0,0,0
"228",1395,"Stockton, CA","Stockton","CA",2011,37.9765,-121.3109,0,0,0,0,0,2,0,0,0,0,0,0,0,0,0,0,0,1,0,0,0,0,0,0,0,0,0,0,0,0,0,0,0,0,0,3,3,0,0,0,0
"229",1396,"Tracy, CA","Tracy","CA",2011,37.7269,-121.4522,0,0,0,0,0,2,0,0,0,0,0,0,0,0,0,0,0,0,0,0,0,0,0,0,0,0,0,0,0,0,0,0,0,0,0,2,2,0,0,0,0
"230",1397,"Arroyo Grande, CA","Arroyo Grande","CA",2011,35.1241,-120.5845,0,0,0,0,0,1,0,0,0,0,0,0,0,0,0,0,0,0,0,0,0,0,0,0,0,0,0,0,0,0,0,0,0,0,0,1,1,0,0,0,0
"231",1398,"San Luis Obispo, CA","San Luis Obispo","CA",2011,35.2669,-120.6691,0,0,1,0,0,1,0,0,0,0,0,0,0,0,1,0,0,0,0,0,0,0,0,0,0,0,0,0,0,0,0,0,0,0,0,3,3,0,0,0,0
"232",1399,"Atherton, CA","Atherton","CA",2011,37.4539,-122.2032,0,0,0,0,0,0,0,0,0,0,0,0,0,0,0,0,0,1,0,0,0,0,0,0,0,0,0,0,0,0,0,0,0,0,0,1,1,0,0,0,0
"233",1400,"Daly City, CA","Daly City","CA",2011,37.6862,-122.4685,0,0,0,0,0,2,0,0,0,0,1,0,0,0,0,0,0,0,0,1,0,0,0,0,0,0,0,0,0,0,0,0,0,0,0,4,2,0,0,2,0
"234",1401,"Menlo Park, CA","Menlo Park","CA",2011,37.4686,-122.1672,0,0,1,0,0,0,0,0,0,0,0,0,0,0,0,0,0,0,0,0,0,0,0,0,0,0,0,0,0,0,0,0,0,0,0,1,1,0,0,0,0
"235",1402,"Millbrae, CA","Millbrae","CA",2011,37.5994,-122.4023,0,0,1,0,0,0,0,0,0,0,0,0,0,0,0,0,0,1,0,0,0,0,0,0,0,0,0,0,0,0,0,0,0,0,0,2,2,0,0,0,0
"236",1403,"Pacifica, CA","Pacifica","CA",2011,37.6112,-122.4781,0,0,0,0,0,0,0,0,0,0,0,0,0,0,0,0,0,1,0,1,0,0,0,0,0,0,0,0,0,0,0,0,0,0,0,2,1,0,0,1,0
"237",1404,"San Bruno, CA","San Bruno","CA",2011,37.6254,-122.4313,0,0,0,0,0,0,0,0,0,0,0,0,0,0,0,0,0,1,0,0,0,0,0,0,0,0,0,0,0,0,0,0,0,0,0,1,1,0,0,0,0
"238",1405,"San Mateo, CA","San Mateo","CA",2011,37.5521,-122.3122,0,0,0,0,0,0,0,0,0,0,2,0,0,0,0,0,0,0,0,0,0,0,0,0,0,0,0,0,0,0,0,0,0,0,0,2,0,0,0,2,0
"239",1406,"South San Francisco, CA","South San Francisco","CA",2011,37.6536,-122.4197,0,0,0,0,0,0,0,0,0,0,0,0,0,0,0,0,0,0,0,0,0,0,0,1,0,0,0,0,0,0,0,0,0,0,0,1,1,0,0,0,0
"240",1407,"East Palo Alto, CA","East Palo Alto","CA",2011,37.4671,-122.1352,0,0,0,0,0,1,0,0,0,0,0,0,0,0,0,0,0,0,0,0,0,0,0,0,0,0,0,0,0,0,0,0,0,0,0,1,1,0,0,0,0
"241",1408,"Santa Barbara, CA","Santa Barbara","CA",2011,34.4285,-119.7202,0,0,1,0,0,2,0,0,0,0,0,0,0,0,0,0,0,0,0,0,0,0,0,0,0,0,0,0,0,0,0,0,0,0,0,3,3,0,0,0,0
"242",1409,"Campbell, CA","Campbell","CA",2011,37.2802,-121.9538,0,0,0,0,0,1,0,0,0,0,0,0,0,0,0,0,0,0,0,0,0,0,0,0,0,0,0,0,0,0,0,0,0,0,0,1,1,0,0,0,0
"243",1410,"Cupertino, CA","Cupertino","CA",2011,37.3168,-122.0465,0,0,0,0,0,0,0,0,0,0,0,0,0,0,0,0,0,1,0,0,0,0,0,0,0,0,0,1,0,0,0,0,0,0,0,2,1,0,0,0,0
"244",1411,"Los Gatos, CA","Los Gatos","CA",2011,37.2303,-121.956,0,0,0,0,0,1,0,0,0,0,0,0,0,0,0,0,0,0,0,0,0,0,0,0,0,0,0,0,0,0,0,0,0,0,0,1,1,0,0,0,0
"245",1412,"Milpitas, CA","Milpitas","CA",2011,37.4339,-121.8921,0,0,0,0,0,0,0,0,0,0,0,0,0,0,0,0,0,0,0,1,0,0,0,0,0,0,0,0,0,0,0,0,0,0,0,1,0,0,0,1,0
"246",1413,"Mountain View, CA","Mountain View","CA",2011,37.4,-122.0796,0,0,0,0,0,0,0,0,0,0,0,0,0,0,0,0,0,0,0,0,0,0,0,1,0,0,0,0,0,0,0,0,0,0,0,1,1,0,0,0,0
"247",1414,"Palo Alto, CA","Palo Alto","CA",2011,37.3913,-122.1468,0,0,1,0,0,1,0,0,0,0,0,0,0,0,0,0,0,2,0,0,0,0,0,0,0,0,0,0,0,0,0,0,0,0,0,4,4,0,0,0,0
"248",1415,"San Jose, CA","San Jose","CA",2011,37.3019,-121.8486,0,0,3,0,1,6,0,0,0,0,7,0,0,0,2,1,0,8,1,0,0,0,0,1,0,0,0,0,1,1,0,0,0,0,0,32,20,0,2,9,1
"249",1416,"Saratoga, CA","Saratoga","CA",2011,37.2684,-122.0263,0,0,0,0,0,0,0,0,0,0,0,0,0,0,0,0,0,0,0,0,0,0,0,0,0,0,0,1,0,0,0,0,0,0,0,1,0,0,0,0,0
"250",1417,"Sunnyvale, CA","Sunnyvale","CA",2011,37.3836,-122.0256,0,0,0,0,0,0,0,0,0,0,0,0,0,0,0,0,0,1,0,0,0,0,0,0,0,0,0,0,0,0,0,0,0,0,0,1,1,0,0,0,0
"251",1418,"Santa Cruz, CA","Santa Cruz","CA",2011,36.9789,-122.0346,0,0,0,0,0,10,0,1,0,0,1,0,0,0,0,0,0,1,1,1,0,0,0,0,0,0,0,0,0,0,0,0,0,0,0,15,11,0,1,3,0
"252",1419,"Watsonville, CA","Watsonville","CA",2011,36.9206,-121.7706,0,0,0,0,0,1,0,0,0,0,0,0,0,0,0,0,0,0,0,0,0,0,0,0,0,0,0,0,0,0,0,0,0,0,0,1,1,0,0,0,0
"253",1420,"Scotts Valley, CA","Scotts Valley","CA",2011,37.0555,-122.0118,0,0,1,0,0,0,0,0,0,0,1,0,0,0,0,0,0,0,0,0,0,0,0,0,0,0,0,0,0,0,0,0,0,0,0,2,1,0,0,1,0
"254",1421,"Anderson, CA","Anderson","CA",2011,40.4497,-122.295,0,0,0,0,0,1,0,0,0,0,0,0,0,0,0,0,0,0,0,0,0,0,0,0,0,0,0,0,0,0,0,0,0,0,0,1,1,0,0,0,0
"255",1422,"Redding, CA","Redding","CA",2011,40.5698,-122.365,0,0,0,0,0,2,0,0,0,0,0,0,0,0,0,0,0,0,0,0,0,0,0,0,0,0,0,0,0,0,0,0,0,0,0,2,2,0,0,0,0
"256",1423,"Fairfield, CA","Fairfield","CA",2011,38.2592,-122.0324,0,0,0,0,0,0,0,0,0,0,1,0,0,0,0,0,0,0,0,0,0,0,0,0,0,0,0,0,0,0,0,0,0,0,0,1,0,0,0,1,0
"257",1424,"Vallejo, CA","Vallejo","CA",2011,38.1133,-122.2358,0,0,0,0,0,1,0,0,0,0,1,0,0,0,0,0,0,0,0,0,0,0,0,0,0,0,0,0,0,0,0,0,0,0,0,2,1,0,0,1,0
"258",1425,"Cotati, CA","Cotati","CA",2011,38.3279,-122.7092,0,0,0,0,0,0,0,0,0,0,0,0,0,0,0,0,0,0,0,0,0,0,0,0,0,0,0,1,0,0,0,0,0,0,0,1,0,0,0,0,0
"259",1426,"Healdsburg, CA","Healdsburg","CA",2011,38.6229,-122.8651,0,0,0,0,0,0,0,0,0,0,0,0,0,0,0,0,0,1,0,0,0,0,0,0,0,0,0,0,0,0,0,0,0,0,0,1,1,0,0,0,0
"260",1427,"Rohnert Park, CA","Rohnert Park","CA",2011,38.348,-122.6964,0,0,1,0,0,0,0,0,0,0,0,0,0,0,0,0,0,0,0,0,0,0,0,1,0,0,0,0,0,0,0,0,0,0,0,2,2,0,0,0,0
"261",1428,"Santa Rosa, CA","Santa Rosa","CA",2011,38.4458,-122.7067,0,0,0,0,0,0,0,0,0,0,0,0,0,0,0,0,0,0,0,0,0,0,0,1,0,0,0,0,0,0,0,0,0,0,0,1,1,0,0,0,0
"262",1429,"Petaluma, CA","Petaluma","CA",2011,38.2423,-122.6267,0,0,0,0,0,1,0,0,0,0,0,0,0,0,0,0,0,0,0,0,0,0,0,0,0,0,0,0,0,0,0,0,0,0,0,1,1,0,0,0,0
"263",1430,"Modesto, CA","Modesto","CA",2011,37.6374,-121.0028,0,0,0,0,0,2,0,0,0,0,1,0,0,0,0,0,0,1,0,0,0,0,0,0,0,0,0,0,0,0,0,0,0,0,0,4,3,0,0,1,0
"264",1431,"Patterson, CA","Patterson","CA",2011,37.4758,-121.1535,0,0,0,0,0,1,0,0,0,0,0,0,0,0,0,0,0,0,0,0,0,0,0,0,0,0,0,0,0,0,0,0,0,0,0,1,1,0,0,0,0
"265",1432,"Turlock, CA","Turlock","CA",2011,37.5053,-120.8588,0,0,0,0,0,0,0,0,0,0,0,0,0,0,1,0,0,0,0,0,0,0,0,0,0,0,0,0,0,0,0,0,0,0,0,1,1,0,0,0,0
"266",1433,"Farmersville, CA","Farmersville","CA",2011,36.3053,-119.2083,0,0,0,0,0,0,0,0,0,0,0,0,0,0,0,0,0,0,0,0,0,0,0,0,0,0,0,1,0,0,0,0,0,0,0,1,0,0,0,0,0
"267",1434,"Visalia, CA","Visalia","CA",2011,36.3276,-119.3269,0,0,0,0,0,0,0,0,0,0,0,0,0,0,0,0,0,0,0,0,0,0,0,0,0,0,0,1,0,0,0,0,0,0,0,1,0,0,0,0,0
"268",1435,"Sonora, CA","Sonora","CA",2011,37.9819,-120.3828,0,0,0,0,0,1,0,0,0,0,0,0,0,0,0,0,0,0,0,0,0,1,0,0,0,0,0,0,0,0,0,0,0,0,0,2,1,0,0,0,1
"269",1436,"Camarillo, CA","Camarillo","CA",2011,34.223,-119.0322,0,0,0,0,0,1,0,0,0,0,0,0,0,0,0,0,0,0,0,0,0,0,0,0,0,0,0,0,1,0,0,0,0,0,0,2,1,0,1,0,0
"270",1437,"Ojai, CA","Ojai","CA",2011,34.4487,-119.2469,0,0,0,0,0,0,0,0,0,0,1,0,0,0,0,0,0,0,0,0,0,0,0,0,0,0,0,0,0,0,0,0,0,0,0,1,0,0,0,1,0
"271",1438,"Oxnard, CA","Oxnard","CA",2011,34.1963,-119.1815,0,0,0,0,0,1,0,0,0,0,0,0,0,0,1,0,0,0,0,1,0,0,0,0,0,0,0,1,0,0,0,0,0,0,0,4,2,0,0,1,0
"272",1439,"Thousand Oaks, CA","Thousand Oaks","CA",2011,34.1914,-118.8755,0,0,1,0,0,0,0,0,0,0,0,0,0,0,1,0,0,2,0,0,0,0,0,0,0,0,0,0,2,0,0,0,0,0,0,6,4,0,2,0,0
"273",1440,"Simi Valley, CA","Simi Valley","CA",2011,34.2663,-118.749,0,0,0,0,0,1,0,0,0,0,0,0,0,0,0,0,0,1,0,0,0,0,0,0,0,0,0,0,1,0,0,0,0,0,0,3,2,0,1,0,0
"274",1441,"Davis, CA","Davis","CA",2011,38.5552,-121.7365,0,0,0,0,0,1,0,0,0,0,2,0,0,0,0,0,0,4,1,0,0,0,0,0,0,0,0,2,0,0,0,0,0,0,0,10,5,0,0,3,0
"275",1442,"Woodland, CA","Woodland","CA",2011,38.6712,-121.75,0,0,0,0,0,0,0,0,0,0,0,0,0,0,0,0,0,0,0,1,0,0,0,0,0,0,0,0,0,0,0,0,0,0,0,1,0,0,0,1,0
"276",1443,"Marysville, CA","Marysville","CA",2011,39.1518,-121.5835,0,0,0,0,0,2,0,0,0,0,0,0,0,0,0,0,0,0,0,0,0,0,0,0,0,0,0,0,0,0,0,0,0,0,0,2,2,0,0,0,0
"277",1444,"Aurora, CO","Aurora","CO",2011,39.7087,-104.7273,0,0,0,0,0,2,0,0,0,0,0,0,0,0,0,0,0,0,1,0,0,0,0,0,0,0,0,0,0,0,0,0,0,1,0,4,3,0,0,1,0
"278",1445,"Thornton, CO","Thornton","CO",2011,39.9197,-104.9438,0,0,0,0,0,1,0,0,0,0,0,0,0,0,0,0,0,1,0,0,0,0,0,0,0,0,0,0,0,0,0,0,0,0,0,2,2,0,0,0,0
"279",1446,"Northglenn, CO","Northglenn","CO",2011,39.9108,-104.9783,0,0,0,0,0,0,0,0,0,0,0,0,0,0,0,0,0,0,0,0,0,0,0,0,0,0,0,0,0,0,0,0,0,1,0,1,1,0,0,0,0
"280",1447,"Alamosa, CO","Alamosa","CO",2011,37.4751,-105.8769,0,0,0,0,0,0,0,0,0,0,0,0,0,0,0,0,0,0,0,1,0,0,0,0,1,0,0,0,0,0,0,0,0,0,0,2,0,0,0,1,0
"281",1448,"Englewood, CO","Englewood","CO",2011,39.6468,-104.9942,0,0,0,0,0,0,0,0,0,0,0,0,0,0,0,0,0,1,0,0,0,0,0,0,0,0,0,0,0,0,0,0,0,1,0,2,2,0,0,0,0
"282",1449,"Littleton, CO","Littleton","CO",2011,39.5915,-105.0188,0,0,0,0,0,5,0,0,0,0,1,0,0,0,0,0,0,0,0,0,0,0,0,1,0,0,0,0,0,0,0,0,0,2,0,9,8,0,0,1,0
"283",1450,"Centennial, CO","Centennial","CO",2011,39.5926,-104.8674,0,0,1,0,0,1,0,0,0,0,1,0,0,0,0,1,0,1,0,0,0,0,0,1,0,0,0,0,0,0,0,0,0,1,0,7,5,0,1,1,0
"284",1451,"Boulder, CO","Boulder","CO",2011,40.0249,-105.2523,0,0,0,0,0,1,0,0,0,0,0,0,0,0,0,1,0,0,0,0,0,0,0,0,0,0,0,0,0,0,0,0,0,0,0,2,1,0,1,0,0
"285",1452,"Lafayette, CO","Lafayette","CO",2011,39.9949,-105.0997,0,0,0,0,0,0,0,0,0,0,0,0,0,0,0,0,0,0,0,0,0,0,0,0,0,0,0,0,0,0,0,0,0,1,0,1,1,0,0,0,0
"286",1453,"Longmont, CO","Longmont","CO",2011,40.1686,-105.1005,0,0,0,0,0,1,0,0,0,0,0,0,0,0,0,0,0,0,0,0,0,0,0,0,0,0,0,0,0,0,0,0,0,2,0,3,3,0,0,0,0
"287",1454,"Buena Vista, CO","Buena Vista","CO",2011,38.832,-106.1386,0,0,0,0,0,0,0,0,0,0,1,0,0,0,0,0,0,0,0,0,0,0,0,0,0,0,0,0,0,0,0,0,0,0,0,1,0,0,0,1,0
"288",1455,"Parker, CO","Parker","CO",2011,39.5084,-104.7753,0,0,0,0,0,1,0,0,0,0,0,0,0,0,0,0,0,0,0,0,0,0,0,0,0,0,0,0,0,0,0,0,0,0,0,1,1,0,0,0,0
"289",1456,"Lone Tree, CO","Lone Tree","CO",2011,39.5309,-104.871,0,0,0,0,0,0,0,0,0,0,0,0,0,0,0,0,0,0,0,0,0,0,0,0,0,0,0,0,1,0,0,0,0,7,0,8,7,0,1,0,0
"290",1457,"Basalt, CO","Basalt","CO",2011,39.3663,-107.0414,0,0,0,0,0,0,0,0,0,0,0,0,0,0,0,0,0,0,0,0,0,0,0,0,0,0,0,0,0,0,0,0,0,1,0,1,1,0,0,0,0
"291",1458,"Colorado Springs, CO","Colorado Springs","CO",2011,38.8674,-104.7606,0,0,0,0,0,4,0,1,0,0,1,0,0,0,0,1,0,2,0,0,0,0,0,0,1,0,0,0,0,0,0,0,0,0,0,10,6,0,2,1,0
"292",1459,"Palmer Lake, CO","Palmer Lake","CO",2011,39.1152,-104.9057,0,0,0,0,0,1,0,0,0,0,0,0,0,0,0,0,0,0,0,0,0,0,0,0,0,0,0,0,0,0,0,0,0,0,0,1,1,0,0,0,0
"293",1460,"Monument, CO","Monument","CO",2011,39.0735,-104.8467,0,0,0,0,0,1,0,0,0,0,0,0,0,0,0,0,0,1,0,0,0,0,0,0,0,0,0,0,0,0,0,0,0,0,0,2,2,0,0,0,0
"294",1461,"Glenwood Springs, CO","Glenwood Springs","CO",2011,39.5455,-107.3346,0,0,0,0,0,0,0,0,0,0,0,0,0,0,1,0,0,0,0,0,0,0,0,0,0,0,0,0,0,0,0,0,0,0,0,1,1,0,0,0,0
"295",1462,"Parachute, CO","Parachute","CO",2011,39.4501,-108.0549,0,0,0,0,0,1,0,0,0,0,0,0,0,0,0,0,0,0,0,0,0,0,0,0,0,0,0,0,0,0,0,0,0,0,0,1,1,0,0,0,0
"296",1463,"Golden, CO","Golden","CO",2011,39.7406,-105.2118,0,0,0,0,0,0,0,0,0,0,0,0,0,0,1,0,0,0,0,0,0,0,0,0,0,0,0,0,0,0,0,0,0,0,0,1,1,0,0,0,0
"297",1464,"Lakewood, CO","Lakewood","CO",2011,39.6977,-105.1168,0,0,0,0,0,2,0,0,0,0,0,0,0,0,1,0,0,0,0,0,0,0,0,0,0,0,0,0,0,0,0,0,0,0,0,3,3,0,0,0,0
"298",1465,"Wheat Ridge, CO","Wheat Ridge","CO",2011,39.7728,-105.1029,0,0,0,0,0,0,0,0,0,0,0,0,0,0,0,0,0,0,0,0,0,0,0,0,0,0,0,0,0,0,0,0,0,1,0,1,1,0,0,0,0
"299",1466,"Durango, CO","Durango","CO",2011,37.2659,-107.8782,0,0,0,0,0,3,0,0,0,0,3,0,0,0,1,0,0,0,0,0,0,0,0,0,0,0,0,2,0,0,0,0,0,0,0,9,4,0,0,3,0
"300",1467,"Estes Park, CO","Estes Park","CO",2011,40.3699,-105.5216,0,0,1,0,0,0,0,0,0,0,0,0,0,0,0,0,0,0,0,0,0,0,0,0,0,0,0,0,0,0,0,0,0,0,0,1,1,0,0,0,0
"301",1468,"Fort Collins, CO","Fort Collins","CO",2011,40.5478,-105.0656,0,0,0,0,0,1,0,0,0,0,0,0,0,0,1,0,0,0,0,1,0,0,0,1,1,0,0,0,0,0,0,0,0,1,0,6,4,0,0,1,0
"302",1469,"Loveland, CO","Loveland","CO",2011,40.4166,-105.0623,0,0,1,0,0,0,0,0,0,0,0,0,0,0,0,0,0,0,0,0,0,0,0,0,0,0,0,0,0,0,0,0,0,0,0,1,1,0,0,0,0
"303",1470,"Sterling, CO","Sterling","CO",2011,40.6206,-103.1925,0,0,0,0,0,1,0,0,0,0,0,0,0,0,0,0,0,0,0,0,0,0,0,0,0,0,0,0,0,0,0,0,0,0,0,1,1,0,0,0,0
"304",1471,"Grand Junction, CO","Grand Junction","CO",2011,39.0876,-108.5673,0,0,0,0,0,1,0,0,0,0,0,0,0,0,0,0,0,1,0,1,0,0,0,0,0,0,0,0,0,0,1,0,0,0,0,4,2,0,1,1,0
"305",1472,"Craig, CO","Craig","CO",2011,40.517,-107.5555,0,0,0,0,0,2,0,0,0,0,0,0,0,0,0,0,0,0,0,0,0,0,0,0,0,0,0,0,0,0,0,0,0,0,0,2,2,0,0,0,0
"306",1473,"Mancos, CO","Mancos","CO",2011,37.3466,-108.2939,0,0,0,0,0,0,0,0,0,0,1,0,0,0,0,0,0,0,0,0,0,0,0,0,0,0,0,0,0,0,0,0,0,0,0,1,0,0,0,1,0
"307",1474,"Montrose, CO","Montrose","CO",2011,38.469,-107.859,0,0,0,0,0,0,0,0,0,0,0,0,0,0,0,0,0,0,0,0,0,0,0,0,0,0,0,1,0,0,0,0,0,0,0,1,0,0,0,0,0
"308",1475,"Fort Morgan, CO","Fort Morgan","CO",2011,40.2538,-103.7909,0,0,0,0,0,1,0,0,0,0,0,0,0,0,0,0,0,0,0,0,0,0,0,0,0,0,0,0,0,0,0,0,0,0,0,1,1,0,0,0,0
"309",1476,"La Junta, CO","La Junta","CO",2011,37.9792,-103.5473,0,0,0,0,0,0,0,0,0,0,0,0,0,0,0,0,0,0,0,1,0,0,0,0,0,0,0,0,0,0,0,0,0,0,0,1,0,0,0,1,0
"310",1477,"Aspen, CO","Aspen","CO",2011,39.195,-106.8369,0,0,0,0,0,1,0,0,0,0,0,0,0,0,0,0,0,0,0,2,0,0,0,0,0,0,0,0,0,0,0,0,0,0,0,3,1,0,0,2,0
"311",1478,"Pueblo, CO","Pueblo","CO",2011,38.2705,-104.6112,0,0,0,0,0,2,0,0,0,0,2,0,0,0,1,0,0,0,0,0,0,0,0,1,0,0,0,1,0,0,0,0,0,1,0,8,5,0,0,2,0
"312",1479,"Steamboat Springs, CO","Steamboat Springs","CO",2011,40.4777,-106.8243,0,0,0,0,0,1,0,1,0,0,0,0,0,0,1,0,0,0,0,0,0,0,0,0,4,0,0,0,0,0,0,0,0,0,0,7,2,0,1,0,0
"313",1480,"Breckenridge, CO","Breckenridge","CO",2011,39.4995,-106.0433,2,0,0,0,0,0,0,0,0,0,0,0,0,0,0,0,0,0,0,0,0,0,0,0,0,0,0,0,0,0,0,0,0,0,0,2,2,0,0,0,0
"314",1481,"Frisco, CO","Frisco","CO",2011,39.5792,-106.0916,0,0,0,0,0,0,0,0,0,0,0,0,0,0,0,0,0,0,0,1,0,0,0,0,0,0,0,0,0,0,0,0,0,0,0,1,0,0,0,1,0
"315",1482,"Fort Lupton, CO","Fort Lupton","CO",2011,40.0831,-104.8024,0,0,0,0,0,0,0,0,0,0,0,0,0,0,1,0,0,0,0,0,0,0,0,0,0,0,0,0,0,0,0,0,0,0,0,1,1,0,0,0,0
"316",1483,"Greeley, CO","Greeley","CO",2011,40.4151,-104.7706,0,0,0,0,0,5,0,0,0,0,0,0,0,0,2,0,0,0,0,0,0,0,0,0,0,0,0,2,0,0,1,0,0,0,0,10,7,0,1,0,0
"317",1484,"Broomfield, CO","Broomfield","CO",2011,39.9541,-105.0527,0,0,0,0,0,0,0,0,0,0,0,0,0,0,0,1,0,0,0,0,0,0,0,0,0,0,0,0,0,0,0,0,0,0,0,1,0,0,1,0,0
"318",1485,"Denver, CO","Denver","CO",2011,39.7621,-104.8759,0,0,0,0,0,5,0,0,0,0,6,0,0,0,0,1,0,1,1,5,0,0,0,0,0,0,0,2,1,0,0,0,0,3,0,25,9,0,2,12,0
"319",1486,"Bridgeport, CT","Bridgeport","CT",2011,41.1918,-73.1953,0,0,0,0,1,0,0,0,0,0,0,0,0,0,3,0,0,0,0,0,0,0,0,0,0,0,0,1,1,0,0,0,0,0,0,6,3,0,1,1,0
"320",1487,"Bristol, CT","Bristol","CT",2011,41.6812,-72.9407,0,0,0,0,0,0,0,0,0,0,0,0,0,0,0,0,0,0,0,1,0,0,0,0,0,0,0,0,0,0,0,0,0,0,0,1,0,0,0,1,0
"321",1488,"Danbury, CT","Danbury","CT",2011,41.4016,-73.471,0,0,0,0,0,2,0,0,0,0,0,0,0,0,1,0,0,0,0,0,0,0,0,0,0,0,0,0,0,0,0,0,0,0,0,3,3,0,0,0,0
"322",1489,"Hartford, CT","Hartford","CT",2011,41.7661,-72.6834,0,0,0,0,0,1,0,0,0,0,1,0,0,0,0,0,0,0,0,0,0,0,0,0,0,0,0,1,0,0,0,0,0,2,0,5,3,0,0,1,0
"323",1490,"Middletown, CT","Middletown","CT",2011,41.5476,-72.6549,0,0,0,0,0,1,0,0,0,0,0,0,0,0,0,0,0,2,0,0,0,0,0,0,0,0,0,0,0,0,0,0,0,0,0,3,3,0,0,0,0
"324",1491,"Milford, CT","Milford","CT",2011,41.2256,-73.0616,0,0,0,0,0,2,0,0,0,0,0,0,0,0,0,0,0,0,0,0,0,0,0,0,0,0,0,0,0,0,0,0,0,1,0,3,3,0,0,0,0
"325",1492,"Naugatuck, CT","Naugatuck","CT",2011,41.489,-73.0518,0,0,0,0,0,2,0,0,0,0,0,0,0,0,0,0,0,0,0,0,0,0,0,1,0,0,0,1,0,0,0,0,0,0,0,4,3,0,0,0,0
"326",1493,"New Britain, CT","New Britain","CT",2011,41.6758,-72.7862,0,0,0,0,0,0,0,0,0,0,0,0,0,0,0,0,0,1,0,0,0,0,0,0,0,0,0,0,0,0,0,0,0,0,0,1,1,0,0,0,0
"327",1494,"New Haven, CT","New Haven","CT",2011,41.3112,-72.9246,0,0,0,0,0,4,0,0,0,0,1,0,0,0,1,0,0,0,1,0,0,0,0,0,0,0,0,1,0,0,0,0,0,0,0,8,5,0,0,2,0
"328",1495,"New London, CT","New London","CT",2011,41.3502,-72.1023,0,0,0,0,0,0,0,0,0,0,0,0,0,0,0,0,0,1,0,1,0,0,0,1,0,0,0,0,0,0,0,0,0,5,0,8,7,0,0,1,0
"329",1496,"Norwalk, CT","Norwalk","CT",2011,41.1144,-73.4215,0,0,1,0,0,2,0,0,0,0,0,0,0,0,0,0,0,0,0,0,0,0,0,0,0,0,0,0,0,0,0,0,0,0,0,3,3,0,0,0,0
"330",1497,"Norwich, CT","Norwich","CT",2011,41.5495,-72.0882,0,0,0,0,1,1,0,0,0,0,1,0,0,0,0,0,0,1,0,0,0,0,0,0,0,0,0,0,0,0,0,0,0,0,0,4,2,0,0,2,0
"331",1498,"Shelton, CT","Shelton","CT",2011,41.306,-73.1383,0,0,0,0,0,0,0,0,0,0,1,0,0,0,0,0,0,0,0,0,0,0,0,0,0,0,0,0,0,0,0,0,0,0,0,1,0,0,0,1,0
"332",1499,"Torrington, CT","Torrington","CT",2011,41.8349,-73.1281,0,0,0,0,0,1,0,0,0,0,0,0,0,0,0,0,0,0,0,0,0,0,0,0,0,0,0,0,0,0,0,0,0,0,0,1,1,0,0,0,0
"333",1500,"Waterbury, CT","Waterbury","CT",2011,41.5583,-73.0361,0,0,0,0,0,1,0,0,0,0,1,0,0,0,0,0,0,1,0,0,0,0,0,1,0,0,0,0,0,0,0,0,0,0,0,4,3,0,0,1,0
"334",1501,"Washington, DC","Washington","DC",2011,38.9047,-77.0163,0,0,1,0,0,12,0,0,0,0,37,0,0,0,3,0,0,2,6,0,0,0,0,5,0,0,0,4,0,0,0,0,0,9,0,79,32,0,0,43,0
"335",1502,"Dover, DE","Dover","DE",2011,39.161,-75.5203,0,0,1,0,0,0,0,0,0,0,0,0,0,0,0,0,0,0,0,0,0,0,0,0,0,0,0,0,0,0,0,0,0,1,0,2,2,0,0,0,0
"336",1503,"Camden, DE","Camden","DE",2011,39.0991,-75.557,0,0,0,0,0,1,0,0,0,0,0,0,0,0,0,0,0,0,0,0,0,0,0,0,0,0,0,0,0,0,0,0,0,0,0,1,1,0,0,0,0
"337",1504,"Newark, DE","Newark","DE",2011,39.6776,-75.7573,0,0,0,0,0,0,0,0,0,0,0,0,0,0,0,0,0,0,1,0,0,0,0,0,0,0,0,0,0,0,0,0,0,0,0,1,0,0,0,1,0
"338",1505,"Wilmington, DE","Wilmington","DE",2011,39.7415,-75.5413,0,0,0,0,0,1,0,0,0,0,0,0,0,0,0,0,0,0,0,0,0,0,0,0,0,0,0,0,1,0,1,0,0,0,0,3,1,0,2,0,0
"339",1506,"Gainesville, FL","Gainesville","FL",2011,29.6804,-82.3458,0,0,0,0,0,0,0,0,0,0,0,0,0,0,0,0,0,6,0,3,0,0,0,0,0,0,0,0,0,0,2,0,0,2,0,13,8,0,2,3,0
"340",1507,"Panama City, FL","Panama City","FL",2011,30.1995,-85.6004,0,0,0,0,0,1,0,0,0,0,0,0,0,0,0,0,0,0,0,0,0,0,0,0,0,0,0,1,0,0,0,0,0,0,0,2,1,0,0,0,0
"341",1508,"Melbourne, FL","Melbourne","FL",2011,28.1085,-80.6627,0,0,0,0,0,1,0,0,0,0,0,0,0,0,0,0,0,0,0,2,0,0,0,0,0,0,0,1,0,0,0,0,0,0,0,4,1,0,0,2,0
"342",1509,"Palm Bay, FL","Palm Bay","FL",2011,27.955,-80.6627,0,0,0,0,0,0,0,0,0,0,0,0,0,0,0,0,0,0,0,0,0,0,0,0,0,0,0,1,0,0,0,0,0,0,0,1,0,0,0,0,0
"343",1510,"Dania Beach, FL","Dania Beach","FL",2011,26.0594,-80.1637,0,0,1,0,0,0,0,0,0,0,0,0,0,0,0,0,0,0,0,0,0,0,0,0,0,0,0,0,0,0,0,0,0,0,0,1,1,0,0,0,0
"344",1511,"Wilton Manors, FL","Wilton Manors","FL",2011,26.1593,-80.1395,0,0,0,0,0,1,0,0,0,0,0,0,0,0,0,0,0,0,0,1,0,0,0,0,0,0,0,0,0,0,0,0,0,0,0,2,1,0,0,1,0
"345",1512,"Oakland Park, FL","Oakland Park","FL",2011,26.178,-80.1528,0,0,0,0,0,0,0,0,0,0,0,0,0,0,0,0,0,0,0,0,0,0,0,0,0,0,0,0,0,0,0,0,0,1,0,1,1,0,0,0,0
"346",1513,"Weston, FL","Weston","FL",2011,26.1006,-80.4054,0,0,0,0,0,0,0,0,0,0,0,0,0,0,0,0,0,1,0,0,0,0,0,0,0,0,0,0,0,0,0,0,0,0,0,1,1,0,0,0,0
"347",1514,"Marco Island, FL","Marco Island","FL",2011,25.933,-81.6993,0,0,0,0,0,0,0,0,0,0,0,0,0,0,0,0,0,1,0,0,0,0,0,0,0,0,0,0,0,0,0,0,0,0,0,1,1,0,0,0,0
"348",1515,"Homestead, FL","Homestead","FL",2011,25.4665,-80.4472,0,0,0,0,0,1,0,0,0,0,0,0,0,0,0,0,0,0,0,1,0,0,0,0,0,0,0,1,0,0,0,0,0,0,0,3,1,0,0,1,0
"349",1516,"Miami Beach, FL","Miami Beach","FL",2011,25.8171,-80.1396,0,0,0,0,0,1,0,0,0,0,0,0,0,0,0,0,0,1,0,1,0,0,0,0,0,0,0,0,0,0,0,0,0,0,0,3,2,0,0,1,0
"350",1517,"Miami Shores, FL","Miami Shores","FL",2011,25.867,-80.1779,0,0,0,0,0,0,0,0,0,0,0,0,0,0,0,0,0,0,0,1,0,0,0,0,0,0,0,0,0,0,0,0,0,0,0,1,0,0,0,1,0
"351",1518,"Doral, FL","Doral","FL",2011,25.8151,-80.3565,0,0,0,0,0,1,0,0,0,0,0,0,0,0,0,0,0,0,0,0,0,0,0,0,0,0,0,0,0,0,0,0,0,0,0,1,1,0,0,0,0
"352",1519,"North Bay Village, FL","North Bay Village","FL",2011,25.8487,-80.1535,0,0,0,0,0,0,0,0,0,0,0,0,0,0,0,0,0,0,0,0,0,0,0,0,0,0,0,1,0,0,0,0,0,0,0,1,0,0,0,0,0
"353",1520,"Miami Gardens, FL","Miami Gardens","FL",2011,25.9433,-80.2426,0,0,0,0,0,0,0,0,0,0,0,0,0,0,0,0,0,0,0,1,0,0,0,0,0,0,0,1,0,0,0,0,0,0,0,2,0,0,0,1,0
"354",1521,"Jacksonville Beach, FL","Jacksonville Beach","FL",2011,30.2782,-81.4045,0,0,0,0,0,0,0,0,0,0,0,0,0,0,0,0,0,0,0,0,0,0,0,0,0,0,0,0,0,0,0,0,0,1,0,1,1,0,0,0,0
"355",1522,"Pensacola, FL","Pensacola","FL",2011,30.4427,-87.1886,0,0,0,0,0,0,0,0,0,0,0,0,0,0,0,0,0,0,0,1,0,0,0,0,0,0,0,0,0,0,0,0,0,1,0,2,1,0,0,1,0
"356",1523,"Leesburg, FL","Leesburg","FL",2011,28.7657,-81.8996,0,0,0,0,0,0,0,0,0,0,0,0,0,0,0,0,0,0,0,1,0,0,0,0,0,0,0,0,0,0,0,0,0,0,0,1,0,0,0,1,0
"357",1524,"Mount Dora, FL","Mount Dora","FL",2011,28.8143,-81.6344,0,0,0,0,0,0,0,0,0,0,0,0,0,0,0,0,0,1,0,0,0,0,0,0,0,0,0,0,0,0,0,0,0,0,0,1,1,0,0,0,0
"358",1525,"Ocala, FL","Ocala","FL",2011,29.178,-82.1511,0,0,0,0,0,0,0,0,0,0,0,0,0,0,0,0,0,1,0,0,0,0,0,0,0,0,0,0,0,0,0,0,0,0,0,1,1,0,0,0,0
"359",1526,"Stuart, FL","Stuart","FL",2011,27.1958,-80.2438,0,0,0,0,0,0,0,0,0,0,0,0,0,0,0,0,0,0,0,0,0,0,0,0,0,0,0,0,0,0,0,0,0,1,0,1,1,0,0,0,0
"360",1527,"Key West, FL","Key West","FL",2011,24.5637,-81.7768,0,0,0,0,0,0,0,0,0,0,0,0,0,0,0,0,0,0,0,1,0,0,0,0,0,0,0,0,0,0,0,0,0,0,0,1,0,0,0,1,0
"361",1528,"Fort Walton Beach, FL","Fort Walton Beach","FL",2011,30.4249,-86.6194,0,0,0,0,0,0,0,0,0,0,0,0,0,0,0,0,0,0,0,0,0,1,0,0,0,0,0,0,0,0,0,0,0,0,0,1,0,0,0,0,1
"362",1529,"Orlando, FL","Orlando","FL",2011,28.4772,-81.3369,0,0,0,0,0,4,0,0,0,0,0,0,0,0,0,0,0,0,0,3,0,0,0,0,0,0,0,0,0,0,0,0,0,0,0,7,4,0,0,3,0
"363",1530,"Winter Garden, FL","Winter Garden","FL",2011,28.5421,-81.5966,0,0,1,0,0,0,0,0,0,0,0,0,0,0,0,0,0,0,0,0,0,0,0,0,0,0,0,1,0,0,0,0,0,0,0,2,1,0,0,0,0
"364",1531,"Boca Raton, FL","Boca Raton","FL",2011,26.3752,-80.108,0,0,0,0,0,1,0,0,0,0,0,0,0,0,0,0,0,1,0,0,0,0,0,0,0,0,0,0,0,0,0,0,0,0,0,2,2,0,0,0,0
"365",1532,"Boynton Beach, FL","Boynton Beach","FL",2011,26.5281,-80.0811,0,0,0,0,0,0,0,0,0,0,0,0,0,0,0,0,0,1,0,1,0,0,0,0,0,0,0,0,0,0,0,0,0,0,0,2,1,0,0,1,0
"366",1533,"Lake Worth, FL","Lake Worth","FL",2011,26.6196,-80.0591,0,0,0,0,0,1,0,0,0,0,0,0,0,0,0,0,0,0,0,0,0,0,0,0,0,0,0,0,0,0,0,0,0,0,0,1,1,0,0,0,0
"367",1534,"Jupiter, FL","Jupiter","FL",2011,26.9199,-80.1128,0,0,0,0,0,0,0,0,0,0,0,0,0,0,0,0,0,0,0,0,0,0,0,0,0,0,0,0,0,0,0,0,0,1,0,1,1,0,0,0,0
"368",1535,"Royal Palm Beach, FL","Royal Palm Beach","FL",2011,26.7038,-80.2241,0,0,0,0,0,0,0,0,0,0,0,0,0,0,0,0,0,1,0,0,0,0,0,0,0,0,0,0,0,0,0,0,0,0,0,1,1,0,0,0,0
"369",1536,"Port St. Lucie, FL","Port St. Lucie","FL",2011,27.2796,-80.3883,0,0,0,0,0,0,0,0,0,0,0,0,0,0,0,0,0,1,0,0,0,0,0,0,0,0,0,0,0,0,0,0,0,0,0,1,1,0,0,0,0
"370",1537,"Milton, FL","Milton","FL",2011,30.6286,-87.0522,0,0,0,0,0,0,0,0,0,0,0,0,0,0,0,0,0,0,0,0,0,0,0,0,0,0,0,1,0,0,0,0,0,0,0,1,0,0,0,0,0
"371",1538,"Sarasota, FL","Sarasota","FL",2011,27.3386,-82.5431,0,0,0,0,0,0,0,0,0,0,0,0,0,0,0,0,0,0,0,0,0,0,0,0,0,0,0,0,0,0,0,0,0,1,0,1,1,0,0,0,0
"372",1539,"North Port, FL","North Port","FL",2011,27.0577,-82.1975,0,0,0,0,0,1,0,0,0,0,0,0,0,0,0,0,0,0,0,1,0,0,0,0,0,0,0,0,0,0,0,0,0,0,0,2,1,0,0,1,0
"373",1540,"Daytona Beach, FL","Daytona Beach","FL",2011,29.1994,-81.0982,0,0,0,0,0,1,0,0,0,0,0,0,0,0,0,0,0,0,0,1,0,0,0,0,0,0,0,0,0,0,0,0,0,0,0,2,1,0,0,1,0
"374",1541,"DeLand, FL","DeLand","FL",2011,29.0224,-81.2873,0,0,0,0,0,1,0,1,0,0,0,0,0,0,0,0,0,0,0,0,0,0,0,0,0,0,0,0,0,0,0,0,0,0,0,2,1,0,1,0,0
"375",1542,"Warner Robins, GA","Warner Robins","GA",2011,32.597,-83.6529,0,0,0,0,0,0,0,0,0,0,0,0,0,0,0,0,0,0,0,0,0,0,0,0,0,0,0,0,0,0,0,0,0,1,0,1,1,0,0,0,0
"376",1543,"Columbus, GA","Columbus","GA",2011,32.51,-84.8771,0,0,0,0,0,2,0,0,0,0,1,0,0,0,0,1,0,0,0,0,0,0,0,0,0,0,0,0,0,0,0,0,0,0,0,4,2,0,1,1,0
"377",1544,"Atlanta, GA","Atlanta","GA",2011,33.7627,-84.4224,0,0,0,0,0,0,0,0,0,0,2,0,0,0,0,0,0,0,0,0,0,0,0,0,0,0,0,0,0,0,0,0,0,0,0,2,0,0,0,2,0
"378",1545,"Jefferson, IA","Jefferson","IA",2011,42.0173,-94.3798,0,0,0,0,0,1,0,0,0,0,0,0,0,0,0,0,0,0,0,0,0,0,0,0,0,0,0,0,0,0,0,0,0,0,0,1,1,0,0,0,0
"379",1546,"Cedar Rapids, IA","Cedar Rapids","IA",2011,41.9665,-91.6782,0,0,0,0,0,0,0,0,0,0,0,0,0,0,0,0,0,0,0,0,0,0,0,0,0,0,0,1,0,0,0,0,0,0,0,1,0,0,0,0,0
"380",1547,"Des Moines, IA","Des Moines","IA",2011,41.5725,-93.6105,0,0,0,0,0,1,0,0,0,0,0,0,0,0,0,0,0,0,0,0,0,0,0,0,0,0,0,0,0,0,0,0,0,0,0,1,1,0,0,0,0
"381",1548,"Grinnell, IA","Grinnell","IA",2011,41.7361,-92.7244,0,0,0,0,0,0,0,0,0,0,0,0,0,0,0,0,0,0,0,1,0,0,0,0,0,0,0,0,0,0,0,0,0,0,0,1,0,0,0,1,0
"382",1549,"Bettendorf, IA","Bettendorf","IA",2011,41.5656,-90.4764,0,0,0,0,0,2,0,0,0,0,0,0,0,0,0,0,0,0,0,0,0,0,0,0,0,0,0,0,0,0,0,0,0,0,0,2,2,0,0,0,0
"383",1550,"Davenport, IA","Davenport","IA",2011,41.5563,-90.6052,0,0,0,0,0,0,0,0,0,0,1,0,0,0,0,0,0,0,0,0,0,0,0,0,0,0,0,0,0,0,0,0,0,0,0,1,0,0,0,1,0
"384",1551,"Sioux City, IA","Sioux City","IA",2011,42.4959,-96.3901,0,0,0,0,0,0,0,0,0,0,1,0,0,0,0,0,0,0,0,0,0,0,0,0,0,0,0,0,0,0,0,0,0,0,0,1,0,0,0,1,0
"385",1552,"Boise, ID","Boise","ID",2011,43.6007,-116.2312,0,0,1,0,0,5,0,0,0,0,1,0,0,0,0,1,0,1,0,1,0,0,0,0,0,0,0,0,1,0,0,0,0,0,0,11,7,0,2,2,0
"386",1553,"Hailey, ID","Hailey","ID",2011,43.5141,-114.3,0,0,0,0,0,0,0,0,0,0,0,0,0,0,0,0,0,0,0,0,0,0,0,0,0,0,0,0,0,0,0,0,0,1,0,1,1,0,0,0,0
"387",1554,"Nampa, ID","Nampa","ID",2011,43.5845,-116.5631,0,0,0,0,0,0,0,0,0,0,0,0,0,0,2,0,0,0,0,0,0,0,0,1,0,0,0,0,0,0,0,0,0,0,0,3,3,0,0,0,0
"388",1555,"Coeur d'Alene, ID","Coeur d'Alene","ID",2011,47.7041,-116.7935,0,0,0,0,0,2,0,1,0,0,0,0,0,0,3,0,0,0,0,0,0,0,0,1,0,0,0,0,0,0,0,0,0,0,0,7,6,0,1,0,0
"389",1556,"Post Falls, ID","Post Falls","ID",2011,47.7213,-116.9385,0,0,0,0,0,3,0,0,0,0,0,0,0,0,0,0,0,0,0,0,0,0,0,0,0,0,0,0,0,0,0,0,0,0,0,3,3,0,0,0,0
"390",1557,"Rathdrum, ID","Rathdrum","ID",2011,47.7995,-116.8908,0,0,0,0,0,0,0,0,0,0,1,0,0,0,0,0,0,0,0,0,0,0,0,0,0,0,0,0,0,0,0,0,0,0,0,1,0,0,0,1,0
"391",1558,"Rexburg, ID","Rexburg","ID",2011,43.8224,-111.792,0,0,0,0,0,0,0,0,0,0,0,0,0,0,0,0,0,0,0,0,0,0,0,0,0,0,0,0,1,0,0,0,0,0,0,1,0,0,1,0,0
"392",1559,"Twin Falls, ID","Twin Falls","ID",2011,42.5645,-114.4615,0,0,0,0,0,0,0,0,0,0,0,0,0,0,0,0,0,0,0,2,0,0,0,0,0,0,0,0,0,0,0,0,0,0,0,2,0,0,0,2,0
"393",1560,"McCall, ID","McCall","ID",2011,44.9076,-116.1124,0,0,0,0,0,0,0,0,0,0,0,0,0,0,0,0,0,0,0,1,0,0,0,0,0,0,0,0,0,0,0,0,0,0,0,1,0,0,0,1,0
"394",1561,"Cairo, IL","Cairo","IL",2011,37.0062,-89.1819,0,0,0,0,0,0,0,0,0,0,1,0,0,0,0,0,0,0,0,0,0,0,0,0,0,0,0,0,0,0,0,0,0,0,0,1,0,0,0,1,0
"395",1562,"Champaign, IL","Champaign","IL",2011,40.1144,-88.2735,0,0,0,0,0,0,0,0,0,0,2,0,0,0,1,0,0,0,1,0,0,0,0,0,0,0,0,0,0,0,0,0,0,0,0,4,1,0,0,3,0
"396",1563,"Urbana, IL","Urbana","IL",2011,40.1106,-88.1972,0,0,0,0,0,0,0,0,0,0,0,0,0,0,0,0,0,0,0,0,0,0,0,0,0,0,0,2,0,0,0,0,0,0,0,2,0,0,0,0,0
"397",1564,"Mattoon, IL","Mattoon","IL",2011,39.4775,-88.3624,0,0,0,0,0,1,0,0,0,0,1,0,0,0,0,0,0,0,0,0,0,0,0,0,0,0,0,0,0,0,0,0,0,0,0,2,1,0,0,1,0
"398",1565,"Arlington Heights, IL","Arlington Heights","IL",2011,42.0955,-87.9825,0,0,0,0,0,0,0,0,0,0,1,0,0,0,0,0,0,0,0,0,0,0,0,0,0,0,0,0,0,0,0,0,0,0,0,1,0,0,0,1,0
"399",1566,"Bellwood, IL","Bellwood","IL",2011,41.8829,-87.8762,0,0,0,0,0,0,0,0,0,0,1,0,0,0,0,0,0,0,0,0,0,0,0,0,0,0,0,0,0,0,0,0,0,0,0,1,0,0,0,1,0
"400",1567,"Blue Island, IL","Blue Island","IL",2011,41.6578,-87.6812,0,0,0,0,0,1,0,0,0,0,0,0,0,0,0,0,0,0,0,0,0,0,0,0,0,0,0,0,0,0,0,0,0,0,0,1,1,0,0,0,0
"401",1568,"Des Plaines, IL","Des Plaines","IL",2011,42.0345,-87.9009,0,0,0,0,0,0,0,0,0,0,0,0,0,0,1,0,0,0,0,0,0,0,0,0,0,0,0,0,0,0,0,0,0,0,0,1,1,0,0,0,0
"402",1569,"Lyons, IL","Lyons","IL",2011,41.8121,-87.8192,0,0,0,0,0,0,0,0,0,0,0,0,0,0,0,0,0,0,0,0,0,0,0,0,0,0,0,1,0,0,0,0,0,0,0,1,0,0,0,0,0
"403",1570,"Carol Stream, IL","Carol Stream","IL",2011,41.9182,-88.1308,0,0,0,0,0,1,0,0,0,0,0,0,0,0,0,0,0,0,0,0,0,0,0,0,0,0,0,0,0,0,0,0,0,0,0,1,1,0,0,0,0
"404",1571,"Elmhurst, IL","Elmhurst","IL",2011,41.8973,-87.9432,0,0,0,0,0,1,0,0,0,0,0,0,0,0,0,0,0,0,0,0,0,0,0,0,0,0,0,0,0,0,0,0,0,0,0,1,1,0,0,0,0
"405",1572,"Aurora, IL","Aurora","IL",2011,41.7637,-88.2901,0,0,0,0,0,1,0,0,0,0,0,0,0,0,0,0,0,0,0,0,0,0,0,0,0,0,0,0,0,0,0,0,0,1,0,2,2,0,0,0,0
"406",1573,"Leland, IL","Leland","IL",2011,41.616,-88.7982,0,0,0,0,0,0,0,0,0,0,0,0,0,0,0,0,0,0,1,0,0,0,0,0,0,0,0,0,0,0,0,0,0,0,0,1,0,0,0,1,0
"407",1574,"Normal, IL","Normal","IL",2011,40.5218,-88.9881,0,0,0,0,0,0,0,0,0,0,1,0,0,0,0,1,0,0,0,0,0,0,0,0,0,0,0,0,0,0,0,0,0,0,0,2,0,0,1,1,0
"408",1575,"Decatur, IL","Decatur","IL",2011,39.8556,-88.9337,0,0,0,0,0,1,0,0,0,0,0,0,0,0,0,0,0,0,0,0,0,0,0,0,0,0,0,0,0,0,0,0,0,0,0,1,1,0,0,0,0
"409",1576,"Alton, IL","Alton","IL",2011,38.9034,-90.1523,0,0,0,0,0,1,0,0,0,0,0,0,0,0,0,0,0,0,0,0,0,0,0,0,0,0,0,0,0,0,0,0,0,0,0,1,1,0,0,0,0
"410",1577,"Centralia, IL","Centralia","IL",2011,38.5223,-89.1233,0,0,0,0,0,1,0,0,0,0,0,0,0,0,0,0,0,0,0,0,0,0,0,0,0,0,0,0,0,0,0,0,0,0,0,1,1,0,0,0,0
"411",1578,"Olney, IL","Olney","IL",2011,38.7285,-88.0838,0,0,0,0,0,0,0,0,0,0,1,0,0,0,1,0,0,0,0,0,0,0,0,0,0,0,0,0,0,0,0,0,0,0,0,2,1,0,0,1,0
"412",1579,"Moline, IL","Moline","IL",2011,41.4821,-90.4921,0,0,0,0,0,1,0,0,0,0,0,0,0,0,0,0,0,0,0,0,0,0,0,0,0,0,0,0,0,0,0,0,0,0,0,1,1,0,0,0,0
"413",1580,"Springfield, IL","Springfield","IL",2011,39.771,-89.6538,0,0,0,0,0,5,0,0,0,0,0,0,0,0,0,0,0,0,0,0,0,0,0,0,0,0,0,0,0,0,0,0,0,1,0,6,6,0,0,0,0
"414",1581,"East Peoria, IL","East Peoria","IL",2011,40.6734,-89.5419,0,0,0,0,0,1,0,0,0,0,0,0,0,0,0,0,0,0,0,0,0,0,0,0,0,0,0,0,0,0,0,0,0,0,0,1,1,0,0,0,0
"415",1582,"Pekin, IL","Pekin","IL",2011,40.5679,-89.6262,0,0,0,0,0,2,0,0,0,0,0,0,0,0,0,0,0,0,0,0,0,0,0,0,0,0,0,0,0,0,0,0,0,0,0,2,2,0,0,0,0
"416",1583,"Danville, IL","Danville","IL",2011,40.1423,-87.6114,0,0,0,0,0,1,0,0,0,0,0,0,0,0,0,0,0,0,0,0,0,0,0,0,0,0,0,0,0,0,0,0,0,0,0,1,1,0,0,0,0
"417",1584,"Beecher, IL","Beecher","IL",2011,41.3501,-87.6174,0,0,0,0,0,1,0,0,0,0,0,0,0,0,0,0,0,0,0,0,0,0,0,0,0,0,0,0,0,0,0,0,0,0,0,1,1,0,0,0,0
"418",1585,"Joliet, IL","Joliet","IL",2011,41.5189,-88.1499,0,0,0,0,0,0,0,0,0,0,0,0,0,0,1,0,0,0,0,0,0,0,0,0,0,0,0,0,0,0,0,0,0,0,0,1,1,0,0,0,0
"419",1586,"Plainfield, IL","Plainfield","IL",2011,41.6206,-88.2252,0,0,0,0,0,0,0,0,0,0,0,0,0,0,0,0,0,1,0,0,0,0,0,0,0,0,0,0,0,0,0,0,0,0,0,1,1,0,0,0,0
"420",1587,"Marion, IL","Marion","IL",2011,37.7173,-88.9279,0,0,0,0,0,2,0,0,0,0,0,0,0,0,0,0,0,0,0,0,0,0,0,0,0,0,0,0,0,0,0,0,0,0,0,2,2,0,0,0,0
"421",1588,"Rockford, IL","Rockford","IL",2011,42.2597,-89.0641,0,0,0,0,0,5,0,0,0,0,0,0,1,0,0,0,0,0,0,0,0,0,0,0,0,0,0,0,0,0,0,0,0,0,0,6,5,0,0,1,0
"422",1589,"Chicago, IL","Chicago","IL",2011,41.8373,-87.6862,0,0,0,0,0,3,0,1,0,0,4,0,0,0,1,0,0,1,0,0,0,0,0,0,0,0,0,0,0,0,0,0,0,0,0,10,5,0,1,4,0
"423",1590,"Muncie, IN","Muncie","IN",2011,40.1989,-85.395,0,0,0,0,0,2,0,1,0,0,1,0,0,0,0,0,0,0,0,0,0,0,0,1,0,0,0,0,0,0,1,0,0,0,0,6,3,0,2,1,0
"424",1591,"Seymour, IN","Seymour","IN",2011,38.9476,-85.891,0,0,0,0,0,1,0,0,0,0,0,0,0,0,0,0,0,0,0,0,0,0,0,0,0,0,0,0,0,0,0,0,0,0,0,1,1,0,0,0,0
"425",1592,"Franklin, IN","Franklin","IN",2011,39.4938,-86.0546,0,0,0,0,0,5,0,0,0,0,0,0,0,0,0,0,0,0,0,0,0,0,0,0,0,0,0,1,0,0,0,0,0,0,0,6,5,0,0,0,0
"426",1593,"Hammond, IN","Hammond","IN",2011,41.6169,-87.491,0,0,0,0,0,0,0,0,0,0,0,0,0,0,1,0,0,0,0,0,0,0,0,0,0,0,0,0,0,0,0,0,0,1,0,2,2,0,0,0,0
"427",1594,"Highland, IN","Highland","IN",2011,41.5485,-87.4587,0,0,0,0,0,1,0,0,0,0,0,0,0,0,0,0,0,1,0,0,0,0,0,0,0,0,0,0,0,0,0,0,0,0,0,2,2,0,0,0,0
"428",1595,"Bloomington, IN","Bloomington","IN",2011,39.1637,-86.5257,0,0,0,0,0,2,0,0,0,0,2,0,0,0,0,0,0,0,0,1,0,0,0,0,0,0,0,0,0,0,0,0,0,1,0,6,3,0,0,3,0
"429",1596,"Portage, IN","Portage","IN",2011,41.5866,-87.1792,0,0,0,0,0,2,0,0,0,0,0,0,0,0,0,0,0,0,0,0,0,0,0,0,0,0,0,0,0,0,0,0,0,0,0,2,2,0,0,0,0
"430",1597,"Rushville, IN","Rushville","IN",2011,39.6172,-85.4463,0,0,0,0,0,1,0,0,0,0,0,0,0,0,0,0,0,0,0,0,0,0,0,0,0,0,0,0,0,0,0,0,0,0,0,1,1,0,0,0,0
"431",1598,"Mishawaka, IN","Mishawaka","IN",2011,41.6736,-86.1669,0,0,0,0,0,1,0,0,0,0,0,0,0,0,0,0,0,0,0,2,0,0,0,0,0,0,0,0,0,0,0,0,0,0,0,3,1,0,0,2,0
"432",1599,"Walkerton, IN","Walkerton","IN",2011,41.4656,-86.4825,0,0,0,0,0,1,0,0,0,0,0,0,0,0,0,0,0,0,0,0,0,0,0,1,0,0,0,0,0,0,0,0,0,0,0,2,2,0,0,0,0
"433",1600,"Richmond, IN","Richmond","IN",2011,39.8318,-84.8905,0,0,0,0,0,0,0,0,0,0,0,0,0,0,0,0,0,0,0,0,0,0,0,0,0,0,0,0,0,0,0,0,0,2,0,2,2,0,0,0,0
"434",1601,"Indianapolis, IN","Indianapolis","IN",2011,39.7771,-86.1458,0,0,0,0,0,26,0,0,0,0,4,0,0,0,6,1,0,1,1,0,0,0,0,1,0,0,0,4,1,0,0,0,0,6,0,51,40,0,2,5,0
"435",1602,"Iola, KS","Iola","KS",2011,37.9274,-95.4006,0,0,0,0,0,1,0,0,0,0,0,0,0,0,0,0,0,0,0,0,0,0,0,0,0,0,0,0,0,0,0,0,0,0,0,1,1,0,0,0,0
"436",1603,"Atchison, KS","Atchison","KS",2011,39.5625,-95.1367,0,0,0,0,0,1,0,0,0,0,0,0,0,0,0,0,0,0,0,0,0,0,0,0,0,0,0,0,0,0,0,0,0,0,0,1,1,0,0,0,0
"437",1604,"Ellinwood, KS","Ellinwood","KS",2011,38.3574,-98.5837,0,0,0,0,0,0,0,0,0,0,0,0,0,0,0,1,0,0,0,0,0,0,0,0,0,0,0,0,0,0,0,0,0,0,0,1,0,0,1,0,0
"438",1605,"Hoisington, KS","Hoisington","KS",2011,38.518,-98.7773,0,0,0,0,0,1,0,0,0,0,0,0,0,0,0,0,0,0,0,0,0,0,0,0,0,0,0,0,0,0,0,0,0,0,0,1,1,0,0,0,0
"439",1606,"Fort Scott, KS","Fort Scott","KS",2011,37.8283,-94.7038,0,0,0,0,0,0,0,0,0,0,0,0,0,0,0,0,0,0,0,0,0,0,0,0,0,0,0,0,1,0,0,0,0,0,0,1,0,0,1,0,0
"440",1607,"Andover, KS","Andover","KS",2011,37.6869,-97.1354,0,0,0,0,0,3,0,0,0,0,0,0,0,0,0,0,0,0,0,0,0,0,0,0,0,0,0,0,0,0,0,0,0,0,0,3,3,0,0,0,0
"441",1608,"Clay Center, KS","Clay Center","KS",2011,39.3812,-97.1278,0,0,0,0,0,0,0,0,0,0,0,0,0,0,0,1,0,0,0,0,0,0,0,0,0,0,0,0,0,0,0,0,0,0,0,1,0,0,1,0,0
"442",1609,"Pittsburg, KS","Pittsburg","KS",2011,37.4129,-94.6984,0,0,0,0,0,1,0,0,0,0,0,0,0,0,0,0,0,0,0,1,0,0,0,0,0,0,0,0,0,0,0,0,0,0,0,2,1,0,0,1,0
"443",1610,"Lawrence, KS","Lawrence","KS",2011,38.9597,-95.2641,0,0,0,0,0,0,0,0,0,0,1,0,0,0,0,0,0,0,0,0,0,0,0,0,0,0,0,1,0,0,0,0,0,1,0,3,1,0,0,1,0
"444",1611,"Junction City, KS","Junction City","KS",2011,39.0271,-96.8496,0,0,0,0,0,0,0,0,0,0,0,0,0,0,1,0,0,0,0,0,0,0,0,0,0,0,0,0,0,0,0,0,0,0,0,1,1,0,0,0,0
"445",1612,"Leawood, KS","Leawood","KS",2011,38.9076,-94.6258,0,0,0,0,0,0,0,0,0,0,0,0,0,0,1,0,0,0,0,0,0,0,0,0,0,0,0,0,0,0,0,0,0,0,0,1,1,0,0,0,0
"446",1613,"Overland Park, KS","Overland Park","KS",2011,38.887,-94.687,0,0,1,0,0,2,0,0,0,0,1,0,0,0,0,0,0,1,0,0,0,0,0,0,0,0,0,1,0,0,0,0,0,0,0,6,4,0,0,1,0
"447",1614,"Leavenworth, KS","Leavenworth","KS",2011,39.3239,-94.924,0,0,0,0,0,0,0,0,0,0,0,0,0,0,0,0,0,1,0,0,0,0,0,0,0,0,0,0,0,0,0,0,0,0,0,1,1,0,0,0,0
"448",1615,"Lansing, KS","Lansing","KS",2011,39.2428,-94.8971,0,0,0,0,0,1,0,0,0,0,0,0,0,0,0,0,0,0,0,0,0,0,0,0,0,0,0,0,0,0,0,0,0,0,0,1,1,0,0,0,0
"449",1616,"Emporia, KS","Emporia","KS",2011,38.4028,-96.1924,0,0,0,0,0,0,0,0,0,0,0,0,0,0,0,0,0,0,0,1,0,0,0,0,0,0,0,0,0,0,0,0,0,0,0,1,0,0,0,1,0
"450",1617,"McPherson, KS","McPherson","KS",2011,38.3714,-97.6605,0,0,0,0,0,1,0,0,0,0,0,0,0,0,0,0,0,0,0,0,0,0,0,0,0,0,0,0,0,0,0,0,0,0,0,1,1,0,0,0,0
"451",1618,"Louisburg, KS","Louisburg","KS",2011,38.6203,-94.677,0,0,0,0,0,1,0,0,0,0,0,0,0,0,0,0,0,0,0,0,0,0,0,0,0,0,0,0,0,0,0,0,0,0,0,1,1,0,0,0,0
"452",1619,"Independence, KS","Independence","KS",2011,37.2118,-95.7328,0,0,0,0,0,0,0,0,0,0,0,0,0,0,0,0,0,0,0,0,0,0,0,2,0,0,0,0,0,0,0,0,0,0,0,2,2,0,0,0,0
"453",1620,"Chanute, KS","Chanute","KS",2011,37.6695,-95.4621,0,0,0,0,0,1,0,0,0,0,0,0,0,0,0,0,0,0,0,0,0,0,0,0,0,0,0,0,0,0,0,0,0,0,0,1,1,0,0,0,0
"454",1621,"Pratt, KS","Pratt","KS",2011,37.6764,-98.7451,0,0,0,0,0,0,0,0,0,0,0,0,0,0,0,0,0,0,0,0,0,0,0,0,0,0,0,1,0,0,0,0,0,0,0,1,0,0,0,0,0
"455",1622,"Hutchinson, KS","Hutchinson","KS",2011,38.0671,-97.9081,0,0,0,0,0,2,0,0,0,0,0,0,0,0,0,0,0,0,0,0,0,0,0,0,0,0,0,0,0,0,0,0,0,1,0,3,3,0,0,0,0
"456",1623,"Sterling, KS","Sterling","KS",2011,38.2094,-98.2063,0,0,0,0,0,0,0,0,0,0,0,0,0,0,0,0,0,0,0,1,0,0,0,0,0,0,0,0,0,0,0,0,0,0,0,1,0,0,0,1,0
"457",1624,"Salina, KS","Salina","KS",2011,38.8137,-97.6143,0,0,1,0,0,0,0,0,0,0,0,0,0,0,0,0,0,0,1,1,0,0,0,0,0,0,0,0,0,0,0,0,0,1,0,4,2,0,0,2,0
"458",1625,"Derby, KS","Derby","KS",2011,37.5571,-97.2552,0,0,0,0,0,1,0,0,0,0,0,0,0,0,0,0,0,0,0,0,0,0,0,0,0,0,0,0,0,0,0,0,0,0,0,1,1,0,0,0,0
"459",1626,"Haysville, KS","Haysville","KS",2011,37.5649,-97.3527,0,0,0,0,0,1,0,0,0,0,0,0,0,0,0,0,0,0,0,0,0,0,0,0,0,0,0,0,0,0,0,0,0,0,0,1,1,0,0,0,0
"460",1627,"Wichita, KS","Wichita","KS",2011,37.6896,-97.3442,0,0,0,0,0,6,0,0,0,0,2,0,0,0,3,0,0,2,0,1,0,0,0,0,0,0,0,2,1,0,0,0,0,1,0,18,12,0,1,3,0
"461",1628,"Bel Aire, KS","Bel Aire","KS",2011,37.7749,-97.2457,0,0,0,0,0,1,0,0,0,0,0,0,0,0,0,0,0,0,0,0,0,0,0,0,0,0,0,0,0,0,0,0,0,0,0,1,1,0,0,0,0
"462",1629,"Lawrenceburg, KY","Lawrenceburg","KY",2011,38.0332,-84.9032,0,0,0,0,0,1,0,0,0,0,0,0,0,0,0,0,0,0,0,0,0,0,0,0,0,0,0,0,0,0,0,0,0,0,0,1,1,0,0,0,0
"463",1630,"Glasgow, KY","Glasgow","KY",2011,37.0047,-85.9263,0,0,0,0,0,0,0,0,0,0,0,0,0,0,0,1,0,0,0,0,0,0,0,0,0,0,0,0,0,0,0,0,0,0,0,1,0,0,1,0,0
"464",1631,"Florence, KY","Florence","KY",2011,38.99,-84.647,0,0,1,0,0,3,0,0,0,0,0,0,0,0,0,1,0,1,0,0,0,0,0,1,0,0,0,0,1,0,0,0,0,0,0,8,6,0,2,0,0
"465",1632,"Paris, KY","Paris","KY",2011,38.2016,-84.2719,0,0,0,0,0,0,0,0,0,0,1,0,0,0,1,0,0,0,0,0,0,0,0,0,0,0,0,0,0,0,0,0,0,0,0,2,1,0,0,1,0
"466",1633,"Ashland, KY","Ashland","KY",2011,38.4592,-82.6449,0,0,0,0,0,1,0,0,0,0,0,0,0,0,0,0,0,0,0,0,0,0,0,0,0,0,0,0,0,0,1,0,0,1,0,3,2,0,1,0,0
"467",1634,"Shepherdsville, KY","Shepherdsville","KY",2011,37.9806,-85.6999,0,0,0,0,0,1,0,0,0,0,0,0,0,0,0,0,0,0,0,0,0,0,0,0,0,0,0,0,0,0,0,0,0,0,0,1,1,0,0,0,0
"468",1635,"Mount Washington, KY","Mount Washington","KY",2011,38.043,-85.5549,0,0,0,0,0,1,0,0,0,0,0,0,0,0,0,0,0,0,0,0,0,0,0,0,0,0,0,0,0,0,0,0,0,0,0,1,1,0,0,0,0
"469",1636,"Murray, KY","Murray","KY",2011,36.6146,-88.3206,0,0,0,0,0,1,0,0,0,0,0,0,0,0,0,0,0,0,1,1,0,0,0,0,0,0,0,1,0,0,0,0,0,0,0,4,1,0,0,2,0
"470",1637,"Bellevue, KY","Bellevue","KY",2011,39.1011,-84.4776,0,0,0,0,0,0,0,0,0,0,0,0,0,0,0,1,0,0,0,0,0,0,0,0,0,0,0,0,0,0,0,0,0,0,0,1,0,0,1,0,0
"471",1638,"Dayton, KY","Dayton","KY",2011,39.1127,-84.464,0,0,0,0,0,1,0,0,0,0,0,0,0,0,0,0,0,0,0,0,0,0,0,0,0,0,0,0,0,0,0,0,0,0,0,1,1,0,0,0,0
"472",1639,"Fort Thomas, KY","Fort Thomas","KY",2011,39.0802,-84.4518,0,0,0,0,0,1,0,0,0,0,0,0,0,0,0,0,0,0,0,0,0,0,0,0,0,0,0,0,0,0,0,0,0,0,0,1,1,0,0,0,0
"473",1640,"Newport, KY","Newport","KY",2011,39.0855,-84.4868,0,0,0,0,0,0,0,0,0,0,0,0,0,0,0,0,0,1,0,0,0,0,0,0,0,0,0,0,0,0,0,0,0,0,0,1,1,0,0,0,0
"474",1641,"Wilder, KY","Wilder","KY",2011,39.04,-84.4816,0,0,0,0,0,1,0,0,0,0,0,0,0,0,0,0,0,0,0,0,0,0,0,0,0,0,0,0,0,0,0,0,0,0,0,1,1,0,0,0,0
"475",1642,"Hopkinsville, KY","Hopkinsville","KY",2011,36.8386,-87.4776,0,0,0,0,0,0,0,0,0,0,2,0,0,0,0,0,0,0,0,0,0,0,0,0,0,0,0,0,0,0,0,0,0,0,0,2,0,0,0,2,0
"476",1643,"Oak Grove, KY","Oak Grove","KY",2011,36.6686,-87.4216,0,0,0,0,0,0,0,0,0,0,0,0,0,0,0,1,0,0,0,0,0,0,0,0,0,0,0,0,0,0,0,0,0,1,0,2,1,0,1,0,0
"477",1644,"Owensboro, KY","Owensboro","KY",2011,37.7574,-87.1173,0,0,0,0,0,2,0,1,0,0,0,0,0,0,1,0,0,0,0,0,0,0,0,0,0,0,0,0,0,0,0,0,0,1,0,5,4,0,1,0,0
"478",1645,"Lexington, KY","Lexington","KY",2011,38.0423,-84.4587,0,0,0,0,0,5,0,0,0,0,2,0,0,0,1,0,0,0,0,0,0,0,0,0,0,0,0,0,0,0,0,0,0,4,0,12,10,0,0,2,0
"479",1646,"Frankfort, KY","Frankfort","KY",2011,38.1924,-84.8643,0,0,0,0,0,1,0,0,0,0,0,0,0,0,0,0,0,0,0,0,0,0,0,0,0,0,0,0,0,0,0,0,0,0,0,1,1,0,0,0,0
"480",1647,"Fulton, KY","Fulton","KY",2011,36.5145,-88.8819,0,0,0,0,0,0,0,0,0,0,0,0,0,0,0,0,0,0,1,0,0,0,0,0,0,0,0,0,0,0,0,0,0,0,0,1,0,0,0,1,0
"481",1648,"Elizabethtown, KY","Elizabethtown","KY",2011,37.703,-85.877,0,0,0,0,0,0,0,0,0,0,1,0,0,0,0,0,0,0,0,0,0,0,0,0,0,0,0,0,0,0,0,0,0,2,0,3,2,0,0,1,0
"482",1649,"Radcliff, KY","Radcliff","KY",2011,37.8206,-85.9366,0,0,1,0,0,0,0,0,0,0,0,0,0,0,0,0,0,0,0,0,0,0,0,0,0,0,0,0,0,0,0,0,0,0,0,1,1,0,0,0,0
"483",1650,"Vine Grove, KY","Vine Grove","KY",2011,37.8133,-85.9828,0,0,0,0,0,1,0,0,0,0,0,0,0,0,0,0,0,0,0,0,0,0,0,0,0,0,0,0,0,0,0,0,0,0,0,1,1,0,0,0,0
"484",1651,"Cynthiana, KY","Cynthiana","KY",2011,38.386,-84.2993,0,0,0,0,0,2,0,0,0,0,0,0,0,0,0,0,0,0,0,0,0,0,0,0,0,0,0,0,0,0,0,0,0,1,0,3,3,0,0,0,0
"485",1652,"Madisonville, KY","Madisonville","KY",2011,37.3408,-87.5034,0,0,0,0,0,2,0,0,0,0,0,0,0,0,0,0,0,0,0,0,0,0,0,0,0,0,0,0,0,0,0,0,0,0,0,2,2,0,0,0,0
"486",1653,"St. Matthews, KY","St. Matthews","KY",2011,38.2497,-85.6383,0,0,0,0,0,0,0,0,0,0,1,0,0,0,0,0,0,0,0,0,0,0,0,0,0,0,0,0,0,0,0,0,0,0,0,1,0,0,0,1,0
"487",1654,"Shively, KY","Shively","KY",2011,38.197,-85.8136,0,0,0,0,0,1,0,0,0,0,0,0,0,0,0,0,0,0,0,0,0,0,0,0,0,0,0,0,0,0,0,0,0,1,0,2,2,0,0,0,0
"488",1655,"Graymoor-Devondale, KY","Graymoor-Devondale","KY",2011,38.2733,-85.6177,0,0,0,0,0,1,0,0,0,0,0,0,0,0,0,0,0,0,0,0,0,0,0,0,0,0,0,0,0,0,0,0,0,0,0,1,1,0,0,0,0
"489",1656,"Wilmore, KY","Wilmore","KY",2011,37.8786,-84.6545,0,0,0,0,0,0,0,0,0,0,0,0,0,0,0,0,0,0,0,0,0,0,0,1,0,0,0,0,0,0,0,0,0,0,0,1,1,0,0,0,0
"490",1657,"Covington, KY","Covington","KY",2011,39.0334,-84.5166,0,0,0,0,0,3,0,0,0,0,2,0,0,0,1,1,0,0,0,0,0,0,0,0,0,0,0,0,0,0,0,0,0,0,0,7,4,0,1,2,0
"491",1658,"Erlanger, KY","Erlanger","KY",2011,39.0109,-84.5864,0,0,0,0,0,0,0,0,0,0,0,0,0,0,0,1,0,0,0,0,0,0,0,0,0,0,0,0,1,0,0,0,0,0,0,2,0,0,2,0,0
"492",1659,"Taylor Mill, KY","Taylor Mill","KY",2011,39.0092,-84.4988,0,0,0,0,0,0,0,0,0,0,0,0,0,0,0,0,0,0,0,0,0,0,0,0,0,0,0,0,0,0,0,0,0,1,0,1,1,0,0,0,0
"493",1660,"Paducah, KY","Paducah","KY",2011,37.0711,-88.6436,0,0,0,0,0,1,0,0,0,0,0,0,0,0,1,0,0,0,0,0,0,0,0,0,0,0,0,0,0,0,0,0,0,0,0,2,2,0,0,0,0
"494",1661,"Berea, KY","Berea","KY",2011,37.5904,-84.2898,0,0,0,0,0,2,0,0,0,0,0,0,0,0,0,0,0,0,0,0,0,0,0,0,0,0,0,0,0,0,0,0,0,1,0,3,3,0,0,0,0
"495",1662,"Richmond, KY","Richmond","KY",2011,37.7306,-84.2926,0,0,0,0,0,3,0,0,0,0,0,0,0,0,1,1,0,0,0,0,0,0,0,0,0,0,0,0,0,0,0,0,0,0,0,5,4,0,1,0,0
"496",1663,"Lebanon, KY","Lebanon","KY",2011,37.5689,-85.2578,0,0,0,0,0,1,0,0,0,0,0,0,0,0,0,0,0,0,0,0,0,0,0,0,0,0,0,0,0,0,0,0,0,0,0,1,1,0,0,0,0
"497",1664,"West Liberty, KY","West Liberty","KY",2011,37.9161,-83.2668,0,0,0,0,0,0,0,0,0,0,0,0,0,0,0,0,0,0,0,0,0,0,0,0,0,0,0,0,0,0,1,0,0,0,0,1,0,0,1,0,0
"498",1665,"Bardstown, KY","Bardstown","KY",2011,37.8174,-85.4548,0,0,0,0,0,0,0,0,0,0,0,0,0,0,0,0,0,0,0,0,0,0,0,0,0,0,0,0,0,0,0,0,0,1,0,1,1,0,0,0,0
"499",1666,"Pikeville, KY","Pikeville","KY",2011,37.4807,-82.5262,0,0,0,0,0,1,0,0,0,0,0,0,0,0,0,0,0,0,0,0,0,0,0,0,0,0,0,0,0,0,0,0,0,1,0,2,2,0,0,0,0
"500",1667,"Somerset, KY","Somerset","KY",2011,37.0815,-84.6091,0,0,0,0,0,1,0,0,0,0,0,0,0,0,0,1,0,0,0,0,0,0,0,0,0,0,0,0,0,0,0,0,0,0,0,2,1,0,1,0,0
"501",1668,"Mount Vernon, KY","Mount Vernon","KY",2011,37.3578,-84.3431,0,0,0,0,0,1,0,0,0,0,0,0,0,0,0,0,0,0,0,0,0,0,0,0,0,0,0,0,0,0,0,0,0,0,0,1,1,0,0,0,0
"502",1669,"Morehead, KY","Morehead","KY",2011,38.1906,-83.4467,0,0,0,0,0,1,0,0,0,0,0,0,0,0,0,0,0,0,0,0,0,0,0,0,0,0,0,0,0,0,0,0,0,1,0,2,2,0,0,0,0
"503",1670,"Shelbyville, KY","Shelbyville","KY",2011,38.2069,-85.2293,0,0,0,0,0,0,0,0,0,0,0,0,0,0,1,0,0,0,0,0,0,0,0,0,0,0,0,0,0,1,0,0,0,0,0,2,1,0,0,0,1
"504",1671,"Campbellsville, KY","Campbellsville","KY",2011,37.3446,-85.3511,0,0,0,0,0,0,0,0,0,0,1,0,0,0,0,0,0,0,0,0,0,0,0,1,0,0,0,0,0,0,0,0,0,0,0,2,1,0,0,1,0
"505",1672,"Guthrie, KY","Guthrie","KY",2011,36.6502,-87.1741,0,0,0,0,0,1,0,0,0,0,0,0,0,0,0,0,0,0,0,0,0,0,0,0,0,0,0,0,0,0,0,0,0,0,0,1,1,0,0,0,0
"506",1673,"Bowling Green, KY","Bowling Green","KY",2011,36.9719,-86.4373,0,0,0,0,0,3,0,0,0,0,2,0,0,0,0,0,0,0,0,0,0,0,0,0,0,0,0,1,0,0,0,0,0,0,0,6,3,0,0,2,0
"507",1674,"Williamsburg, KY","Williamsburg","KY",2011,36.7392,-84.1647,0,0,0,0,0,0,0,0,0,0,0,0,0,0,0,0,0,0,0,0,0,0,0,0,0,0,0,0,1,0,0,0,0,0,0,1,0,0,1,0,0
"508",1675,"Versailles, KY","Versailles","KY",2011,38.0487,-84.7259,0,0,0,0,0,0,0,0,0,0,0,0,0,0,1,0,0,0,0,0,0,0,0,0,0,0,0,0,0,0,0,0,0,0,0,1,1,0,0,0,0
"509",1676,"Gonzales, LA","Gonzales","LA",2011,30.2132,-90.9234,0,0,0,0,0,1,0,0,0,0,0,0,0,0,0,0,0,0,0,0,0,0,0,0,0,0,0,0,0,0,0,0,0,0,0,1,1,0,0,0,0
"510",1677,"Kenner, LA","Kenner","LA",2011,30.0109,-90.2549,0,0,0,0,0,0,0,0,0,0,1,0,0,0,0,0,0,0,0,0,0,0,0,0,0,0,0,0,0,0,0,0,0,0,0,1,0,0,0,1,0
"511",1678,"Sterlington, LA","Sterlington","LA",2011,32.6888,-92.0602,0,0,0,0,0,0,0,0,0,0,0,0,0,0,0,0,0,0,1,0,0,0,0,0,0,0,0,0,0,0,0,0,0,0,0,1,0,0,0,1,0
"512",1679,"Barnstable, MA","Barnstable","MA",2011,41.6722,-70.3599,0,0,0,0,0,1,0,0,0,0,2,0,0,0,0,0,0,0,0,0,0,0,0,0,0,0,0,0,0,0,0,0,0,0,0,3,1,0,0,2,0
"513",1680,"North Adams, MA","North Adams","MA",2011,42.6844,-73.1166,0,0,0,0,0,1,0,0,0,0,0,0,0,0,0,0,0,0,0,0,0,0,0,0,0,0,0,0,0,0,0,0,0,0,0,1,1,0,0,0,0
"514",1681,"New Bedford, MA","New Bedford","MA",2011,41.6697,-70.9428,0,0,0,0,0,0,0,0,0,0,1,0,0,0,0,0,0,0,0,0,0,0,0,0,0,0,0,1,0,0,0,0,0,0,0,2,0,0,0,1,0
"515",1682,"Taunton, MA","Taunton","MA",2011,41.9036,-71.0943,0,0,0,0,0,0,0,0,0,0,0,0,0,0,0,0,0,0,0,0,0,0,0,0,0,0,0,1,0,0,0,0,0,0,0,1,0,0,0,0,0
"516",1683,"Amesbury, MA","Amesbury","MA",2011,42.853,-70.9446,0,0,0,0,0,1,0,0,0,0,0,0,0,0,0,0,0,0,0,0,0,0,0,0,0,0,0,0,0,0,0,0,0,0,0,1,1,0,0,0,0
"517",1684,"Beverly, MA","Beverly","MA",2011,42.5681,-70.8627,0,0,0,0,0,0,0,0,0,0,0,0,0,0,0,0,0,1,1,0,0,0,0,0,0,0,0,1,0,0,0,0,0,0,0,3,1,0,0,1,0
"518",1685,"Lawrence, MA","Lawrence","MA",2011,42.7003,-71.1626,0,0,0,0,0,0,0,0,0,0,0,0,0,0,0,0,0,0,0,0,0,0,0,0,0,0,0,0,0,0,0,0,0,1,0,1,1,0,0,0,0
"519",1686,"Lynn, MA","Lynn","MA",2011,42.4779,-70.9663,0,0,0,0,0,1,0,0,0,0,0,0,0,0,0,0,0,0,0,0,0,0,0,0,0,0,0,0,0,0,0,0,0,0,0,1,1,0,0,0,0
"520",1687,"Salem, MA","Salem","MA",2011,42.5129,-70.902,0,0,0,0,0,0,0,0,0,0,0,0,0,0,0,0,0,2,0,0,0,0,0,0,0,0,0,0,0,0,0,0,0,0,0,2,2,0,0,0,0
"521",1688,"Greenfield, MA","Greenfield","MA",2011,42.614,-72.5985,0,0,0,0,0,0,0,0,0,0,1,0,0,0,1,0,0,0,0,0,0,0,0,0,0,0,0,0,0,0,0,0,0,0,0,2,1,0,0,1,0
"522",1689,"Springfield, MA","Springfield","MA",2011,42.1155,-72.5395,0,0,0,0,0,1,0,0,0,0,0,0,0,0,0,0,0,0,0,0,0,0,0,0,0,0,0,0,0,0,0,0,0,0,0,1,1,0,0,0,0
"523",1690,"Westfield, MA","Westfield","MA",2011,42.1382,-72.7561,0,0,0,0,0,0,0,0,0,0,0,0,0,0,0,0,0,0,0,0,0,0,0,0,0,0,0,1,0,0,0,0,0,0,0,1,0,0,0,0,0
"524",1691,"Amherst, MA","Amherst","MA",2011,42.3645,-72.5069,0,0,0,0,0,0,0,0,0,0,0,0,0,0,0,0,0,1,0,0,0,0,0,0,0,0,0,0,0,0,0,0,0,0,0,1,1,0,0,0,0
"525",1692,"Northampton, MA","Northampton","MA",2011,42.3266,-72.6745,0,0,0,0,0,1,0,0,0,0,0,0,0,0,0,0,0,0,0,0,0,0,0,0,0,0,0,0,0,0,0,0,0,0,0,1,1,0,0,0,0
"526",1693,"Cambridge, MA","Cambridge","MA",2011,42.3759,-71.1185,0,0,0,0,0,9,0,1,0,0,3,0,0,0,0,0,0,1,0,0,0,1,0,0,0,0,0,1,0,0,0,0,0,1,0,17,11,0,1,3,1
"527",1694,"Everett, MA","Everett","MA",2011,42.4064,-71.0545,0,0,0,0,0,0,0,0,0,0,1,0,0,0,0,0,0,1,0,0,0,0,0,0,0,0,0,0,0,0,0,0,0,0,0,2,1,0,0,1,0
"528",1695,"Framingham, MA","Framingham","MA",2011,42.3085,-71.4368,0,0,0,0,0,3,0,0,0,0,0,0,0,0,0,0,0,1,0,0,0,0,0,0,0,0,0,0,0,0,0,0,0,0,0,4,4,0,0,0,0
"529",1696,"Lowell, MA","Lowell","MA",2011,42.6389,-71.3217,0,0,0,0,0,0,0,0,0,0,0,0,0,0,0,0,0,0,0,0,0,0,0,0,0,0,0,0,0,0,0,0,0,1,0,1,1,0,0,0,0
"530",1697,"Marlborough, MA","Marlborough","MA",2011,42.3494,-71.5468,0,0,0,0,0,0,0,0,0,0,0,0,0,0,0,0,0,0,0,0,0,0,0,0,0,0,0,1,0,0,0,0,0,0,0,1,0,0,0,0,0
"531",1698,"Newton, MA","Newton","MA",2011,42.3316,-71.2085,0,0,0,0,0,2,0,0,0,0,0,0,0,0,0,0,0,0,0,0,0,0,0,0,0,0,0,0,0,0,0,0,0,0,0,2,2,0,0,0,0
"532",1699,"Somerville, MA","Somerville","MA",2011,42.3908,-71.1013,0,0,0,0,0,0,0,0,0,0,0,0,0,0,0,0,0,0,0,0,0,0,0,0,0,0,0,0,0,0,0,0,0,1,0,1,1,0,0,0,0
"533",1700,"Randolph, MA","Randolph","MA",2011,42.1778,-71.0539,0,0,0,0,0,1,0,0,0,0,0,0,0,0,0,0,0,0,0,0,0,0,0,0,0,0,0,0,0,0,0,0,0,0,0,1,1,0,0,0,0
"534",1701,"Brockton, MA","Brockton","MA",2011,42.0821,-71.0242,0,0,0,0,0,0,0,0,0,0,0,0,0,0,0,0,0,0,0,0,0,0,0,0,0,0,0,0,0,0,0,0,0,1,0,1,1,0,0,0,0
"535",1702,"Boston, MA","Boston","MA",2011,42.3188,-71.0846,0,0,11,0,0,74,0,1,0,0,55,0,0,0,15,8,0,12,8,0,0,0,0,0,0,0,0,4,1,0,0,0,0,17,0,206,129,0,10,63,0
"536",1703,"Chelsea, MA","Chelsea","MA",2011,42.3959,-71.0325,0,0,0,0,0,0,0,0,0,0,1,0,0,0,0,0,0,0,0,0,0,0,0,0,0,0,0,0,0,0,0,0,0,0,0,1,0,0,0,1,0
"537",1704,"Revere, MA","Revere","MA",2011,42.4192,-71.0036,0,0,0,0,0,2,0,1,0,0,0,0,0,0,0,0,0,1,0,0,0,0,0,0,0,0,0,2,0,0,0,0,0,0,0,6,3,0,1,0,0
"538",1705,"Gardner, MA","Gardner","MA",2011,42.5845,-71.9867,0,0,0,0,0,0,0,0,0,0,0,0,0,0,0,0,0,0,0,0,0,0,0,0,0,0,0,0,0,0,1,0,0,0,0,1,0,0,1,0,0
"539",1706,"Leominster, MA","Leominster","MA",2011,42.5209,-71.7717,0,0,1,0,0,0,0,0,0,0,0,0,0,0,0,0,0,0,0,0,0,0,0,0,0,0,0,0,0,0,0,0,0,0,0,1,1,0,0,0,0
"540",1707,"Worcester, MA","Worcester","MA",2011,42.2705,-71.8079,0,0,0,0,0,0,0,0,0,0,2,0,0,0,0,0,0,2,0,0,0,0,0,0,0,0,0,0,0,0,0,0,0,0,0,4,2,0,0,2,0
"541",1708,"Cumberland, MD","Cumberland","MD",2011,39.6515,-78.7585,0,0,0,0,0,1,0,0,0,0,0,0,0,0,0,0,0,0,0,0,0,0,0,0,0,0,0,0,0,0,0,0,0,0,0,1,1,0,0,0,0
"542",1709,"Cambridge, MD","Cambridge","MD",2011,38.5515,-76.0786,0,0,0,0,0,1,0,0,0,0,0,0,0,0,0,0,0,0,0,0,0,0,0,0,0,0,0,0,0,0,0,0,0,0,0,1,1,0,0,0,0
"543",1710,"Bel Air, MD","Bel Air","MD",2011,39.5348,-76.346,0,0,0,0,0,1,0,0,0,0,0,0,0,0,0,0,0,0,0,0,0,0,0,0,0,0,0,0,0,0,0,0,0,1,0,2,2,0,0,0,0
"544",1711,"Laurel, MD","Laurel","MD",2011,39.095,-76.8622,0,0,0,0,0,1,0,0,0,0,0,0,0,0,0,0,0,0,0,0,0,0,0,0,0,0,0,0,0,0,0,0,0,0,0,1,1,0,0,0,0
"545",1712,"Bowie, MD","Bowie","MD",2011,38.9569,-76.7409,0,0,0,0,0,0,0,0,0,0,0,0,0,0,0,0,0,0,0,0,0,0,0,0,0,0,0,0,0,0,1,0,0,0,0,1,0,0,1,0,0
"546",1713,"Crisfield, MD","Crisfield","MD",2011,37.9827,-75.8516,0,0,0,0,0,0,0,0,0,0,0,0,0,0,0,0,0,0,0,0,0,0,0,0,0,0,0,0,0,0,0,0,0,1,0,1,1,0,0,0,0
"547",1714,"Baltimore, MD","Baltimore","MD",2011,39.3051,-76.6144,0,0,1,0,0,1,0,0,0,0,1,0,0,0,2,0,0,0,0,0,0,0,0,0,0,0,0,0,0,0,0,0,0,0,0,5,4,0,0,1,0
"548",1715,"Presque Isle, ME","Presque Isle","ME",2011,46.6868,-67.9874,0,0,0,0,0,0,0,0,0,0,1,0,0,0,0,0,0,0,0,0,0,0,0,0,0,0,0,0,0,0,0,0,0,0,0,1,0,0,0,1,0
"549",1716,"Portland, ME","Portland","ME",2011,43.6773,-70.2715,0,0,0,0,0,7,0,0,0,0,5,0,0,0,0,0,0,3,0,0,0,0,0,0,0,0,0,1,0,0,0,0,0,0,0,16,10,0,0,5,0
"550",1717,"South Portland, ME","South Portland","ME",2011,43.631,-70.2895,0,0,0,0,0,0,0,0,0,0,0,0,0,0,0,0,0,0,0,1,0,0,0,0,0,0,0,0,0,0,0,0,0,0,0,1,0,0,0,1,0
"551",1718,"Augusta, ME","Augusta","ME",2011,44.3341,-69.7319,0,0,0,0,0,0,0,0,0,0,1,0,0,0,0,1,0,0,0,0,0,0,0,0,0,0,0,0,0,0,0,0,0,0,0,2,0,0,1,1,0
"552",1719,"Biddeford, ME","Biddeford","ME",2011,43.4674,-70.4512,0,0,0,0,0,1,0,0,0,0,4,0,0,0,0,0,0,0,0,0,0,0,0,0,0,0,0,0,0,0,0,0,0,0,0,5,1,0,0,4,0
"553",1720,"Saco, ME","Saco","ME",2011,43.539,-70.4624,0,0,0,0,0,0,0,0,0,0,2,0,0,0,0,0,0,2,0,0,0,0,0,0,0,0,0,0,0,0,0,0,0,0,0,4,2,0,0,2,0
"554",1721,"Sanford, ME","Sanford","ME",2011,43.4244,-70.7573,0,0,0,0,0,4,0,0,0,0,1,0,0,0,0,0,0,0,0,0,0,0,0,0,0,0,0,0,0,0,0,0,0,0,0,5,4,0,0,1,0
"555",1722,"Bay City, MI","Bay City","MI",2011,43.5903,-83.8886,0,0,0,0,0,0,0,0,0,0,0,0,0,0,0,1,0,0,0,0,0,0,0,0,0,0,0,0,0,0,0,0,0,0,0,1,0,0,1,0,0
"556",1723,"Benton Harbor, MI","Benton Harbor","MI",2011,42.1159,-86.4488,0,0,0,0,0,2,0,0,0,0,0,0,0,0,0,0,0,0,0,0,0,0,0,0,0,0,0,0,0,0,0,0,0,0,0,2,2,0,0,0,0
"557",1724,"Buchanan, MI","Buchanan","MI",2011,41.8283,-86.3657,0,0,0,0,0,1,0,0,0,0,0,0,0,0,0,0,0,0,0,0,0,0,0,0,0,0,0,0,1,0,0,0,0,0,0,2,1,0,1,0,0
"558",1725,"New Buffalo, MI","New Buffalo","MI",2011,41.7922,-86.7423,0,0,0,0,0,1,0,0,0,0,0,0,0,0,0,0,0,0,0,0,0,0,0,0,0,0,0,0,0,0,0,0,0,0,0,1,1,0,0,0,0
"559",1726,"St. Joseph, MI","St. Joseph","MI",2011,42.0967,-86.485,0,0,0,0,0,0,0,0,0,0,0,0,0,0,0,0,0,0,0,0,0,0,0,0,0,0,0,1,0,0,0,0,0,1,0,2,1,0,0,0,0
"560",1727,"Coldwater, MI","Coldwater","MI",2011,41.9465,-84.9989,0,0,0,0,0,0,0,0,0,0,0,0,0,0,0,0,0,0,0,1,0,0,0,0,0,0,0,0,0,0,0,0,0,0,0,1,0,0,0,1,0
"561",1728,"Union City, MI","Union City","MI",2011,42.0662,-85.1432,0,0,0,0,0,0,0,0,0,0,0,0,0,0,1,0,0,0,0,0,0,0,0,0,0,0,0,0,0,0,0,0,0,0,0,1,1,0,0,0,0
"562",1729,"Albion, MI","Albion","MI",2011,42.2478,-84.7572,0,0,0,0,0,1,0,0,0,0,0,0,0,0,0,0,0,0,0,0,0,0,0,0,0,0,0,0,0,0,0,0,0,0,0,1,1,0,0,0,0
"563",1730,"Battle Creek, MI","Battle Creek","MI",2011,42.2986,-85.2296,0,0,0,0,0,4,0,0,0,0,0,0,0,0,0,0,0,0,0,0,0,0,0,0,0,0,0,0,0,0,0,0,0,0,0,4,4,0,0,0,0
"564",1731,"Marshall, MI","Marshall","MI",2011,42.2617,-84.9597,0,0,0,0,0,1,0,0,0,0,0,0,0,0,0,0,0,0,0,0,0,0,0,0,0,0,0,0,0,0,0,0,0,0,0,1,1,0,0,0,0
"565",1732,"Boyne City, MI","Boyne City","MI",2011,45.2135,-85.0131,0,0,1,0,0,0,0,1,0,0,0,0,0,0,0,0,0,0,0,0,0,0,0,0,0,0,0,0,0,0,0,0,0,0,0,2,1,0,1,0,0
"566",1733,"Sault Ste. Marie, MI","Sault Ste. Marie","MI",2011,46.4817,-84.3723,0,0,0,0,0,0,0,0,0,0,0,0,0,0,0,0,0,0,0,0,0,1,0,0,0,0,0,1,0,0,0,0,0,1,0,3,1,0,0,0,1
"567",1734,"Grayling, MI","Grayling","MI",2011,44.6566,-84.7091,0,0,0,0,0,0,0,0,0,0,1,0,0,0,0,0,0,0,0,0,0,0,0,0,0,0,0,0,0,0,0,0,0,0,0,1,0,0,0,1,0
"568",1735,"Flint, MI","Flint","MI",2011,43.0235,-83.6922,0,0,0,0,0,1,0,0,0,0,0,0,0,0,0,0,0,1,0,0,0,0,0,0,0,0,0,0,0,0,0,0,0,0,0,2,2,0,0,0,0
"569",1736,"Ironwood, MI","Ironwood","MI",2011,46.4522,-90.1505,0,0,0,0,0,0,0,0,0,0,1,0,0,0,1,0,0,0,0,0,0,0,0,0,0,0,0,0,0,0,0,0,0,0,0,2,1,0,0,1,0
"570",1737,"Hancock, MI","Hancock","MI",2011,47.1355,-88.5987,0,0,0,0,0,0,0,0,0,0,0,0,0,0,0,0,0,0,0,1,0,0,0,0,0,0,0,0,0,0,0,0,0,0,0,1,0,0,0,1,0
"571",1738,"East Lansing, MI","East Lansing","MI",2011,42.748,-84.4835,0,0,0,0,0,0,0,0,0,0,1,0,0,0,0,0,0,0,0,0,0,0,0,0,0,0,0,0,0,0,0,0,0,0,0,1,0,0,0,1,0
"572",1739,"Mason, MI","Mason","MI",2011,42.5806,-84.4427,0,0,0,0,0,0,0,0,0,0,0,0,0,0,0,0,0,0,0,1,0,0,0,0,0,0,0,0,0,0,0,0,0,0,0,1,0,0,0,1,0
"573",1740,"Jackson, MI","Jackson","MI",2011,42.2431,-84.4037,1,0,1,0,0,2,0,0,0,0,0,0,0,0,0,0,0,0,0,0,0,0,0,0,0,0,0,1,0,0,0,0,0,1,0,6,5,0,0,0,0
"574",1741,"Grand Rapids, MI","Grand Rapids","MI",2011,42.962,-85.6562,0,0,0,0,0,3,0,0,0,0,0,0,0,0,1,0,0,0,0,0,0,0,0,0,0,0,0,0,0,0,0,0,0,2,0,6,6,0,0,0,0
"575",1742,"Wyoming, MI","Wyoming","MI",2011,42.8909,-85.7066,0,0,0,0,0,2,0,0,0,0,0,0,0,0,1,0,0,0,0,0,0,0,0,0,0,0,0,0,0,0,0,0,0,2,0,5,5,0,0,0,0
"576",1743,"Kentwood, MI","Kentwood","MI",2011,42.8852,-85.5925,0,0,0,0,0,0,0,0,0,0,0,0,0,0,0,0,0,0,0,0,0,0,0,0,0,0,0,1,0,0,0,0,0,0,0,1,0,0,0,0,0
"577",1744,"Adrian, MI","Adrian","MI",2011,41.8994,-84.0446,0,0,0,0,0,0,0,0,0,0,0,0,0,0,0,0,0,0,0,1,0,0,0,0,0,0,0,0,0,0,0,0,0,0,0,1,0,0,0,1,0
"578",1745,"Tecumseh, MI","Tecumseh","MI",2011,42.0065,-83.945,0,0,0,0,0,0,0,0,0,0,0,0,0,0,0,0,0,0,0,0,0,0,0,0,0,0,0,0,0,0,0,0,0,2,0,2,2,0,0,0,0
"579",1746,"Pinckney, MI","Pinckney","MI",2011,42.4543,-83.9457,0,0,0,0,0,1,0,0,0,0,0,0,0,0,0,0,0,0,0,2,0,0,0,0,0,0,0,0,0,0,0,0,0,0,0,3,1,0,0,2,0
"580",1747,"Mackinac Island, MI","Mackinac Island","MI",2011,45.8593,-84.6253,0,0,0,0,0,1,0,0,0,0,0,0,0,0,0,0,0,0,0,0,0,0,0,0,0,0,0,0,0,0,0,0,0,0,0,1,1,0,0,0,0
"581",1748,"Eastpointe, MI","Eastpointe","MI",2011,42.4657,-82.9461,0,0,0,0,0,1,0,0,0,0,1,0,0,0,0,0,0,0,0,0,0,0,0,0,0,0,0,0,0,0,0,0,0,1,0,3,2,0,0,1,0
"582",1749,"Fraser, MI","Fraser","MI",2011,42.5388,-82.9496,0,0,0,0,0,1,0,0,0,0,0,0,0,0,0,0,0,0,0,0,0,0,0,0,0,0,0,0,0,0,0,0,0,0,0,1,1,0,0,0,0
"583",1750,"New Baltimore, MI","New Baltimore","MI",2011,42.6903,-82.7398,0,0,0,0,0,3,0,0,0,0,0,0,0,0,1,1,0,0,0,1,0,0,0,0,0,0,0,0,0,0,0,0,0,0,0,6,4,0,1,1,0
"584",1751,"Richmond, MI","Richmond","MI",2011,42.8094,-82.7518,0,0,0,0,0,0,0,0,0,0,0,0,0,0,0,0,0,0,0,0,0,0,0,0,0,0,0,0,0,0,0,0,0,1,0,1,1,0,0,0,0
"585",1752,"Romeo, MI","Romeo","MI",2011,42.8049,-83.0041,0,0,0,0,0,0,0,0,0,0,0,0,0,0,1,0,0,0,0,0,0,0,0,0,0,0,0,0,0,0,0,0,0,0,0,1,1,0,0,0,0
"586",1753,"Roseville, MI","Roseville","MI",2011,42.5074,-82.9369,0,0,1,0,0,7,0,0,0,0,0,0,0,0,0,0,0,0,0,2,0,0,0,0,0,0,0,0,0,0,0,0,0,1,0,11,9,0,0,2,0
"587",1754,"St. Clair Shores, MI","St. Clair Shores","MI",2011,42.4921,-82.8957,0,0,0,0,0,1,0,0,0,0,0,0,0,0,0,0,0,0,0,0,0,0,0,0,0,0,0,0,0,0,0,0,0,0,0,1,1,0,0,0,0
"588",1755,"Sterling Heights, MI","Sterling Heights","MI",2011,42.5809,-83.0305,0,0,0,0,0,2,0,0,0,0,0,0,0,0,0,0,0,0,0,0,0,1,0,0,0,0,0,0,0,0,0,0,0,0,0,3,2,0,0,0,1
"589",1756,"Utica, MI","Utica","MI",2011,42.629,-83.0218,0,0,0,0,0,1,0,0,0,0,0,0,0,0,0,0,0,0,0,0,0,0,0,0,0,0,0,0,0,0,0,0,0,0,0,1,1,0,0,0,0
"590",1757,"Warren, MI","Warren","MI",2011,42.4934,-83.027,0,0,0,0,0,2,0,0,0,0,0,0,0,0,0,0,0,1,0,1,0,0,0,0,0,0,0,1,0,0,0,0,0,1,0,6,4,0,0,1,0
"591",1758,"Manistee, MI","Manistee","MI",2011,44.244,-86.3242,1,0,0,0,0,1,0,0,0,0,0,0,0,0,0,0,0,0,0,0,0,0,0,0,0,0,0,0,0,0,0,0,0,0,0,2,2,0,0,0,0
"592",1759,"Menominee, MI","Menominee","MI",2011,45.122,-87.6234,0,0,0,0,0,0,0,0,0,0,0,0,0,0,0,0,0,1,0,0,0,0,0,0,0,0,0,0,0,0,0,0,0,0,0,1,1,0,0,0,0
"593",1760,"Midland, MI","Midland","MI",2011,43.6241,-84.2319,0,0,0,0,0,2,0,0,0,0,0,0,0,0,0,0,0,0,0,0,0,0,0,0,0,0,0,0,0,0,0,0,0,0,0,2,2,0,0,0,0
"594",1761,"Monroe, MI","Monroe","MI",2011,41.9154,-83.385,0,0,0,0,0,1,0,0,0,0,0,0,0,0,0,1,0,0,0,0,0,0,0,0,0,0,0,0,0,0,0,0,0,0,0,2,1,0,1,0,0
"595",1762,"Norton Shores, MI","Norton Shores","MI",2011,43.1621,-86.2519,0,0,0,0,0,2,0,0,0,0,0,0,0,0,0,0,0,0,0,0,0,0,0,0,0,0,0,0,0,0,0,0,0,0,0,2,2,0,0,0,0
"596",1763,"White Cloud, MI","White Cloud","MI",2011,43.5541,-85.772,0,0,0,0,0,2,0,0,0,0,0,0,0,0,0,0,0,0,0,0,0,0,0,0,0,0,0,0,0,0,0,0,0,0,0,2,2,0,0,0,0
"597",1764,"Birmingham, MI","Birmingham","MI",2011,42.5447,-83.2166,0,0,0,0,0,2,0,0,0,0,0,0,0,0,0,0,0,0,0,0,0,0,0,0,0,0,0,0,0,1,0,0,0,0,0,3,2,0,0,0,1
"598",1765,"Clawson, MI","Clawson","MI",2011,42.5367,-83.1504,0,0,0,0,0,0,0,0,0,0,0,0,0,0,0,0,0,0,0,0,0,0,0,0,0,0,0,0,0,0,0,0,0,1,0,1,1,0,0,0,0
"599",1766,"Farmington, MI","Farmington","MI",2011,42.4614,-83.3784,0,0,0,0,0,1,0,0,0,0,0,0,0,0,0,1,0,0,0,0,0,0,0,0,0,0,0,0,0,0,0,0,0,0,0,2,1,0,1,0,0
"600",1767,"Farmington Hills, MI","Farmington Hills","MI",2011,42.486,-83.3771,0,0,0,0,0,1,0,0,0,0,0,0,0,0,0,0,0,2,0,0,0,0,0,0,0,0,0,2,0,0,0,0,0,0,0,5,3,0,0,0,0
"601",1768,"Holly, MI","Holly","MI",2011,42.7987,-83.6235,0,0,0,0,0,1,0,0,0,0,0,0,0,0,0,0,0,0,0,0,0,0,0,0,0,0,0,0,0,0,0,0,0,0,0,1,1,0,0,0,0
"602",1769,"Keego Harbor, MI","Keego Harbor","MI",2011,42.6088,-83.3443,0,0,0,0,0,0,0,0,0,0,0,0,0,0,0,1,0,0,0,0,0,0,0,0,0,0,0,0,0,0,0,0,0,1,0,2,1,0,1,0,0
"603",1770,"Madison Heights, MI","Madison Heights","MI",2011,42.5073,-83.1034,0,0,0,0,0,1,0,0,0,0,0,0,0,0,0,0,0,0,0,0,0,0,0,0,0,0,0,0,0,0,0,0,0,0,0,1,1,0,0,0,0
"604",1771,"Milford, MI","Milford","MI",2011,42.587,-83.6012,0,0,0,0,0,1,0,0,0,0,0,0,0,0,0,0,0,0,0,0,0,0,0,0,0,0,0,0,0,0,0,0,0,0,0,1,1,0,0,0,0
"605",1772,"Oak Park, MI","Oak Park","MI",2011,42.4649,-83.1824,0,0,0,0,0,1,0,0,0,0,0,0,0,0,0,0,0,2,0,0,0,0,0,0,0,0,0,0,0,0,0,0,0,0,0,3,3,0,0,0,0
"606",1773,"Rochester, MI","Rochester","MI",2011,42.6866,-83.1198,0,0,0,0,0,1,0,0,0,0,0,0,0,0,0,0,0,0,0,0,0,0,0,0,0,0,0,0,0,0,0,0,0,0,0,1,1,0,0,0,0
"607",1774,"South Lyon, MI","South Lyon","MI",2011,42.4614,-83.6526,0,0,0,0,0,0,0,0,0,0,0,0,0,0,0,0,0,0,0,1,0,0,0,0,0,0,0,0,1,0,0,0,0,0,0,2,0,0,1,1,0
"608",1775,"Southfield, MI","Southfield","MI",2011,42.4765,-83.2605,0,0,1,0,0,2,0,0,0,0,0,0,0,0,0,0,0,0,0,0,0,0,0,0,0,0,0,0,0,0,0,0,0,1,0,4,4,0,0,0,0
"609",1776,"Troy, MI","Troy","MI",2011,42.5818,-83.1457,0,0,0,0,0,3,0,0,0,0,2,0,0,0,0,0,0,0,0,0,0,0,0,0,0,0,0,0,0,0,0,0,0,0,0,5,3,0,0,2,0
"610",1777,"Wixom, MI","Wixom","MI",2011,42.5244,-83.5346,0,0,0,0,0,1,0,0,0,0,0,0,0,0,0,0,0,0,0,0,0,0,0,0,0,0,0,0,1,0,0,0,0,0,0,2,1,0,1,0,0
"611",1778,"Wolverine Lake, MI","Wolverine Lake","MI",2011,42.555,-83.4883,0,0,0,0,0,0,0,0,0,0,0,0,0,0,0,0,0,1,0,0,0,0,0,0,0,0,0,0,0,0,0,0,0,0,0,1,1,0,0,0,0
"612",1779,"Auburn Hills, MI","Auburn Hills","MI",2011,42.6735,-83.2447,0,0,1,0,0,1,0,0,0,0,0,0,0,0,0,0,0,0,0,0,0,0,0,0,0,0,0,0,0,0,0,0,0,0,0,2,2,0,0,0,0
"613",1780,"Pentwater, MI","Pentwater","MI",2011,43.7793,-86.4303,0,0,0,0,0,1,0,0,0,0,1,0,0,0,0,0,0,0,0,0,0,0,0,0,0,0,0,0,0,0,0,0,0,0,0,2,1,0,0,1,0
"614",1781,"Reed City, MI","Reed City","MI",2011,43.8725,-85.5069,0,0,0,0,0,1,0,0,0,0,0,0,0,0,0,0,0,0,0,0,0,0,0,0,0,0,0,0,0,0,0,0,0,0,0,1,1,0,0,0,0
"615",1782,"Grand Haven, MI","Grand Haven","MI",2011,43.0553,-86.2201,0,0,0,0,0,1,0,0,0,0,0,0,0,0,0,0,0,0,0,0,0,0,0,0,0,0,0,0,0,0,0,0,0,0,0,1,1,0,0,0,0
"616",1783,"Holland, MI","Holland","MI",2011,42.7677,-86.0985,0,0,0,0,0,3,0,0,0,0,0,0,0,0,0,0,0,0,0,0,0,0,0,0,0,0,0,0,0,0,0,0,0,0,0,3,3,0,0,0,0
"617",1784,"Saginaw, MI","Saginaw","MI",2011,43.4199,-83.9501,0,0,0,0,0,0,0,0,0,0,0,0,0,0,1,0,0,0,0,0,0,0,0,0,0,0,0,0,0,0,0,0,0,2,0,3,3,0,0,0,0
"618",1785,"Algonac, MI","Algonac","MI",2011,42.6208,-82.534,0,0,0,0,0,0,0,0,0,0,0,0,0,0,0,0,0,0,0,0,0,0,0,0,0,0,0,0,0,0,0,0,0,1,0,1,1,0,0,0,0
"619",1786,"Marine City, MI","Marine City","MI",2011,42.7138,-82.5012,0,0,0,0,0,1,0,0,0,0,0,0,0,0,0,0,0,0,0,0,0,0,0,0,1,0,0,0,0,0,0,0,0,0,0,2,1,0,0,0,0
"620",1787,"Croswell, MI","Croswell","MI",2011,43.2736,-82.6177,0,0,0,0,0,1,0,0,0,0,0,0,0,0,0,0,0,0,0,0,0,0,0,0,0,0,0,0,0,0,0,0,0,0,0,1,1,0,0,0,0
"621",1788,"Lexington, MI","Lexington","MI",2011,43.2671,-82.537,0,0,0,0,0,0,0,0,0,0,0,0,0,0,0,0,0,0,0,0,0,0,0,0,0,0,0,0,0,0,0,0,0,1,0,1,1,0,0,0,0
"622",1789,"Marlette, MI","Marlette","MI",2011,43.3268,-83.0807,0,0,0,0,0,2,0,0,0,0,0,0,0,0,0,0,0,0,0,0,0,0,0,0,0,0,0,0,0,0,0,0,0,0,0,2,2,0,0,0,0
"623",1790,"Owosso, MI","Owosso","MI",2011,42.9955,-84.176,0,0,0,0,0,0,0,0,0,0,1,0,0,0,0,0,0,0,0,0,0,0,0,0,0,0,0,0,0,0,0,0,0,0,0,1,0,0,0,1,0
"624",1791,"Caro, MI","Caro","MI",2011,43.489,-83.4025,0,0,0,0,0,2,0,0,0,0,0,0,0,0,0,0,0,0,0,0,0,0,0,0,0,0,0,0,0,0,0,0,0,0,0,2,2,0,0,0,0
"625",1792,"Lawton, MI","Lawton","MI",2011,42.1678,-85.846,0,0,0,0,0,0,0,0,0,0,0,0,0,0,1,0,0,0,0,0,0,0,0,0,0,0,0,0,0,0,0,0,0,0,0,1,1,0,0,0,0
"626",1793,"Paw Paw, MI","Paw Paw","MI",2011,42.2147,-85.8918,0,0,0,0,0,1,0,0,0,0,0,0,0,0,0,0,0,0,0,0,0,0,0,0,0,0,0,0,0,0,0,0,0,1,0,2,2,0,0,0,0
"627",1794,"Ann Arbor, MI","Ann Arbor","MI",2011,42.2755,-83.7312,0,0,0,0,0,0,0,0,0,0,1,0,0,0,0,2,0,0,0,2,0,0,0,0,0,0,0,0,0,0,0,0,0,0,0,5,0,0,2,3,0
"628",1795,"Chelsea, MI","Chelsea","MI",2011,42.3132,-84.0188,0,0,0,0,0,0,0,0,0,0,0,0,0,0,0,0,0,0,0,1,0,0,0,0,0,0,0,0,0,0,0,0,0,0,0,1,0,0,0,1,0
"629",1796,"Saline, MI","Saline","MI",2011,42.1741,-83.778,0,0,0,0,0,1,0,0,0,0,0,0,0,0,0,0,0,0,0,0,0,0,0,0,0,0,0,0,0,0,0,0,0,0,0,1,1,0,0,0,0
"630",1797,"Ypsilanti, MI","Ypsilanti","MI",2011,42.2437,-83.6205,0,0,0,0,0,1,0,0,0,0,0,0,0,0,0,0,0,0,0,0,0,0,0,0,0,0,0,0,0,0,0,0,0,2,0,3,3,0,0,0,0
"631",1798,"Allen Park, MI","Allen Park","MI",2011,42.2595,-83.2107,0,0,0,0,0,1,0,0,0,0,0,0,0,0,0,0,0,0,0,0,0,0,0,0,0,0,0,0,0,0,0,0,0,0,0,1,1,0,0,0,0
"632",1799,"Dearborn, MI","Dearborn","MI",2011,42.3127,-83.2129,0,0,0,0,0,4,0,0,0,0,0,0,0,0,0,3,0,0,0,1,0,0,0,0,1,0,0,0,0,0,1,0,0,0,0,10,4,0,4,1,0
"633",1800,"Dearborn Heights, MI","Dearborn Heights","MI",2011,42.3164,-83.2769,0,0,0,0,0,0,0,0,0,0,1,0,0,0,0,0,0,0,0,0,0,0,0,0,0,0,0,1,0,0,0,0,0,0,0,2,0,0,0,1,0
"634",1801,"Detroit, MI","Detroit","MI",2011,42.3834,-83.1024,0,0,0,0,0,1,0,0,0,0,4,0,0,0,0,0,0,0,0,1,0,0,0,0,0,0,0,0,1,0,0,0,0,0,0,7,1,0,1,5,0
"635",1802,"Gibraltar, MI","Gibraltar","MI",2011,42.096,-83.2029,0,0,0,0,0,1,0,0,0,0,0,0,0,0,0,0,0,0,0,0,0,0,0,0,0,0,0,0,0,0,0,0,0,0,0,1,1,0,0,0,0
"636",1803,"Grosse Pointe Farms, MI","Grosse Pointe Farms","MI",2011,42.4067,-82.8992,0,0,0,0,0,0,0,0,0,0,0,0,0,0,0,0,0,0,0,0,0,0,0,0,0,0,0,0,0,0,0,0,0,1,0,1,1,0,0,0,0
"637",1804,"Grosse Pointe Park, MI","Grosse Pointe Park","MI",2011,42.3794,-82.9288,0,0,0,0,0,2,0,0,0,0,0,0,0,0,0,0,0,0,0,0,0,0,0,0,0,0,0,0,0,0,0,0,0,0,0,2,2,0,0,0,0
"638",1805,"Grosse Pointe Woods, MI","Grosse Pointe Woods","MI",2011,42.4366,-82.8987,0,0,0,0,0,0,0,0,0,0,0,0,0,0,0,0,0,0,0,0,0,0,0,0,0,0,0,0,0,0,0,0,0,1,0,1,1,0,0,0,0
"639",1806,"Hamtramck, MI","Hamtramck","MI",2011,42.3954,-83.056,2,0,0,0,0,3,0,0,0,0,1,0,0,0,0,0,0,0,0,0,0,0,0,0,0,0,0,1,0,0,0,0,0,1,0,8,6,0,0,1,0
"640",1807,"Harper Woods, MI","Harper Woods","MI",2011,42.439,-82.9292,0,0,0,0,0,1,0,0,0,0,0,0,0,0,0,0,0,0,0,0,0,0,0,0,0,0,0,0,2,0,0,0,0,0,0,3,1,0,2,0,0
"641",1808,"Inkster, MI","Inkster","MI",2011,42.2935,-83.3148,0,0,0,0,0,3,0,0,0,0,1,0,0,0,0,0,0,0,0,0,0,0,0,0,0,0,0,0,0,0,0,0,0,0,0,4,3,0,0,1,0
"642",1809,"Livonia, MI","Livonia","MI",2011,42.3972,-83.3733,0,0,0,0,0,6,0,0,0,0,0,0,1,0,0,0,0,0,0,0,0,0,0,0,0,0,0,0,1,0,0,0,0,1,0,9,7,0,1,1,0
"643",1810,"Melvindale, MI","Melvindale","MI",2011,42.2802,-83.1782,0,0,0,0,0,0,0,1,0,0,0,0,0,0,0,0,0,0,0,0,0,0,0,0,0,0,0,0,0,0,0,0,0,0,0,1,0,0,1,0,0
"644",1811,"Taylor, MI","Taylor","MI",2011,42.226,-83.2688,0,0,0,0,0,0,0,0,0,0,0,0,0,0,0,0,0,0,0,0,0,0,0,0,0,0,0,0,0,0,0,0,0,4,0,4,4,0,0,0,0
"645",1812,"Trenton, MI","Trenton","MI",2011,42.1394,-83.1929,0,0,0,0,0,0,0,0,0,0,0,0,0,0,0,1,0,0,0,0,0,0,0,0,0,0,0,0,0,0,0,0,0,0,0,1,0,0,1,0,0
"646",1813,"Westland, MI","Westland","MI",2011,42.3192,-83.3805,0,0,0,0,0,0,0,0,0,0,0,0,0,0,0,0,0,0,0,0,0,0,0,0,0,0,0,0,0,0,0,0,0,1,0,1,1,0,0,0,0
"647",1814,"Cadillac, MI","Cadillac","MI",2011,44.2494,-85.4163,0,0,0,0,0,0,0,0,0,0,0,0,0,0,0,0,0,0,0,0,0,0,0,0,0,0,0,0,0,0,0,0,0,1,0,1,1,0,0,0,0
"648",1815,"Manton, MI","Manton","MI",2011,44.4114,-85.401,0,0,0,0,0,1,0,0,0,0,0,0,0,0,0,0,0,0,0,0,0,0,0,0,0,0,0,0,0,0,0,0,0,0,0,1,1,0,0,0,0
"649",1816,"Blaine, MN","Blaine","MN",2011,45.1696,-93.2077,0,0,0,0,0,4,0,0,0,0,0,0,0,0,0,0,0,0,0,0,0,0,0,0,0,0,0,1,0,0,0,0,0,0,0,5,4,0,0,0,0
"650",1817,"Coon Rapids, MN","Coon Rapids","MN",2011,45.1755,-93.3095,0,0,0,0,0,2,0,0,0,0,1,0,0,0,0,0,0,0,0,0,0,0,0,0,0,0,0,0,0,0,0,0,0,0,0,3,2,0,0,1,0
"651",1818,"Fridley, MN","Fridley","MN",2011,45.0841,-93.2595,0,0,0,0,0,1,0,0,0,0,0,0,0,0,0,0,0,0,0,0,0,0,0,0,0,0,0,0,0,0,0,0,0,0,0,1,1,0,0,0,0
"652",1819,"Bemidji, MN","Bemidji","MN",2011,47.4828,-94.8796,0,0,0,0,0,1,0,0,0,0,0,0,0,0,0,1,0,0,0,0,0,0,0,0,0,0,0,0,0,0,0,0,0,0,0,2,1,0,1,0,0
"653",1820,"Mankato, MN","Mankato","MN",2011,44.1712,-93.9773,0,0,0,0,0,0,0,0,0,0,0,0,0,0,0,0,0,0,0,0,0,0,0,0,0,0,0,1,0,0,0,0,0,0,0,1,0,0,0,0,0
"654",1821,"Montevideo, MN","Montevideo","MN",2011,44.9505,-95.7153,1,0,0,0,0,0,0,0,0,0,0,0,0,0,0,0,0,0,0,0,0,0,0,0,0,0,0,0,0,0,0,0,0,0,0,1,1,0,0,0,0
"655",1822,"Moorhead, MN","Moorhead","MN",2011,46.8673,-96.7461,0,0,0,0,0,1,0,0,0,0,0,0,0,0,0,0,0,0,0,0,0,0,0,0,0,0,0,0,0,0,0,0,0,0,0,1,1,0,0,0,0
"656",1823,"Brainerd, MN","Brainerd","MN",2011,46.3553,-94.1982,0,0,0,0,0,1,0,0,0,0,0,0,0,0,0,0,0,0,0,0,0,0,0,0,0,0,0,0,0,0,0,0,0,0,0,1,1,0,0,0,0
"657",1824,"Mendota Heights, MN","Mendota Heights","MN",2011,44.8815,-93.14,0,0,0,0,0,0,0,0,0,0,0,0,0,0,1,0,0,0,0,0,0,0,0,0,0,0,0,0,0,0,0,0,0,0,0,1,1,0,0,0,0
"658",1825,"South St. Paul, MN","South St. Paul","MN",2011,44.8876,-93.0411,0,0,0,0,0,0,0,0,0,0,0,0,0,0,1,0,0,0,2,0,0,0,0,0,0,0,0,0,0,0,0,0,0,0,0,3,1,0,0,2,0
"659",1826,"Lakeville, MN","Lakeville","MN",2011,44.6774,-93.252,0,0,0,0,0,3,0,0,0,0,0,0,0,0,0,0,0,0,0,0,0,0,0,0,0,0,0,0,0,0,0,0,0,0,0,3,3,0,0,0,0
"660",1827,"Albert Lea, MN","Albert Lea","MN",2011,43.6547,-93.3642,0,0,0,0,0,0,0,0,0,0,0,0,0,0,0,0,0,0,0,0,0,0,0,0,0,0,0,1,0,0,0,0,0,0,0,1,0,0,0,0,0
"661",1828,"Red Wing, MN","Red Wing","MN",2011,44.5816,-92.6036,0,0,0,0,0,0,0,0,0,0,1,0,0,0,0,0,0,0,0,0,0,0,0,0,0,0,0,0,0,0,0,0,0,0,0,1,0,0,0,1,0
"662",1829,"Brooklyn Center, MN","Brooklyn Center","MN",2011,45.0681,-93.3162,0,0,0,0,0,0,0,0,0,0,0,0,0,0,0,0,0,0,0,0,0,0,0,0,0,0,0,1,0,0,0,0,0,0,0,1,0,0,0,0,0
"663",1830,"Brooklyn Park, MN","Brooklyn Park","MN",2011,45.1112,-93.3505,0,0,0,0,0,3,0,0,0,0,1,0,0,0,0,0,0,0,0,0,0,0,0,0,0,0,0,0,0,0,0,0,0,0,0,4,3,0,0,1,0
"664",1831,"Crystal, MN","Crystal","MN",2011,45.0377,-93.3599,0,0,0,0,0,4,0,0,0,0,0,0,0,0,0,0,0,0,0,0,0,1,0,0,0,0,0,0,0,0,0,0,0,1,0,6,5,0,0,0,1
"665",1832,"Edina, MN","Edina","MN",2011,44.8914,-93.3602,0,0,0,0,0,1,0,0,0,0,0,0,0,0,0,0,0,0,0,0,0,0,0,0,0,0,0,0,0,0,0,0,0,0,0,1,1,0,0,0,0
"666",1833,"Minneapolis, MN","Minneapolis","MN",2011,44.9635,-93.2678,1,0,2,0,0,2,0,0,0,0,14,0,2,0,3,3,0,5,2,1,0,0,0,0,0,0,0,2,0,0,0,0,0,6,0,43,19,0,3,19,0
"667",1834,"New Hope, MN","New Hope","MN",2011,45.0374,-93.3869,0,0,0,0,0,0,0,0,0,0,1,0,0,0,0,0,0,0,0,0,0,0,0,0,0,0,0,0,0,0,0,0,0,0,0,1,0,0,0,1,0
"668",1835,"Plymouth, MN","Plymouth","MN",2011,45.0225,-93.4618,0,0,0,0,0,2,0,0,0,0,0,0,0,0,0,0,0,5,0,0,0,0,0,0,0,0,0,1,0,0,0,0,0,0,0,8,7,0,0,0,0
