"","city_state","city","state","year","lat","lng","Anti-American Indian or Alaska Native","Anti-Arab","Anti-Asian","Anti-Atheism/Agnosticism","Anti-Bisexual","Anti-Black or African American","Anti-Buddhist","Anti-Catholic","Anti-Eastern Orthodox (Russian, Greek, Other)","Anti-Female","Anti-Gay (Male)","Anti-Gender Non-Conforming","Anti-Heterosexual","Anti-Hindu","Anti-Hispanic or Latino","Anti-Islamic (Muslim)","Anti-Jehovah's Witness","Anti-Jewish","Anti-Lesbian (Female)","Anti-Lesbian, Gay, Bisexual, or Transgender (Mixed Group)","Anti-Male","Anti-Mental Disability","Anti-Mormon","Anti-Multiple Races, Group","Anti-Multiple Religions, Group","Anti-Native Hawaiian or Other Pacific Islander","Anti-Other Christian","Anti-Other Race/Ethnicity/Ancestry","Anti-Other Religion","Anti-Physical Disability","Anti-Protestant","Anti-Sikh","Anti-Transgender","Anti-White","Unknown (offender's motivation not known)","total_cases"
"1","Anchorage, AK","Anchorage","AK",2018,61.1508,-149.1091,0,0,0,0,0,1,0,0,0,0,0,0,0,0,0,0,0,0,0,0,0,0,0,0,0,0,0,0,0,0,0,0,0,0,0,1
"2","Fairbanks, AK","Fairbanks","AK",2018,64.8353,-147.6534,0,0,0,0,0,0,0,0,0,0,0,0,0,0,0,0,0,0,0,0,0,1,0,0,0,0,0,0,0,0,0,0,0,2,0,3
"3","Juneau, AK","Juneau","AK",2018,58.4546,-134.1739,0,0,0,0,0,0,0,1,0,0,0,0,0,0,0,0,0,0,0,0,0,0,0,0,0,0,0,0,0,0,1,0,0,0,0,2
"4","Kotzebue, AK","Kotzebue","AK",2018,66.8766,-162.5231,0,0,0,0,0,1,0,0,0,0,0,0,0,0,0,0,0,0,0,0,0,0,0,0,0,0,0,0,0,0,0,0,0,0,0,1
"5","Rogers, AR","Rogers","AR",2018,36.3172,-94.1526,0,0,0,0,0,0,0,0,0,0,0,0,0,0,1,0,0,0,0,0,0,0,0,0,0,0,0,1,0,0,0,0,0,0,0,2
"6","Hot Springs, AR","Hot Springs","AR",2018,34.4892,-93.0501,0,0,0,0,0,0,0,0,0,0,0,0,0,0,1,0,0,0,0,0,0,0,0,0,0,0,0,0,0,0,0,0,0,0,0,1
"7","Paragould, AR","Paragould","AR",2018,36.0555,-90.5149,0,0,0,0,0,1,0,0,0,0,0,1,0,0,0,0,0,0,0,0,0,0,0,0,0,0,0,0,0,0,0,0,0,0,0,2
"8","Newport, AR","Newport","AR",2018,35.6234,-91.2322,0,0,0,0,0,0,0,0,0,0,0,0,0,0,0,0,0,0,0,0,0,0,0,0,0,0,0,0,0,0,0,0,0,1,0,1
"9","Prescott, AR","Prescott","AR",2018,33.8056,-93.3909,0,0,0,0,0,1,0,0,0,0,0,0,0,0,0,0,0,0,0,0,0,0,0,0,0,0,0,0,0,0,0,0,0,1,0,2
"10","Sherwood, AR","Sherwood","AR",2018,34.8508,-92.2028,0,0,0,0,0,1,0,0,0,0,0,0,0,0,0,0,0,1,0,0,0,0,0,0,0,0,0,0,0,0,0,0,0,0,0,2
"11","Benton, AR","Benton","AR",2018,34.5775,-92.5712,0,0,0,0,0,2,0,0,0,0,0,0,0,0,0,0,0,0,0,0,0,0,0,0,0,0,0,0,0,0,0,0,0,0,0,2
"12","Fort Smith, AR","Fort Smith","AR",2018,35.3493,-94.3695,0,0,0,0,0,2,0,0,0,0,0,0,0,0,0,0,0,0,0,1,0,0,0,0,0,0,0,0,0,0,0,0,0,2,0,5
"13","Springdale, AR","Springdale","AR",2018,36.1899,-94.1574,0,0,0,0,0,0,0,0,0,0,0,0,0,0,0,0,0,0,0,0,0,1,0,0,0,0,0,0,0,0,0,0,0,0,0,1
"14","St. Johns, AZ","St. Johns","AZ",2018,34.5018,-109.3784,0,0,0,0,0,0,0,1,0,0,0,0,0,0,0,0,0,0,0,0,0,0,0,0,0,0,0,0,0,0,0,0,0,0,0,1
"15","Flagstaff, AZ","Flagstaff","AZ",2018,35.1872,-111.6195,0,0,0,0,0,1,0,0,0,0,0,0,0,0,0,0,0,0,0,1,0,0,0,0,0,0,0,0,0,0,0,0,0,0,0,2
"16","Page, AZ","Page","AZ",2018,36.9426,-111.5071,0,0,0,0,0,1,0,0,0,0,0,0,0,0,0,0,0,0,0,1,0,0,0,0,0,0,0,1,0,0,0,0,0,0,0,3
"17","Avondale, AZ","Avondale","AZ",2018,33.3858,-112.3236,0,0,0,0,0,1,0,0,0,0,0,0,0,0,0,0,0,0,0,0,0,0,0,0,0,0,0,0,0,0,0,0,0,0,0,1
"18","Gilbert, AZ","Gilbert","AZ",2018,33.3101,-111.7463,0,0,0,0,0,0,0,0,0,0,0,0,0,0,0,0,0,0,0,0,0,0,0,1,0,0,0,0,0,0,0,0,0,0,0,1
"19","Glendale, AZ","Glendale","AZ",2018,33.5791,-112.2311,0,0,0,0,0,7,0,0,0,0,0,0,0,0,0,0,0,0,1,0,0,0,0,0,0,0,0,0,0,0,0,0,0,0,0,8
"20","Mesa, AZ","Mesa","AZ",2018,33.4017,-111.718,0,0,0,0,0,2,0,0,0,0,1,0,0,0,0,0,0,0,0,0,0,0,0,0,0,0,0,0,0,0,0,0,0,0,0,3
"21","Peoria, AZ","Peoria","AZ",2018,33.7844,-112.2989,0,0,0,0,0,1,0,0,0,0,0,0,0,0,0,0,0,0,0,0,0,0,0,0,0,0,0,0,0,0,0,0,0,0,0,1
"22","Phoenix, AZ","Phoenix","AZ",2018,33.5722,-112.0891,0,0,1,0,0,32,0,1,0,1,20,0,0,0,10,2,0,17,3,3,0,0,0,5,1,0,0,0,0,1,0,0,2,8,0,107
"23","Scottsdale, AZ","Scottsdale","AZ",2018,33.6872,-111.8651,0,0,0,0,0,1,0,0,0,0,0,0,0,0,1,0,0,2,1,0,0,0,0,0,0,0,0,0,0,0,0,0,0,0,0,5
"24","Surprise, AZ","Surprise","AZ",2018,33.68,-112.4524,0,0,0,0,0,1,0,0,0,0,0,0,0,0,0,0,0,2,0,0,0,0,0,0,0,0,0,0,0,0,0,0,0,0,0,3
"25","Tempe, AZ","Tempe","AZ",2018,33.3881,-111.9318,0,0,0,0,0,0,0,0,0,0,0,0,0,0,0,1,0,0,0,0,0,0,0,0,0,0,0,0,0,0,0,0,0,0,0,1
"26","Tucson, AZ","Tucson","AZ",2018,32.1545,-110.8782,0,0,0,0,0,6,0,0,0,1,4,0,0,0,0,1,0,1,1,0,0,1,0,0,0,0,0,0,0,0,0,0,1,1,0,17
"27","Coolidge, AZ","Coolidge","AZ",2018,32.9395,-111.5261,0,0,0,0,0,1,0,0,0,0,0,0,0,0,1,0,0,0,0,0,0,0,0,0,0,0,0,0,0,0,0,0,0,0,0,2
"28","Maricopa, AZ","Maricopa","AZ",2018,33.0404,-112.0006,0,0,0,0,0,1,0,0,0,0,0,0,0,0,0,0,0,0,0,0,0,0,0,0,0,0,0,0,0,0,0,0,0,0,0,1
"29","Prescott, AZ","Prescott","AZ",2018,34.585,-112.4475,0,0,0,0,0,1,0,0,0,0,0,0,0,0,0,0,0,0,0,0,0,0,0,0,0,0,0,0,0,0,0,0,0,0,0,1
"30","Yuma, AZ","Yuma","AZ",2018,32.5992,-114.5488,0,0,0,0,1,1,0,0,0,0,0,0,0,0,0,0,0,0,0,0,0,0,0,1,0,0,0,0,0,0,1,0,0,3,0,7
"31","Alameda, CA","Alameda","CA",2018,37.767,-122.2672,0,0,1,0,0,1,0,0,0,0,1,0,0,0,1,1,0,2,0,0,0,0,0,0,0,0,0,0,0,0,0,0,0,0,0,7
"32","Albany, CA","Albany","CA",2018,37.8898,-122.3018,0,0,0,0,0,2,0,0,0,0,0,0,0,0,0,0,0,1,0,1,0,0,0,0,0,0,0,0,0,0,0,0,0,0,0,4
"33","Berkeley, CA","Berkeley","CA",2018,37.8723,-122.276,0,0,1,0,1,2,0,0,0,0,0,0,0,0,0,1,0,4,1,2,0,0,0,1,0,1,0,2,0,0,0,0,0,1,0,17
"34","Fremont, CA","Fremont","CA",2018,37.5265,-121.9852,0,0,2,0,0,0,0,0,0,0,0,0,0,0,2,0,0,0,0,0,0,0,0,0,0,0,0,2,0,0,0,0,0,0,0,6
"35","Hayward, CA","Hayward","CA",2018,37.6328,-122.0772,0,0,0,0,0,2,0,0,0,0,0,0,0,0,1,1,0,0,0,0,0,0,0,0,0,0,0,0,0,0,0,0,0,0,0,4
"36","Livermore, CA","Livermore","CA",2018,37.6862,-121.7608,0,0,0,0,0,2,0,0,0,0,0,0,0,0,0,1,0,1,1,0,0,0,0,1,0,0,0,0,0,0,0,0,0,0,0,6
"37","Newark, CA","Newark","CA",2018,37.5204,-122.0312,0,0,1,0,0,0,0,0,0,0,0,0,0,0,0,0,0,0,0,0,0,0,0,0,0,0,0,0,0,0,0,0,0,0,0,1
"38","Oakland, CA","Oakland","CA",2018,37.7903,-122.2165,0,0,0,0,1,1,0,0,0,0,1,0,0,0,0,0,0,5,0,3,0,0,0,0,0,0,0,0,0,1,0,0,1,2,0,15
"39","Pleasanton, CA","Pleasanton","CA",2018,37.6663,-121.8805,0,0,0,0,0,1,0,0,0,0,0,0,0,0,0,0,0,0,0,0,0,0,0,0,0,0,0,0,0,0,0,0,0,0,0,1
"40","San Leandro, CA","San Leandro","CA",2018,37.7071,-122.1601,0,0,0,0,0,1,0,0,0,0,0,0,0,0,0,0,0,1,0,0,0,0,0,0,0,0,0,0,0,0,0,0,0,0,0,2
"41","Union City, CA","Union City","CA",2018,37.603,-122.0187,0,0,0,0,0,0,0,0,0,0,0,0,0,0,0,0,0,0,0,0,0,0,0,1,0,0,0,0,0,0,0,0,0,0,0,1
"42","Gridley, CA","Gridley","CA",2018,39.3622,-121.6971,0,0,0,0,0,0,0,0,0,0,0,0,0,0,0,0,0,0,0,0,0,0,0,0,0,0,0,0,0,0,0,0,0,1,0,1
"43","Oroville, CA","Oroville","CA",2018,39.4999,-121.5634,0,0,0,0,0,1,0,0,0,0,0,0,0,0,0,0,0,0,0,0,0,0,0,0,0,0,0,0,0,0,0,0,0,0,0,1
"44","Williams, CA","Williams","CA",2018,39.1498,-122.1389,0,0,0,0,0,0,0,0,0,0,1,0,0,0,0,0,0,0,0,0,0,0,0,0,0,0,0,0,0,0,0,0,0,0,0,1
"45","Antioch, CA","Antioch","CA",2018,37.9789,-121.7958,0,0,0,0,0,1,0,0,0,0,0,0,0,0,0,0,0,1,0,0,0,0,0,0,0,0,0,0,0,0,0,0,0,0,0,2
"46","Brentwood, CA","Brentwood","CA",2018,37.9355,-121.7191,0,1,0,0,0,1,0,0,0,0,0,0,0,0,1,0,0,0,0,0,0,0,0,0,0,0,0,0,0,0,0,0,0,0,0,3
"47","Clayton, CA","Clayton","CA",2018,37.9403,-121.9301,0,0,0,0,0,1,0,0,0,0,0,0,0,0,0,0,0,0,0,0,0,0,0,0,0,0,0,0,0,0,0,0,0,0,0,1
"48","El Cerrito, CA","El Cerrito","CA",2018,37.9197,-122.3025,0,0,0,0,0,1,0,0,0,0,0,0,0,0,0,0,0,0,0,0,0,0,0,0,0,0,0,0,1,0,0,0,0,0,0,2
"49","Pinole, CA","Pinole","CA",2018,37.9931,-122.2834,1,0,0,0,0,0,0,0,0,0,0,0,0,0,0,0,0,0,0,0,0,0,0,0,0,0,0,0,0,0,0,0,0,0,0,1
"50","Pittsburg, CA","Pittsburg","CA",2018,38.0182,-121.8964,0,0,0,0,0,1,0,0,0,0,0,0,0,0,0,0,0,0,0,0,0,0,0,0,0,0,0,0,0,0,0,0,0,0,0,1
"51","Richmond, CA","Richmond","CA",2018,37.9477,-122.339,0,1,1,0,0,1,0,0,0,0,0,0,0,0,3,1,0,0,0,0,0,0,0,1,0,0,0,0,0,0,0,0,0,4,0,12
"52","San Pablo, CA","San Pablo","CA",2018,37.9628,-122.3425,0,0,0,0,0,0,0,0,0,0,0,0,0,0,0,0,0,0,0,0,0,0,0,0,0,0,1,0,0,0,0,0,0,0,0,1
"53","Walnut Creek, CA","Walnut Creek","CA",2018,37.9024,-122.0398,0,0,0,0,0,1,0,0,0,0,0,0,0,0,0,0,0,0,0,0,0,0,0,0,0,0,0,0,0,0,0,0,0,0,0,1
"54","San Ramon, CA","San Ramon","CA",2018,37.7625,-121.9365,0,0,0,0,0,0,0,0,0,0,0,0,0,0,0,0,0,1,0,0,0,0,0,0,0,0,0,0,0,0,0,0,0,0,0,1
"55","South Lake Tahoe, CA","South Lake Tahoe","CA",2018,38.9393,-119.9828,0,0,0,0,0,0,0,0,0,0,2,0,0,0,0,0,0,2,1,0,0,0,0,0,0,0,0,0,0,0,0,0,0,0,0,5
"56","Clovis, CA","Clovis","CA",2018,36.8278,-119.6831,0,0,0,0,0,0,0,0,0,0,0,0,0,0,0,0,0,0,0,0,0,0,0,0,0,0,0,0,0,0,0,0,1,0,0,1
"57","Fresno, CA","Fresno","CA",2018,36.7831,-119.7941,0,0,3,0,0,12,0,0,0,0,3,0,0,0,2,1,0,2,2,0,0,0,0,0,0,0,0,0,0,0,0,0,0,2,0,27
"58","Parlier, CA","Parlier","CA",2018,36.6087,-119.5434,0,0,0,0,0,1,0,0,0,0,0,0,0,0,0,0,0,0,0,0,0,0,0,0,0,0,0,0,0,0,0,0,0,0,0,1
"59","Eureka, CA","Eureka","CA",2018,40.7942,-124.1568,0,0,0,0,0,0,0,0,0,0,1,0,0,0,0,0,0,0,0,0,0,0,0,0,0,0,0,0,0,0,0,0,0,0,0,1
"60","Arvin, CA","Arvin","CA",2018,35.1944,-118.8306,0,0,0,0,0,0,0,0,0,0,0,0,0,0,1,0,0,0,0,0,0,0,0,0,0,0,0,0,0,0,0,0,0,0,0,1
"61","Bakersfield, CA","Bakersfield","CA",2018,35.3529,-119.0359,0,1,0,0,0,2,0,0,0,0,1,0,0,0,0,0,0,6,0,0,0,0,0,0,0,0,0,0,0,0,0,0,0,0,0,10
"62","Lakeport, CA","Lakeport","CA",2018,39.0392,-122.9218,0,0,0,0,0,0,0,0,0,0,0,0,0,0,0,0,0,0,0,1,0,0,0,0,0,0,0,0,0,0,0,0,0,0,0,1
"63","Clearlake, CA","Clearlake","CA",2018,38.959,-122.633,0,0,0,0,0,1,0,0,0,0,0,0,0,0,0,0,0,0,0,0,0,0,0,0,0,0,0,0,0,0,0,0,0,1,0,2
"64","Azusa, CA","Azusa","CA",2018,34.1386,-117.9124,0,0,0,0,0,3,0,0,0,0,0,0,0,0,0,0,0,0,0,0,0,0,0,0,0,0,0,0,0,0,0,0,0,0,0,3
"65","Baldwin Park, CA","Baldwin Park","CA",2018,34.0829,-117.9721,0,0,0,0,0,1,0,0,0,0,0,0,0,0,0,0,0,0,0,0,0,0,0,0,0,0,0,0,0,0,0,0,0,0,0,1
"66","Bell, CA","Bell","CA",2018,33.9801,-118.1798,0,0,0,0,0,0,0,0,0,0,0,0,0,0,0,0,0,0,1,0,0,0,0,0,0,0,0,1,0,0,0,0,0,0,0,2
"67","Bellflower, CA","Bellflower","CA",2018,33.888,-118.1271,0,0,0,0,0,0,0,0,0,0,0,0,0,0,1,0,0,0,0,0,0,0,0,0,0,0,0,0,0,0,0,0,0,0,0,1
"68","Bell Gardens, CA","Bell Gardens","CA",2018,33.9663,-118.155,0,0,0,0,0,1,0,0,0,0,0,0,0,0,0,0,0,0,0,0,0,0,0,0,0,0,0,0,0,0,0,0,0,0,0,1
"69","Beverly Hills, CA","Beverly Hills","CA",2018,34.0786,-118.4021,0,0,0,0,0,2,0,0,0,0,0,0,0,0,0,0,0,3,0,0,0,0,0,0,0,0,0,0,0,0,0,0,0,0,0,5
"70","Burbank, CA","Burbank","CA",2018,34.1879,-118.3235,0,0,0,0,0,3,0,0,0,0,2,0,0,0,0,0,0,1,0,0,0,0,0,0,0,0,0,1,3,0,0,0,0,0,0,10
"71","Claremont, CA","Claremont","CA",2018,34.1259,-117.7153,0,0,0,0,0,0,0,0,0,0,0,0,0,0,0,0,0,0,0,0,0,0,0,0,0,0,0,1,0,0,0,0,0,0,0,1
"72","Commerce, CA","Commerce","CA",2018,33.9963,-118.1519,0,0,0,0,0,0,0,0,0,0,1,0,0,0,0,0,0,0,0,0,0,0,0,0,0,0,0,0,0,0,0,0,0,0,0,1
"73","Compton, CA","Compton","CA",2018,33.893,-118.2275,0,0,2,0,0,0,0,0,0,0,0,0,0,0,0,0,0,0,0,0,0,0,0,0,0,0,0,1,0,0,0,0,0,0,0,3
"74","West Hollywood, CA","West Hollywood","CA",2018,34.0882,-118.3718,0,0,0,0,0,2,0,0,0,0,4,0,0,0,1,0,0,1,0,0,0,0,0,0,0,0,0,2,0,0,0,0,1,1,0,12
"75","Santa Clarita, CA","Santa Clarita","CA",2018,34.4175,-118.4964,0,0,0,0,0,0,0,0,0,0,1,0,0,0,0,0,0,0,0,0,0,0,0,0,0,0,0,0,0,0,0,0,0,0,0,1
"76","Downey, CA","Downey","CA",2018,33.9379,-118.1312,0,0,0,0,0,0,0,0,0,0,0,0,0,0,0,0,0,0,0,1,0,0,0,0,0,0,0,0,0,0,0,0,0,0,0,1
"77","El Monte, CA","El Monte","CA",2018,34.0739,-118.0291,0,0,0,0,0,2,0,0,0,0,0,0,0,0,1,0,0,0,0,0,0,0,0,0,0,2,0,0,0,0,0,0,0,0,0,5
"78","El Segundo, CA","El Segundo","CA",2018,33.9169,-118.4021,0,0,0,0,0,0,0,0,0,0,0,0,0,0,1,0,0,0,0,0,0,0,0,0,0,0,0,0,0,0,0,0,0,0,0,1
"79","Gardena, CA","Gardena","CA",2018,33.8944,-118.3073,0,0,0,0,0,0,0,0,0,0,1,0,0,0,0,0,0,1,0,0,0,0,0,0,0,0,0,0,0,0,0,0,0,0,0,2
"80","Glendale, CA","Glendale","CA",2018,34.1818,-118.2468,0,0,1,0,0,2,0,0,0,0,0,0,0,0,0,0,0,0,0,0,0,0,0,0,0,0,0,0,0,0,0,0,0,1,0,4
"81","Glendora, CA","Glendora","CA",2018,34.1449,-117.8468,0,0,0,0,0,1,0,0,0,0,0,0,0,0,0,0,0,0,0,0,0,0,0,0,0,0,0,0,0,0,0,0,0,0,0,1
"82","Hawaiian Gardens, CA","Hawaiian Gardens","CA",2018,33.8303,-118.0728,0,0,0,0,0,2,0,0,0,0,0,0,0,0,0,0,0,0,0,0,0,0,0,0,0,0,0,0,0,0,0,0,0,0,0,2
"83","Hawthorne, CA","Hawthorne","CA",2018,33.9146,-118.3476,0,0,0,0,0,1,0,0,0,0,1,0,0,0,0,0,0,0,0,0,0,0,1,1,0,0,0,1,1,0,0,0,0,0,0,6
"84","Calabasas, CA","Calabasas","CA",2018,34.1375,-118.6689,0,0,0,0,0,0,0,0,0,0,0,0,0,0,0,0,0,2,0,0,0,0,0,0,0,0,0,0,0,0,0,0,0,0,0,2
"85","Malibu, CA","Malibu","CA",2018,34.0368,-118.7845,0,0,0,0,0,1,0,0,0,0,0,0,0,0,0,0,0,0,0,0,0,0,0,0,0,0,0,0,0,0,0,0,0,0,0,1
"86","Huntington Park, CA","Huntington Park","CA",2018,33.98,-118.2167,0,0,0,0,0,1,0,0,0,0,1,0,0,0,2,0,0,0,0,0,0,0,0,0,0,0,0,0,0,0,0,0,0,0,0,4
"87","Inglewood, CA","Inglewood","CA",2018,33.9566,-118.3444,0,0,0,0,0,0,0,0,0,0,0,0,0,0,1,0,0,0,0,0,0,0,0,0,0,0,0,0,0,0,0,0,0,0,0,1
"88","Lawndale, CA","Lawndale","CA",2018,33.8884,-118.3531,0,0,0,0,0,0,0,0,0,0,0,0,0,0,1,0,0,0,0,0,0,0,0,0,0,0,0,0,0,0,0,0,0,0,0,1
"89","Long Beach, CA","Long Beach","CA",2018,33.7981,-118.1675,0,0,0,0,0,5,0,0,0,0,3,0,0,0,1,0,0,0,0,0,0,0,0,0,0,0,0,0,0,0,0,0,0,0,0,9
"90","Los Angeles, CA","Los Angeles","CA",2018,34.1139,-118.4068,0,3,8,0,0,56,0,1,0,0,61,1,0,3,46,4,1,50,4,9,0,0,0,3,1,0,1,5,2,0,0,0,9,14,0,282
"91","Lynwood, CA","Lynwood","CA",2018,33.924,-118.2017,0,0,0,0,0,0,0,0,0,0,0,0,0,0,1,0,0,0,0,0,0,0,0,0,0,0,0,0,0,0,0,0,0,0,0,1
"92","Norwalk, CA","Norwalk","CA",2018,33.9069,-118.0829,0,0,0,0,0,2,0,0,0,0,0,0,0,0,0,0,0,0,0,0,0,0,0,0,0,0,0,1,0,0,0,0,0,0,0,3
"93","Palmdale, CA","Palmdale","CA",2018,34.5944,-118.1057,0,0,0,0,0,0,0,0,0,0,0,0,0,0,1,0,0,0,0,0,0,0,0,0,0,0,0,0,0,0,0,0,0,0,0,1
"94","Paramount, CA","Paramount","CA",2018,33.8976,-118.1652,0,0,0,0,0,0,0,0,0,0,0,0,0,0,1,0,0,0,1,0,0,0,0,0,0,0,0,0,0,0,0,0,0,0,0,2
"95","Pasadena, CA","Pasadena","CA",2018,34.1597,-118.139,0,0,0,0,0,0,0,1,0,0,0,0,0,0,1,0,0,0,0,0,0,0,0,0,0,0,0,0,1,0,0,0,0,0,0,3
"96","San Dimas, CA","San Dimas","CA",2018,34.1082,-117.809,0,0,0,0,0,0,0,0,0,0,0,0,0,0,0,1,0,0,0,0,0,0,0,0,0,0,0,0,0,0,0,0,0,0,0,1
"97","San Gabriel, CA","San Gabriel","CA",2018,34.0948,-118.099,0,0,1,0,0,0,0,0,0,0,0,0,0,0,1,0,0,0,0,0,0,0,0,0,0,0,0,0,0,0,0,0,0,0,0,2
"98","Santa Monica, CA","Santa Monica","CA",2018,34.0232,-118.4813,0,0,0,0,0,1,0,0,0,0,0,0,0,0,0,0,0,0,0,0,0,0,0,0,0,0,0,0,0,0,0,0,0,0,0,1
"99","South Gate, CA","South Gate","CA",2018,33.9448,-118.1926,0,0,0,0,0,1,0,0,0,0,0,0,0,0,0,0,0,0,0,0,0,0,0,0,0,0,0,0,0,0,0,0,0,0,0,1
"100","South Pasadena, CA","South Pasadena","CA",2018,34.1103,-118.1573,0,0,0,0,0,0,0,0,0,0,0,0,0,0,0,0,0,0,0,0,0,0,0,0,0,0,0,0,0,0,0,0,0,1,0,1
"101","Torrance, CA","Torrance","CA",2018,33.8346,-118.3417,0,0,0,0,0,0,0,0,0,0,2,0,0,0,0,0,0,0,0,0,0,0,0,0,0,0,0,0,0,0,0,0,0,0,0,2
"102","West Covina, CA","West Covina","CA",2018,34.0555,-117.9112,0,0,0,0,0,3,0,0,0,0,0,0,0,0,0,0,0,0,0,0,0,0,0,0,0,0,0,0,0,0,0,0,0,0,0,3
"103","Carson, CA","Carson","CA",2018,33.8374,-118.2559,0,0,0,0,0,0,0,0,0,0,0,0,0,0,1,0,0,0,0,0,0,0,0,0,0,0,0,0,0,0,0,0,0,0,0,1
"104","Lancaster, CA","Lancaster","CA",2018,34.6935,-118.1753,0,0,0,0,0,6,0,0,0,0,2,0,0,0,0,0,0,0,0,0,0,0,0,0,0,0,0,1,0,0,0,0,0,2,0,11
"105","San Rafael, CA","San Rafael","CA",2018,37.9905,-122.5222,0,0,0,0,0,0,0,0,0,0,0,0,0,0,2,1,0,0,0,0,0,0,0,1,0,0,0,0,0,0,0,0,0,0,0,4
"106","Fort Bragg, CA","Fort Bragg","CA",2018,39.4399,-123.8013,0,0,0,0,0,0,0,0,0,0,0,0,0,0,0,0,0,0,0,0,0,0,0,0,0,0,1,0,0,0,0,0,0,0,0,1
"107","Los Banos, CA","Los Banos","CA",2018,37.063,-120.8406,0,0,0,0,0,0,0,0,0,0,0,0,0,0,0,0,0,0,0,1,0,0,0,0,0,0,0,0,0,0,0,0,0,0,0,1
"108","Monterey, CA","Monterey","CA",2018,36.5922,-121.8807,0,0,0,0,0,1,0,0,0,0,0,0,0,0,0,0,0,0,0,0,0,0,0,1,0,0,0,0,0,0,0,0,0,0,0,2
"109","Salinas, CA","Salinas","CA",2018,36.6884,-121.6317,0,0,0,0,0,0,0,0,0,0,1,0,0,0,0,0,0,0,0,0,0,0,0,0,0,0,0,0,0,0,0,0,0,0,0,1
"110","Seaside, CA","Seaside","CA",2018,36.6224,-121.8191,0,0,0,0,0,0,0,0,0,0,0,0,0,0,0,0,0,0,0,0,0,0,0,0,0,0,0,0,0,0,0,0,0,1,0,1
"111","American Canyon, CA","American Canyon","CA",2018,38.1796,-122.2583,0,0,0,0,0,0,0,0,0,0,0,0,0,0,0,0,0,0,0,0,0,0,0,0,1,0,0,0,0,0,0,0,0,0,0,1
"112","Anaheim, CA","Anaheim","CA",2018,33.839,-117.8572,0,0,0,0,0,0,0,0,0,0,2,0,0,0,0,0,0,0,0,0,0,0,0,0,0,0,0,0,0,0,0,0,0,0,0,2
"113","Brea, CA","Brea","CA",2018,33.9254,-117.8656,0,0,0,0,0,0,0,0,0,0,0,0,0,0,0,0,0,0,0,0,0,0,0,0,0,0,0,0,1,0,0,0,0,0,0,1
"114","Buena Park, CA","Buena Park","CA",2018,33.8572,-118.0046,0,0,1,0,0,0,0,0,0,0,1,0,0,0,0,0,0,0,0,0,0,0,0,0,0,0,0,0,0,0,0,0,0,0,0,2
"115","Cypress, CA","Cypress","CA",2018,33.8171,-118.0386,0,1,0,0,0,1,0,0,0,0,0,0,0,0,0,0,0,0,0,0,0,0,0,0,0,0,0,0,0,0,0,0,0,0,0,2
"116","Fountain Valley, CA","Fountain Valley","CA",2018,33.7105,-117.9514,0,0,0,0,0,0,0,0,0,0,0,0,0,0,0,0,0,0,1,0,0,0,0,0,0,0,0,0,0,0,0,0,0,0,0,1
"117","Garden Grove, CA","Garden Grove","CA",2018,33.7787,-117.9601,0,0,0,0,0,1,0,0,0,0,0,0,0,0,0,0,0,0,0,0,0,0,0,0,0,0,0,0,0,0,0,0,0,0,0,1
"118","Huntington Beach, CA","Huntington Beach","CA",2018,33.696,-118.0025,0,0,1,0,0,1,0,0,0,0,0,0,0,0,0,1,0,1,0,0,0,0,0,0,0,0,0,0,0,0,0,0,0,0,0,4
"119","Newport Beach, CA","Newport Beach","CA",2018,33.6151,-117.8669,0,0,0,0,0,0,0,0,0,0,2,0,0,0,1,0,0,0,0,0,0,0,0,0,0,0,0,0,0,0,0,0,1,0,0,4
"120","Orange, CA","Orange","CA",2018,33.8038,-117.8218,0,0,1,0,0,0,0,0,0,0,0,0,0,0,0,0,0,0,0,0,0,0,0,1,0,0,0,0,0,0,0,0,0,0,0,2
"121","Placentia, CA","Placentia","CA",2018,33.8807,-117.8553,0,0,0,0,0,1,0,0,0,0,1,0,0,0,1,1,0,0,0,0,0,0,0,1,0,0,0,0,0,0,0,0,0,0,0,5
"122","San Clemente, CA","San Clemente","CA",2018,33.4498,-117.6103,0,0,0,0,0,0,0,0,0,0,0,0,0,0,0,0,0,0,1,0,0,0,0,1,0,0,0,0,0,0,0,0,0,0,0,2
"123","Santa Ana, CA","Santa Ana","CA",2018,33.7366,-117.8819,0,0,0,0,0,4,0,0,0,0,0,0,0,0,1,0,0,0,0,1,0,0,0,0,1,0,0,1,5,0,0,0,0,0,0,13
"124","Irvine, CA","Irvine","CA",2018,33.6772,-117.7738,0,0,0,0,0,1,0,0,0,0,0,0,0,0,0,0,0,1,0,0,0,0,0,0,0,0,0,0,0,0,0,0,0,0,0,2
"125","Laguna Woods, CA","Laguna Woods","CA",2018,33.6098,-117.7299,0,0,0,0,0,0,0,0,0,0,1,0,0,0,0,0,0,0,0,0,0,0,0,0,0,0,0,0,0,0,0,0,0,0,0,1
"126","Rancho Santa Margarita, CA","Rancho Santa Margarita","CA",2018,33.6318,-117.5989,0,1,0,0,0,0,0,0,0,0,0,0,0,0,0,0,0,0,0,0,0,0,0,0,0,0,0,0,0,0,0,0,0,0,0,1
"127","Roseville, CA","Roseville","CA",2018,38.7703,-121.3196,0,0,0,0,0,2,0,0,0,0,0,0,0,0,0,0,0,0,0,0,0,0,0,3,0,0,0,0,0,0,0,0,0,0,0,5
"128","Beaumont, CA","Beaumont","CA",2018,33.9076,-116.9766,0,0,0,0,0,0,0,0,0,0,0,0,0,0,1,0,0,0,0,0,0,0,0,0,0,0,0,0,0,0,0,0,0,0,0,1
"129","Hemet, CA","Hemet","CA",2018,33.7341,-116.9969,0,0,0,0,0,0,0,0,0,0,0,0,0,0,1,0,0,0,0,0,0,0,0,0,0,0,0,0,0,0,0,0,0,0,0,1
"130","Palm Springs, CA","Palm Springs","CA",2018,33.8017,-116.5382,0,0,0,0,0,1,0,0,0,0,3,0,0,0,0,0,0,0,0,0,0,0,0,0,0,0,0,0,0,0,0,0,0,0,0,4
"131","Perris, CA","Perris","CA",2018,33.7899,-117.2233,0,0,0,0,0,1,0,0,0,0,0,0,0,0,0,0,0,0,0,0,0,0,0,0,0,0,0,0,0,0,0,0,0,0,0,1
"132","Riverside, CA","Riverside","CA",2018,33.9381,-117.3948,0,0,0,0,0,6,0,1,0,0,0,0,0,0,1,0,0,0,0,0,0,0,0,0,0,0,0,1,0,0,0,0,0,1,0,10
"133","San Jacinto, CA","San Jacinto","CA",2018,33.797,-116.9916,0,0,0,0,0,2,0,0,0,0,0,0,0,0,0,0,0,0,0,0,0,0,0,0,0,0,0,0,0,0,0,0,0,0,0,2
"134","Corona, CA","Corona","CA",2018,33.8616,-117.5649,0,0,0,0,0,0,0,1,0,0,0,0,0,0,0,0,0,0,0,0,0,0,0,0,0,0,0,0,0,0,0,0,0,1,0,2
"135","Moreno Valley, CA","Moreno Valley","CA",2018,33.9244,-117.2045,0,0,0,0,0,1,0,0,0,0,0,0,0,0,0,0,0,0,0,0,0,0,0,0,0,0,0,0,0,0,0,0,0,0,0,1
"136","Calimesa, CA","Calimesa","CA",2018,33.9874,-117.0542,0,0,0,0,0,0,0,0,0,0,0,0,0,0,1,0,0,0,0,0,0,0,0,0,0,0,0,0,0,0,0,0,0,0,0,1
"137","Menifee, CA","Menifee","CA",2018,33.6909,-117.1849,0,0,1,0,0,1,0,0,0,0,0,0,0,0,0,0,0,0,0,0,0,0,0,0,0,0,0,0,0,0,0,0,0,0,0,2
"138","Eastvale, CA","Eastvale","CA",2018,33.9617,-117.5802,0,0,0,0,0,0,0,0,0,0,0,0,0,0,0,1,0,0,0,0,0,0,0,0,0,0,0,0,0,0,0,0,0,0,0,1
"139","Jurupa Valley, CA","Jurupa Valley","CA",2018,34.001,-117.4705,0,0,0,0,0,1,0,0,0,0,0,0,0,0,0,0,0,0,0,0,0,0,0,0,0,0,0,0,0,0,0,0,0,0,0,1
"140","Folsom, CA","Folsom","CA",2018,38.6668,-121.1422,0,0,0,0,0,1,0,0,0,0,0,0,0,0,0,0,0,0,0,0,0,0,0,0,0,0,0,0,0,0,0,0,0,0,0,1
"141","Galt, CA","Galt","CA",2018,38.2693,-121.3,0,0,0,0,0,0,0,0,0,0,0,0,0,0,0,0,0,0,0,0,0,0,0,0,0,0,0,0,0,0,0,0,0,1,0,1
"142","Sacramento, CA","Sacramento","CA",2018,38.5667,-121.4683,0,0,0,0,0,3,0,1,0,0,5,0,0,0,1,0,0,0,1,1,0,0,0,0,0,0,0,0,0,0,0,0,0,0,0,12
"143","Elk Grove, CA","Elk Grove","CA",2018,38.416,-121.3842,0,0,0,0,0,2,0,0,0,0,1,0,0,0,0,0,0,0,0,1,0,0,0,0,0,0,0,0,0,0,0,0,0,0,0,4
"144","Citrus Heights, CA","Citrus Heights","CA",2018,38.6948,-121.288,0,0,0,0,0,1,0,0,0,0,0,0,0,0,1,0,0,0,0,0,0,0,0,0,0,0,0,1,0,0,0,0,0,0,0,3
"145","Fontana, CA","Fontana","CA",2018,34.0968,-117.4599,0,0,0,0,0,0,0,0,0,0,0,0,0,0,1,0,0,0,0,0,0,0,0,0,0,0,0,0,0,0,0,0,0,0,0,1
"146","Redlands, CA","Redlands","CA",2018,34.0511,-117.1712,0,0,0,0,0,0,0,0,0,0,0,0,0,0,1,0,0,0,0,0,0,0,0,0,0,0,0,0,0,0,0,0,0,0,0,1
"147","Rialto, CA","Rialto","CA",2018,34.1174,-117.3894,0,0,0,0,0,1,0,0,0,0,0,0,0,0,0,0,0,0,0,0,0,0,0,0,0,0,0,0,0,0,0,0,0,0,0,1
"148","San Bernardino, CA","San Bernardino","CA",2018,34.1417,-117.2946,0,0,0,0,0,1,0,0,0,0,0,0,0,0,1,0,0,0,0,0,0,0,0,0,0,0,0,2,0,0,0,0,0,0,0,4
"149","Upland, CA","Upland","CA",2018,34.1178,-117.6603,0,1,0,0,0,0,0,0,0,0,0,0,0,0,1,0,0,0,0,0,0,0,0,0,0,0,0,0,0,0,0,0,0,0,0,2
"150","Victorville, CA","Victorville","CA",2018,34.5277,-117.3536,0,0,0,0,0,2,0,0,0,0,0,0,0,0,1,0,0,0,0,0,0,1,0,0,0,0,0,0,0,1,0,0,0,0,0,5
"151","Rancho Cucamonga, CA","Rancho Cucamonga","CA",2018,34.1248,-117.5666,0,0,0,0,0,2,0,0,0,0,0,0,0,0,0,0,0,0,0,0,0,0,0,0,0,0,0,0,0,0,0,0,0,0,0,2
"152","Hesperia, CA","Hesperia","CA",2018,34.3975,-117.3147,0,0,0,0,0,0,0,0,0,0,0,0,0,0,0,0,0,0,0,0,0,0,0,1,0,0,0,0,0,0,0,0,0,0,0,1
"153","Apple Valley, CA","Apple Valley","CA",2018,34.5328,-117.2104,0,0,0,0,0,0,0,0,0,0,0,0,0,0,1,0,0,0,0,0,0,0,0,0,0,0,0,0,0,0,0,0,0,0,0,1
"154","Yucaipa, CA","Yucaipa","CA",2018,34.0336,-117.0429,0,0,0,0,0,0,0,0,0,0,0,0,0,0,1,0,0,0,0,0,0,0,0,0,0,0,0,0,0,0,0,0,0,0,0,1
"155","Chino Hills, CA","Chino Hills","CA",2018,33.9508,-117.7253,0,0,0,0,0,0,0,0,0,0,0,0,0,0,0,0,0,0,0,0,0,0,0,0,0,0,0,1,0,0,0,0,0,0,0,1
"156","Yucca Valley, CA","Yucca Valley","CA",2018,34.1234,-116.4216,0,0,0,0,0,1,0,0,0,0,0,0,0,0,0,0,0,0,0,0,0,0,0,0,0,0,0,0,0,0,0,0,0,0,0,1
"157","Carlsbad, CA","Carlsbad","CA",2018,33.1247,-117.2837,0,0,0,0,0,1,0,1,0,0,0,0,0,0,2,0,0,1,0,0,0,0,0,0,0,0,0,0,0,0,0,0,0,1,0,6
"158","Chula Vista, CA","Chula Vista","CA",2018,32.6281,-117.0145,0,0,0,0,0,1,0,0,0,0,0,0,0,0,0,0,0,0,0,0,0,0,0,0,0,0,0,0,0,0,1,0,0,0,0,2
"159","El Cajon, CA","El Cajon","CA",2018,32.8017,-116.9605,0,0,0,0,0,2,0,0,0,0,0,0,0,0,0,0,0,0,1,0,0,0,0,0,0,0,0,0,0,0,0,0,0,1,0,4
"160","Escondido, CA","Escondido","CA",2018,33.1347,-117.0722,0,1,0,0,0,1,0,0,0,0,0,0,0,0,0,0,0,0,0,0,0,0,0,0,0,0,0,0,0,0,0,0,0,0,0,2
"161","Imperial Beach, CA","Imperial Beach","CA",2018,32.5689,-117.1184,0,0,0,0,0,1,0,0,0,0,0,0,0,0,0,0,0,0,0,0,0,0,0,0,0,0,0,0,0,0,0,0,0,0,0,1
"162","La Mesa, CA","La Mesa","CA",2018,32.7703,-117.0204,0,0,0,0,0,1,0,0,0,0,0,0,0,0,0,0,0,0,0,0,0,0,0,0,0,0,0,0,0,0,0,0,0,0,0,1
"163","Oceanside, CA","Oceanside","CA",2018,33.2247,-117.3083,0,0,0,0,0,2,0,0,0,0,0,0,0,0,0,0,0,0,0,0,0,0,0,0,0,0,0,0,0,0,0,0,0,0,0,2
"164","San Diego, CA","San Diego","CA",2018,32.8312,-117.1225,0,0,0,1,1,13,0,2,0,0,10,0,0,0,5,0,0,3,0,1,0,0,0,0,0,0,0,0,2,0,0,0,0,2,0,40
"165","San Marcos, CA","San Marcos","CA",2018,33.135,-117.1744,0,0,0,0,0,0,0,0,0,0,0,0,0,0,1,0,0,0,0,0,0,0,0,0,0,0,0,0,0,0,0,0,0,0,0,1
"166","Vista, CA","Vista","CA",2018,33.1896,-117.2386,0,0,0,0,0,0,0,0,0,0,0,0,0,0,0,0,0,0,0,1,0,0,0,0,0,0,0,0,0,0,0,0,0,0,0,1
"167","Santee, CA","Santee","CA",2018,32.8554,-116.9851,0,0,0,0,0,1,0,0,0,0,0,0,0,0,0,0,0,0,0,0,0,0,0,0,0,0,0,0,0,0,0,0,0,0,0,1
"168","Poway, CA","Poway","CA",2018,32.9871,-117.0201,0,0,0,0,0,0,0,0,0,0,0,0,0,0,0,0,0,1,0,0,0,0,0,0,0,0,0,0,0,0,0,0,0,0,0,1
"169","Encinitas, CA","Encinitas","CA",2018,33.049,-117.2613,0,0,0,0,0,0,0,0,0,0,0,0,0,0,0,0,0,3,0,0,0,0,0,0,0,0,0,0,0,0,0,0,0,0,0,3
"170","San Francisco, CA","San Francisco","CA",2018,37.7562,-122.443,0,1,4,0,0,12,0,0,0,0,13,0,0,0,14,3,0,4,1,3,0,0,0,1,0,0,1,5,0,0,0,0,2,4,0,68
"171","Escalon, CA","Escalon","CA",2018,37.7912,-120.9982,0,0,0,0,0,0,0,0,0,0,0,0,0,0,1,0,0,0,0,0,0,0,0,0,0,0,0,0,0,0,0,0,0,0,0,1
"172","Lodi, CA","Lodi","CA",2018,38.1218,-121.2932,0,0,0,0,0,1,0,0,0,0,0,0,0,0,0,0,0,1,0,0,0,0,0,0,0,0,0,0,0,0,0,0,0,0,0,2
"173","Ripon, CA","Ripon","CA",2018,37.7417,-121.131,0,0,0,0,0,1,0,0,0,0,0,0,0,0,0,0,0,0,0,0,0,0,0,0,0,0,0,0,0,0,0,0,0,0,0,1
"174","Stockton, CA","Stockton","CA",2018,37.9765,-121.3109,0,0,0,0,0,1,0,0,0,0,1,0,0,0,1,0,0,1,0,0,0,0,0,0,0,0,0,0,0,0,0,0,0,0,0,4
"175","Tracy, CA","Tracy","CA",2018,37.7269,-121.4522,0,0,0,0,0,0,0,0,0,0,2,0,0,0,0,0,0,0,0,0,0,0,0,0,0,0,0,0,0,0,0,0,0,0,0,2
"176","Morro Bay, CA","Morro Bay","CA",2018,35.3681,-120.8481,0,0,0,0,0,0,0,0,0,0,0,0,0,0,0,0,0,0,1,0,0,0,0,0,0,0,0,0,0,0,0,0,0,0,0,1
"177","San Luis Obispo, CA","San Luis Obispo","CA",2018,35.2669,-120.6691,0,0,0,0,0,0,0,0,0,1,0,0,0,0,3,0,0,0,0,0,0,1,0,0,0,0,0,0,0,0,0,0,0,1,0,6
"178","Daly City, CA","Daly City","CA",2018,37.6862,-122.4685,0,0,0,0,0,0,0,0,0,0,0,0,0,0,0,0,0,0,0,0,0,0,0,0,0,0,0,1,0,0,0,0,0,0,0,1
"179","Pacifica, CA","Pacifica","CA",2018,37.6112,-122.4781,0,0,0,0,0,0,0,0,0,0,1,0,0,0,0,1,0,0,1,0,0,0,0,0,0,0,0,0,0,0,0,0,0,0,0,3
"180","Redwood City, CA","Redwood City","CA",2018,37.5026,-122.2252,0,0,0,0,0,1,0,0,0,0,0,0,0,0,0,0,0,1,0,0,0,0,0,0,0,0,0,0,0,0,0,0,0,0,0,2
"181","San Bruno, CA","San Bruno","CA",2018,37.6254,-122.4313,0,0,0,0,0,0,0,0,0,0,1,0,0,0,0,0,0,0,0,0,0,0,0,0,0,0,0,0,0,0,0,0,0,0,0,1
"182","San Mateo, CA","San Mateo","CA",2018,37.5521,-122.3122,0,0,0,0,0,0,0,0,0,0,1,0,0,0,0,0,0,0,0,0,0,0,0,0,0,0,0,0,0,0,0,0,0,0,0,1
"183","Foster City, CA","Foster City","CA",2018,37.5553,-122.2659,0,0,0,0,0,0,0,0,0,0,0,0,0,0,0,0,0,2,0,0,0,0,0,0,0,0,0,0,0,0,0,0,0,0,0,2
"184","Santa Barbara, CA","Santa Barbara","CA",2018,34.4285,-119.7202,0,0,0,0,0,1,0,0,0,0,0,0,0,0,1,0,0,0,0,0,0,0,0,0,0,0,0,0,0,0,0,0,0,0,0,2
"185","Santa Maria, CA","Santa Maria","CA",2018,34.9334,-120.4432,0,0,0,0,0,0,0,0,0,0,0,0,0,0,1,0,0,0,0,0,0,0,0,0,0,0,0,0,0,0,0,0,0,0,0,1
"186","Cupertino, CA","Cupertino","CA",2018,37.3168,-122.0465,0,0,0,0,0,0,0,0,0,0,0,0,0,0,0,1,0,0,0,1,0,0,0,0,0,0,0,0,0,0,0,0,0,0,0,2
"187","Mountain View, CA","Mountain View","CA",2018,37.4,-122.0796,0,0,0,0,0,0,0,0,0,0,0,0,0,0,1,0,0,0,0,0,0,0,0,0,0,0,0,0,0,0,0,0,0,0,0,1
"188","Palo Alto, CA","Palo Alto","CA",2018,37.3913,-122.1468,0,0,1,0,0,1,0,0,0,0,1,0,0,0,0,0,0,2,0,0,0,0,0,0,0,0,0,0,0,0,0,0,0,0,0,5
"189","San Jose, CA","San Jose","CA",2018,37.3019,-121.8486,0,0,1,0,0,9,0,0,0,0,8,0,0,2,7,3,0,0,1,0,0,0,0,2,1,0,0,1,0,0,0,0,0,2,0,37
"190","Sunnyvale, CA","Sunnyvale","CA",2018,37.3836,-122.0256,0,0,0,0,0,2,0,0,0,0,0,0,0,0,0,0,0,2,0,0,0,0,0,0,0,0,0,0,0,0,0,0,0,0,0,4
"191","Capitola, CA","Capitola","CA",2018,36.9772,-121.9538,0,0,0,0,0,0,0,0,0,0,1,0,0,0,0,0,0,0,0,0,0,0,0,0,0,0,0,0,0,0,0,0,0,0,0,1
"192","Santa Cruz, CA","Santa Cruz","CA",2018,36.9789,-122.0346,0,0,2,0,0,2,0,0,0,0,0,0,1,0,0,0,0,2,0,1,0,0,0,1,0,0,0,0,0,0,0,0,0,0,0,9
"193","Scotts Valley, CA","Scotts Valley","CA",2018,37.0555,-122.0118,0,0,0,0,0,0,0,0,0,0,1,0,0,0,0,0,0,0,0,0,0,0,0,0,0,0,0,0,0,0,0,0,0,0,0,1
"194","Redding, CA","Redding","CA",2018,40.5698,-122.365,0,0,0,0,0,8,0,0,0,0,0,0,0,0,1,0,0,0,0,0,0,0,0,0,0,0,0,0,0,0,0,0,0,0,0,9
"195","Fairfield, CA","Fairfield","CA",2018,38.2592,-122.0324,0,0,0,0,0,1,0,0,0,0,0,0,0,0,0,0,0,0,1,0,0,0,0,0,0,0,0,0,0,0,0,0,0,0,0,2
"196","Rio Vista, CA","Rio Vista","CA",2018,38.1763,-121.7025,0,0,0,0,0,0,0,0,0,0,0,0,0,0,0,0,0,0,0,0,0,0,0,0,0,0,0,0,1,0,0,0,0,0,0,1
"197","Vallejo, CA","Vallejo","CA",2018,38.1133,-122.2358,0,0,0,0,0,1,0,0,0,0,0,0,0,0,0,0,0,0,0,0,0,0,0,0,0,0,0,0,0,0,0,0,0,0,0,1
"198","Santa Rosa, CA","Santa Rosa","CA",2018,38.4458,-122.7067,0,0,0,0,0,1,0,1,0,0,2,0,0,0,0,0,0,0,1,0,0,0,0,0,0,0,0,1,0,0,0,0,0,0,0,6
"199","Petaluma, CA","Petaluma","CA",2018,38.2423,-122.6267,0,0,0,0,0,0,0,0,0,0,0,0,0,0,1,0,0,0,0,0,0,0,0,0,0,0,0,0,0,0,0,0,0,0,0,1
"200","Modesto, CA","Modesto","CA",2018,37.6374,-121.0028,0,0,0,0,0,0,0,0,0,2,0,0,0,0,1,0,0,0,0,2,0,0,0,0,0,0,1,1,0,0,0,0,0,0,0,7
"201","Turlock, CA","Turlock","CA",2018,37.5053,-120.8588,0,0,0,0,0,0,0,0,0,0,1,0,0,0,1,0,0,0,0,0,0,0,0,0,0,0,0,0,0,0,0,0,0,0,0,2
"202","Corning, CA","Corning","CA",2018,39.9282,-122.182,0,0,0,0,0,0,0,0,0,0,1,0,0,0,0,0,0,0,0,0,0,0,0,0,0,0,0,0,0,0,0,0,0,0,0,1
"203","Red Bluff, CA","Red Bluff","CA",2018,40.1735,-122.2413,1,0,0,0,0,1,0,0,0,0,0,0,0,0,0,0,0,0,0,0,0,0,0,0,0,0,0,0,0,0,0,0,0,0,0,2
"204","Camarillo, CA","Camarillo","CA",2018,34.223,-119.0322,0,0,0,0,0,2,0,0,0,0,0,0,0,0,0,0,0,0,0,0,0,0,0,0,0,0,0,0,0,0,0,0,0,0,0,2
"205","Fillmore, CA","Fillmore","CA",2018,34.3989,-118.9181,0,0,0,0,0,0,0,0,0,0,1,0,0,0,0,0,0,0,0,0,0,0,0,0,0,0,0,0,0,0,0,0,0,0,0,1
"206","Oxnard, CA","Oxnard","CA",2018,34.1963,-119.1815,0,0,0,0,0,0,0,0,0,0,1,0,0,0,0,0,0,1,0,0,0,0,0,0,0,0,0,0,0,0,0,0,0,0,0,2
"207","Thousand Oaks, CA","Thousand Oaks","CA",2018,34.1914,-118.8755,0,0,0,0,0,1,0,0,0,0,0,0,0,0,0,0,0,0,0,0,0,0,0,0,0,0,0,0,0,0,0,0,0,0,0,1
"208","Simi Valley, CA","Simi Valley","CA",2018,34.2663,-118.749,0,0,0,0,0,3,0,0,0,0,1,0,0,0,1,0,0,2,0,0,0,0,0,0,0,0,0,0,0,0,0,0,0,0,0,7
"209","Davis, CA","Davis","CA",2018,38.5552,-121.7365,0,0,0,0,0,3,0,0,0,0,1,0,0,0,1,1,0,2,0,0,0,1,0,1,0,0,1,3,0,0,0,0,0,0,0,14
"210","Marysville, CA","Marysville","CA",2018,39.1518,-121.5835,0,0,0,0,0,1,0,0,0,0,0,0,0,0,0,0,0,0,0,0,0,0,0,0,0,0,0,0,0,0,0,0,0,0,0,1
"211","Aurora, CO","Aurora","CO",2018,39.7087,-104.7273,1,0,1,0,0,1,0,0,0,0,0,0,0,0,2,0,0,1,0,0,0,0,0,0,0,0,0,1,1,0,0,0,0,1,0,9
"212","Brighton, CO","Brighton","CO",2018,39.9716,-104.7964,0,0,0,0,0,0,0,0,0,0,0,0,0,0,0,0,0,0,0,1,0,0,0,0,0,0,0,0,0,0,0,0,0,0,0,1
"213","Commerce City, CO","Commerce City","CO",2018,39.8642,-104.8434,0,0,0,0,0,0,0,0,0,0,0,0,0,0,1,0,0,0,0,0,0,0,0,0,0,0,0,0,0,0,0,0,0,0,0,1
"214","Thornton, CO","Thornton","CO",2018,39.9197,-104.9438,0,0,0,0,0,0,0,0,0,0,0,0,0,0,0,0,0,0,0,0,0,0,0,0,0,0,0,0,0,0,0,0,0,1,0,1
"215","Centennial, CO","Centennial","CO",2018,39.5926,-104.8674,0,0,0,0,0,0,0,0,0,0,0,0,0,0,1,0,0,1,0,2,0,0,0,0,0,0,0,0,0,0,0,0,0,1,0,5
"216","Boulder, CO","Boulder","CO",2018,40.0249,-105.2523,0,0,0,0,0,1,0,0,0,0,0,0,0,0,0,0,0,0,0,0,0,0,0,1,0,0,0,0,0,0,0,0,0,0,0,2
"217","Lafayette, CO","Lafayette","CO",2018,39.9949,-105.0997,0,0,0,0,0,0,0,0,0,0,0,0,0,0,1,0,0,0,0,1,0,0,0,0,0,0,0,0,0,0,0,0,0,0,0,2
"218","Longmont, CO","Longmont","CO",2018,40.1686,-105.1005,0,0,0,0,0,0,0,0,0,0,0,0,0,0,1,0,0,0,0,0,0,0,0,0,0,0,0,0,0,0,0,0,0,0,0,1
"219","Louisville, CO","Louisville","CO",2018,39.9709,-105.1441,0,0,0,0,0,1,0,0,0,0,0,0,0,0,0,0,0,0,0,0,0,0,0,0,0,0,0,0,0,0,0,0,0,0,0,1
"220","Colorado Springs, CO","Colorado Springs","CO",2018,38.8674,-104.7606,0,0,0,0,0,4,0,0,0,0,0,0,0,0,0,1,1,0,0,0,0,0,0,1,0,0,0,0,0,0,0,0,0,0,0,7
"221","Rifle, CO","Rifle","CO",2018,39.5362,-107.7729,0,0,0,0,0,0,0,0,0,0,0,0,0,0,1,0,0,0,0,0,0,0,0,0,0,0,0,0,0,0,0,0,0,0,0,1
"222","Golden, CO","Golden","CO",2018,39.7406,-105.2118,0,0,0,0,0,0,0,0,0,0,1,0,0,0,0,0,0,0,0,0,0,0,0,0,0,0,0,0,0,0,0,0,0,0,0,1
"223","Lakewood, CO","Lakewood","CO",2018,39.6977,-105.1168,0,0,0,0,0,0,0,0,0,0,0,0,0,0,0,1,0,0,0,0,0,0,0,0,0,0,0,0,0,0,0,0,0,0,0,1
"224","Fort Collins, CO","Fort Collins","CO",2018,40.5478,-105.0656,0,1,0,0,0,1,0,0,0,0,0,0,0,0,2,0,0,0,0,1,0,0,0,0,0,0,0,0,0,0,0,0,0,0,0,5
"225","Sterling, CO","Sterling","CO",2018,40.6206,-103.1925,0,0,0,0,0,0,0,0,0,0,0,0,0,0,1,0,0,0,0,0,0,0,0,0,0,0,0,0,0,0,0,0,0,0,0,1
"226","Grand Junction, CO","Grand Junction","CO",2018,39.0876,-108.5673,0,0,0,0,0,0,0,0,0,0,0,0,0,0,1,0,0,0,0,0,0,0,0,0,0,0,0,0,0,0,0,0,0,0,0,1
"227","Denver, CO","Denver","CO",2018,39.7621,-104.8759,0,0,0,0,0,7,0,0,0,0,5,0,0,0,2,1,0,0,0,1,0,0,0,0,0,0,0,1,0,1,0,0,3,1,0,22
"228","Bridgeport, CT","Bridgeport","CT",2018,41.1918,-73.1953,0,0,0,0,0,2,0,0,0,0,0,0,0,0,2,0,0,0,0,0,0,0,0,0,0,0,0,0,0,0,0,0,0,0,0,4
"229","Bristol, CT","Bristol","CT",2018,41.6812,-72.9407,0,0,0,0,0,1,0,0,0,0,0,0,0,0,0,0,0,0,0,0,0,0,0,0,0,0,0,0,0,0,0,0,0,0,0,1
"230","Danbury, CT","Danbury","CT",2018,41.4016,-73.471,0,0,0,0,0,2,0,0,0,0,1,0,0,0,0,0,0,0,0,0,0,0,0,0,0,0,0,0,0,0,0,0,0,0,0,3
"231","Middletown, CT","Middletown","CT",2018,41.5476,-72.6549,1,0,0,0,0,2,0,0,0,0,0,0,0,0,0,0,0,0,0,0,0,0,0,0,0,0,0,0,0,0,0,0,0,1,0,4
"232","New Haven, CT","New Haven","CT",2018,41.3112,-72.9246,0,0,0,0,0,3,0,0,0,0,0,0,0,0,0,0,0,2,0,0,0,0,0,0,0,0,0,0,0,0,0,0,0,2,0,7
"233","Norwalk, CT","Norwalk","CT",2018,41.1144,-73.4215,0,0,0,0,0,1,0,0,0,0,0,0,0,0,0,0,0,1,0,0,0,0,0,0,0,0,0,0,0,0,0,0,0,0,0,2
"234","Norwich, CT","Norwich","CT",2018,41.5495,-72.0882,0,0,1,0,0,0,0,0,0,1,0,0,0,0,0,0,0,0,0,0,0,0,0,0,0,0,0,0,0,0,0,0,0,5,0,7
"235","Stamford, CT","Stamford","CT",2018,41.1035,-73.5583,0,0,0,0,0,1,0,0,0,0,1,0,0,0,1,0,0,1,0,1,0,0,0,1,0,0,0,1,1,0,0,0,0,0,0,8
"236","Torrington, CT","Torrington","CT",2018,41.8349,-73.1281,0,0,0,0,0,1,0,0,0,0,1,0,0,0,0,0,0,0,0,0,0,0,0,0,0,0,0,0,0,0,0,0,0,1,0,3
"237","Waterbury, CT","Waterbury","CT",2018,41.5583,-73.0361,0,0,0,0,0,0,0,0,0,0,0,0,0,0,1,0,0,0,0,0,0,0,0,0,0,0,0,1,0,0,0,0,0,0,0,2
"238","Willimantic, CT","Willimantic","CT",2018,41.7153,-72.2173,0,0,0,0,0,0,0,0,0,0,0,0,1,0,0,0,0,0,0,0,0,0,0,0,0,0,0,0,0,0,0,0,0,0,0,1
"239","Washington, DC","Washington","DC",2018,38.9047,-77.0163,0,1,1,0,0,23,0,0,0,1,52,2,0,1,24,6,0,5,2,6,0,0,0,0,0,0,0,24,0,0,0,0,31,15,0,194
"240","Dover, DE","Dover","DE",2018,39.161,-75.5203,0,0,0,0,0,1,0,0,0,0,0,0,0,0,0,0,0,0,0,0,0,0,0,0,0,0,0,0,0,0,0,0,0,1,0,2
"241","Felton, DE","Felton","DE",2018,39.0127,-75.5764,0,0,0,0,0,1,0,0,0,0,0,0,0,0,0,0,0,0,0,0,0,0,0,0,0,0,0,0,0,0,0,0,0,0,0,1
"242","Newark, DE","Newark","DE",2018,39.6776,-75.7573,0,0,0,0,0,1,0,0,0,0,1,0,0,0,0,0,0,0,0,0,0,0,0,0,0,0,0,0,0,0,0,0,0,0,0,2
"243","Wilmington, DE","Wilmington","DE",2018,39.7415,-75.5413,0,0,0,0,0,2,0,0,0,0,0,0,0,0,0,0,0,0,0,0,0,0,0,0,0,0,0,0,0,0,0,0,0,0,0,2
"244","Delaware City, DE","Delaware City","DE",2018,39.5743,-75.5939,0,0,0,0,0,0,0,0,0,0,1,0,0,0,0,0,0,0,0,0,0,0,0,0,0,0,0,0,0,0,0,0,0,0,0,1
"245","Seaford, DE","Seaford","DE",2018,38.6538,-75.611,0,0,0,0,0,1,0,0,0,0,0,0,0,0,0,0,0,0,0,0,0,0,0,0,0,0,0,0,0,1,0,0,0,0,0,2
"246","Gainesville, FL","Gainesville","FL",2018,29.6804,-82.3458,0,0,0,0,0,1,0,1,0,0,0,0,0,0,0,0,0,0,0,0,0,0,0,0,1,0,0,0,0,0,0,0,0,0,0,3
"247","Palm Bay, FL","Palm Bay","FL",2018,27.955,-80.6627,0,0,0,0,0,5,0,0,0,0,0,0,0,0,0,0,0,0,0,0,0,0,0,0,0,0,0,0,0,0,0,0,0,1,0,6
"248","Deerfield Beach, FL","Deerfield Beach","FL",2018,26.305,-80.1277,0,0,0,0,0,0,0,0,0,0,1,0,0,0,0,0,0,1,0,0,0,0,0,0,0,0,0,0,0,0,0,0,0,0,0,2
"249","Fort Lauderdale, FL","Fort Lauderdale","FL",2018,26.1412,-80.1464,0,0,0,0,0,2,0,0,0,0,2,0,0,0,0,0,0,0,0,0,0,0,0,0,0,0,0,0,0,0,0,0,0,1,0,5
"250","Pompano Beach, FL","Pompano Beach","FL",2018,26.2428,-80.1312,0,0,0,0,0,0,0,0,0,0,2,0,0,0,0,0,0,0,0,0,0,0,0,0,0,0,0,0,0,0,0,0,1,0,0,3
"251","Pembroke Pines, FL","Pembroke Pines","FL",2018,26.0128,-80.3382,0,0,0,0,0,0,0,0,0,0,0,0,0,0,0,1,0,0,0,0,0,0,0,0,0,0,0,0,0,0,0,0,0,0,0,1
"252","Wilton Manors, FL","Wilton Manors","FL",2018,26.1593,-80.1395,0,0,0,0,0,0,0,0,0,0,1,0,0,0,0,0,0,0,0,0,0,0,0,0,0,0,0,0,0,0,0,0,0,0,0,1
"253","Davie, FL","Davie","FL",2018,26.0789,-80.287,0,0,0,0,0,1,0,0,0,0,0,0,0,0,1,1,0,0,0,0,0,0,0,0,0,0,0,0,0,0,0,0,0,0,0,3
"254","Lauderdale Lakes, FL","Lauderdale Lakes","FL",2018,26.1682,-80.2017,0,0,0,0,0,2,0,0,0,0,0,0,0,0,0,0,0,0,0,0,0,0,0,0,0,0,0,0,0,0,0,0,0,1,0,3
"255","Sunrise, FL","Sunrise","FL",2018,26.1547,-80.2997,0,0,0,0,0,2,0,0,0,0,0,0,0,0,0,0,0,0,0,0,0,0,0,0,0,0,0,0,0,0,0,0,0,0,0,2
"256","Parkland, FL","Parkland","FL",2018,26.3218,-80.2533,0,0,0,0,0,0,0,0,0,0,0,0,0,0,0,0,0,1,0,0,0,0,0,0,0,0,0,0,0,0,0,0,0,0,0,1
"257","Weston, FL","Weston","FL",2018,26.1006,-80.4054,0,0,0,0,0,0,0,0,0,0,0,0,0,0,0,0,0,1,0,0,0,0,0,0,0,0,0,0,0,0,0,0,0,0,0,1
"258","Coral Gables, FL","Coral Gables","FL",2018,25.7037,-80.2715,0,0,0,0,0,0,0,0,0,0,0,0,0,0,0,0,0,1,0,0,0,0,0,0,0,0,0,0,0,0,0,0,0,0,0,1
"259","Miami, FL","Miami","FL",2018,25.7839,-80.2102,0,0,0,0,0,1,0,0,0,0,3,0,0,0,0,0,0,1,0,1,0,0,0,0,0,0,0,0,0,0,0,0,2,2,0,10
"260","Miami Beach, FL","Miami Beach","FL",2018,25.8171,-80.1396,0,0,0,0,0,1,0,0,0,0,6,0,0,0,0,0,0,11,0,1,0,0,0,0,0,0,0,0,0,0,0,0,1,0,0,20
"261","North Miami, FL","North Miami","FL",2018,25.9007,-80.1686,0,0,0,0,0,0,0,0,0,0,1,0,0,0,0,0,0,0,0,0,0,0,0,0,0,0,0,0,0,0,0,0,0,0,0,1
"262","Jacksonville, FL","Jacksonville","FL",2018,30.3322,-81.6749,0,0,0,0,0,4,0,0,0,0,0,0,0,0,0,0,0,0,0,0,0,0,0,0,0,0,0,0,0,0,0,0,0,0,0,4
"263","Tampa, FL","Tampa","FL",2018,27.9942,-82.4451,0,0,0,0,0,1,0,0,0,0,0,0,0,0,0,0,0,1,0,0,0,0,0,0,0,0,0,0,0,0,0,0,0,0,0,2
"264","Temple Terrace, FL","Temple Terrace","FL",2018,28.0437,-82.3774,0,0,0,0,0,1,0,0,0,0,0,0,0,0,0,0,0,0,0,0,0,0,0,0,0,0,0,0,0,0,0,0,0,1,0,2
"265","Sebastian, FL","Sebastian","FL",2018,27.7882,-80.4813,0,0,0,0,0,0,0,0,0,0,1,0,0,0,0,0,0,0,0,0,0,0,0,0,0,0,0,0,0,0,0,0,0,0,0,1
"266","Groveland, FL","Groveland","FL",2018,28.6021,-81.8204,0,0,0,0,0,1,0,0,0,0,0,0,0,0,0,0,0,0,0,0,0,0,0,0,0,0,0,0,0,0,0,0,0,0,0,1
"267","Minneola, FL","Minneola","FL",2018,28.6067,-81.7322,0,0,0,0,0,0,0,0,0,0,0,0,0,0,1,0,0,0,0,0,0,0,0,0,0,0,0,0,0,0,0,0,0,0,0,1
"268","Fort Myers, FL","Fort Myers","FL",2018,26.6195,-81.8303,0,0,0,0,0,0,0,0,0,0,1,0,0,0,0,0,0,0,0,0,0,0,0,0,0,0,0,0,0,0,0,0,0,0,0,1
"269","Cape Coral, FL","Cape Coral","FL",2018,26.6446,-81.9956,0,0,0,0,0,1,0,0,0,0,0,0,0,0,0,0,0,0,0,0,0,0,0,0,0,0,0,0,0,0,0,0,0,0,0,1
"270","Tallahassee, FL","Tallahassee","FL",2018,30.4551,-84.2526,0,0,0,0,0,0,0,0,0,0,0,0,0,0,0,0,0,0,0,0,0,0,0,0,0,0,0,0,0,0,0,0,0,1,0,1
"271","Ocala, FL","Ocala","FL",2018,29.178,-82.1511,0,0,0,0,0,1,0,0,0,0,0,0,0,0,0,0,0,0,0,0,0,0,0,0,0,0,0,0,0,0,0,0,0,0,0,1
"272","Key West, FL","Key West","FL",2018,24.5637,-81.7768,0,0,0,0,0,0,0,0,0,0,1,0,0,0,0,0,0,0,0,0,0,0,0,0,0,0,0,0,0,0,0,0,0,0,0,1
"273","Orlando, FL","Orlando","FL",2018,28.4772,-81.3369,0,0,0,0,0,1,0,0,0,0,2,0,0,0,0,0,0,0,0,0,0,0,0,0,0,0,0,0,0,0,0,0,0,1,0,4
"274","Boca Raton, FL","Boca Raton","FL",2018,26.3752,-80.108,0,0,0,0,0,1,0,0,0,0,0,0,0,0,0,0,0,1,0,0,0,0,0,0,0,0,0,0,0,0,0,0,0,0,0,2
"275","West Palm Beach, FL","West Palm Beach","FL",2018,26.7468,-80.1316,0,0,0,0,0,1,0,0,0,0,0,0,0,0,0,0,0,0,0,1,0,0,0,0,0,0,0,0,0,0,0,0,0,0,0,2
"276","Largo, FL","Largo","FL",2018,27.9088,-82.7711,0,0,0,0,0,0,0,0,0,0,0,0,0,0,1,0,0,0,0,0,0,0,0,0,0,0,0,0,0,0,0,0,0,0,0,1
"277","Port St. Lucie, FL","Port St. Lucie","FL",2018,27.2796,-80.3883,0,0,0,0,0,1,0,0,0,0,2,0,0,0,0,0,0,0,0,0,0,0,0,0,0,0,0,0,0,0,0,0,0,0,0,3
"278","Woodstock, GA","Woodstock","GA",2018,34.1026,-84.509,0,0,0,0,0,1,0,0,0,0,0,0,0,0,0,0,0,0,0,0,0,0,0,0,0,0,0,1,0,0,0,0,0,0,0,2
"279","Columbus, GA","Columbus","GA",2018,32.51,-84.8771,0,0,0,0,0,0,0,0,0,0,1,0,0,0,1,0,0,0,0,0,0,0,0,0,1,0,0,1,0,0,0,0,0,2,0,6
"280","Conyers, GA","Conyers","GA",2018,33.6645,-83.9966,0,0,0,0,0,1,0,0,0,0,0,0,0,0,0,0,0,0,0,0,0,0,0,0,0,0,0,0,0,0,0,0,0,0,0,1
"281","Atlanta, GA","Atlanta","GA",2018,33.7627,-84.4224,0,0,0,0,0,0,0,0,0,0,0,0,0,0,0,1,0,0,0,0,0,0,0,1,0,0,0,0,0,0,0,0,0,0,0,2
"282","Honolulu, HI","Honolulu","HI",2018,21.3294,-157.846,0,0,6,0,0,13,0,0,0,0,8,0,0,0,1,0,0,1,0,1,0,0,0,0,0,1,0,0,0,0,0,0,1,12,0,44
"283","Dubuque, IA","Dubuque","IA",2018,42.5008,-90.7067,0,0,0,0,0,2,0,0,0,0,0,0,0,0,0,0,0,0,0,0,0,0,0,0,0,0,0,0,0,0,0,0,0,0,0,2
"284","Iowa City, IA","Iowa City","IA",2018,41.6559,-91.5303,0,0,0,0,0,1,0,0,0,0,0,0,0,0,0,1,0,0,0,0,0,0,0,0,0,0,0,0,0,0,0,0,0,0,0,2
"285","Mount Vernon, IA","Mount Vernon","IA",2018,41.923,-91.4244,0,0,0,0,0,0,0,0,0,0,1,0,0,0,0,0,0,0,0,0,0,0,0,0,0,0,0,0,0,0,0,0,0,0,0,1
"286","Pella, IA","Pella","IA",2018,41.4051,-92.9177,0,0,0,0,0,0,0,0,0,0,1,0,0,0,0,0,0,0,0,0,0,0,0,0,0,0,0,0,0,0,0,0,0,0,0,1
"287","Le Mars, IA","Le Mars","IA",2018,42.7809,-96.1743,0,0,0,0,0,0,0,0,0,0,0,0,0,0,0,0,0,0,0,0,0,0,0,0,0,0,0,0,0,1,0,0,0,0,0,1
"288","Des Moines, IA","Des Moines","IA",2018,41.5725,-93.6105,0,0,0,0,0,0,0,0,0,0,0,0,0,0,0,1,0,0,0,0,0,0,0,0,0,0,0,0,0,0,0,0,0,0,0,1
"289","Urbandale, IA","Urbandale","IA",2018,41.639,-93.7813,0,0,0,0,0,0,0,0,0,0,0,0,0,0,0,0,0,0,0,0,0,1,0,0,0,0,0,0,0,0,0,0,0,0,0,1
"290","Pleasant Hill, IA","Pleasant Hill","IA",2018,41.5868,-93.4952,0,0,0,0,0,0,0,0,0,0,0,0,0,0,0,0,0,0,0,0,0,1,0,0,0,0,0,0,0,0,0,0,0,0,0,1
"291","Grinnell, IA","Grinnell","IA",2018,41.7361,-92.7244,0,0,0,0,0,0,0,0,0,0,0,0,0,0,1,0,0,0,0,0,0,0,0,0,0,0,0,0,0,0,0,0,0,0,0,1
"292","Fort Dodge, IA","Fort Dodge","IA",2018,42.5098,-94.1751,0,0,0,0,0,0,0,0,0,0,0,0,0,0,0,0,0,0,0,0,0,0,0,0,0,0,0,1,0,0,0,0,0,0,0,1
"293","Boise, ID","Boise","ID",2018,43.6007,-116.2312,0,0,0,0,0,1,0,0,0,0,0,0,0,0,2,0,0,0,0,0,0,0,0,0,0,0,0,0,1,0,0,0,0,0,0,4
"294","Meridian, ID","Meridian","ID",2018,43.6112,-116.3968,0,0,0,0,0,1,0,0,0,0,0,0,0,0,0,0,0,0,0,0,0,0,0,0,0,0,0,0,0,0,0,0,0,0,0,1
"295","Chubbuck, ID","Chubbuck","ID",2018,42.9261,-112.4624,0,0,0,0,0,1,0,0,0,0,0,0,0,0,0,0,0,0,0,0,0,0,0,0,0,0,0,0,0,0,0,0,0,0,0,1
"296","Pocatello, ID","Pocatello","ID",2018,42.8724,-112.4646,0,0,0,0,0,0,0,0,0,0,0,0,0,0,0,1,0,0,0,0,0,0,0,0,0,0,0,0,0,0,0,0,0,0,0,1
"297","Ketchum, ID","Ketchum","ID",2018,43.6868,-114.3731,0,0,0,0,0,0,0,0,0,0,0,0,0,0,1,0,0,0,0,0,0,0,0,0,0,0,0,0,0,0,0,0,0,0,0,1
"298","Idaho Falls, ID","Idaho Falls","ID",2018,43.4872,-112.0362,0,0,0,0,0,0,0,0,0,0,0,0,0,0,0,0,0,0,0,0,0,0,0,0,0,0,0,1,0,0,1,0,0,0,0,2
"299","Nampa, ID","Nampa","ID",2018,43.5845,-116.5631,0,0,0,0,0,1,0,0,0,0,0,0,0,0,0,0,0,0,0,0,0,0,0,0,0,0,0,1,0,0,0,0,0,0,0,2
"300","Jerome, ID","Jerome","ID",2018,42.7183,-114.5159,0,0,0,0,0,1,0,0,0,0,0,0,0,0,0,0,0,0,0,0,0,0,0,0,0,0,0,0,0,0,0,0,0,0,0,1
"301","Coeur d'Alene, ID","Coeur d'Alene","ID",2018,47.7041,-116.7935,0,0,0,0,0,1,0,0,0,0,1,0,0,0,0,0,0,0,0,0,0,0,0,1,0,0,0,0,0,0,0,0,0,0,0,3
"302","Lewiston, ID","Lewiston","ID",2018,46.3934,-116.9934,1,0,0,0,0,1,0,0,0,0,0,0,0,0,0,0,0,0,0,0,0,0,0,0,0,0,0,0,0,0,0,0,0,0,0,2
"303","Twin Falls, ID","Twin Falls","ID",2018,42.5645,-114.4615,0,0,0,0,0,0,0,0,0,0,0,0,0,0,0,1,0,2,0,0,0,0,0,0,0,0,0,0,0,0,0,0,0,0,0,3
"304","Filer, ID","Filer","ID",2018,42.5679,-114.6115,0,0,0,0,0,1,0,0,0,0,0,0,0,0,0,0,0,0,0,0,0,0,0,0,0,0,0,0,0,0,0,0,0,0,0,1
"305","Quincy, IL","Quincy","IL",2018,39.9335,-91.3799,0,0,0,0,0,0,0,0,0,0,0,0,0,0,0,0,0,0,0,0,0,0,0,0,0,0,0,0,0,0,0,0,0,1,0,1
"306","Champaign, IL","Champaign","IL",2018,40.1144,-88.2735,0,0,0,0,0,0,0,0,0,0,0,0,0,0,0,0,0,0,0,1,0,0,0,0,0,0,0,0,0,0,0,0,0,0,0,1
"307","Bartlett, IL","Bartlett","IL",2018,41.9803,-88.2069,0,0,0,0,0,1,0,0,0,0,0,0,0,0,0,0,0,0,0,0,0,0,0,0,0,0,0,0,0,0,0,0,0,0,0,1
"308","Calumet City, IL","Calumet City","IL",2018,41.6134,-87.5505,0,0,0,0,0,1,0,0,0,0,0,0,0,0,0,0,0,0,0,0,0,0,0,0,0,0,0,0,0,0,0,0,0,0,0,1
"309","Willow Springs, IL","Willow Springs","IL",2018,41.7332,-87.8859,0,1,0,0,0,0,0,0,0,0,0,0,0,0,0,0,0,0,0,0,0,0,0,0,0,0,0,0,0,0,0,0,0,0,0,1
"310","Countryside, IL","Countryside","IL",2018,41.7741,-87.8752,0,0,0,0,0,0,0,0,0,0,0,0,0,0,1,0,0,0,0,0,0,0,0,0,0,0,0,0,0,0,0,0,0,0,0,1
"311","Evanston, IL","Evanston","IL",2018,42.0463,-87.6942,0,0,0,0,0,0,0,0,0,0,1,0,0,0,0,0,0,0,0,0,0,0,0,0,0,0,0,0,0,0,0,0,0,0,0,1
"312","Harwood Heights, IL","Harwood Heights","IL",2018,41.9663,-87.8057,0,0,0,0,0,0,0,0,0,0,0,0,0,0,0,0,0,0,0,0,0,0,0,0,0,0,0,1,0,0,0,0,0,0,0,1
"313","Skokie, IL","Skokie","IL",2018,42.0359,-87.74,0,0,0,0,0,0,0,0,0,0,0,0,0,0,0,0,0,1,0,0,0,0,0,0,0,0,0,0,0,0,0,0,0,0,0,1
"314","Orland Park, IL","Orland Park","IL",2018,41.6074,-87.8619,0,0,0,0,0,0,0,0,0,0,0,0,0,0,0,0,0,0,0,0,0,0,0,0,0,0,0,0,4,0,0,0,0,0,0,4
"315","Rolling Meadows, IL","Rolling Meadows","IL",2018,42.0747,-88.0252,0,0,0,0,0,0,0,0,0,0,0,0,0,0,0,0,0,0,0,0,0,0,0,0,0,0,1,0,0,0,0,0,0,0,0,1
"316","DeKalb, IL","DeKalb","IL",2018,41.9313,-88.7482,0,0,0,0,0,3,0,0,0,0,0,0,0,0,0,0,0,0,0,0,0,0,0,0,0,0,0,0,0,0,0,0,0,0,0,3
"317","Addison, IL","Addison","IL",2018,41.9314,-88.0085,0,0,0,0,0,0,0,0,0,0,0,0,0,0,1,0,0,0,0,0,0,0,0,0,0,0,0,0,0,0,0,0,0,0,0,1
"318","Watseka, IL","Watseka","IL",2018,40.7751,-87.7304,0,0,0,0,0,0,0,0,0,0,0,0,0,0,0,0,0,0,0,0,0,0,0,0,0,0,0,0,0,0,0,0,1,0,0,1
"319","Aurora, IL","Aurora","IL",2018,41.7637,-88.2901,0,0,0,0,0,0,0,0,0,0,0,0,0,0,1,0,0,0,0,0,0,0,0,0,0,0,0,0,0,0,0,0,0,0,0,1
"320","Elgin, IL","Elgin","IL",2018,42.0385,-88.3229,0,0,0,0,0,0,0,0,0,0,1,0,0,0,0,1,0,0,0,0,0,0,0,0,0,0,0,0,0,0,0,0,0,0,0,2
"321","Herscher, IL","Herscher","IL",2018,41.0493,-88.1006,0,0,0,0,0,1,0,0,0,0,0,0,0,0,0,0,0,0,0,0,0,0,0,0,0,0,0,0,0,0,0,0,0,0,0,1
"322","Galesburg, IL","Galesburg","IL",2018,40.9506,-90.3763,0,0,0,0,0,1,0,0,0,0,0,0,0,0,0,0,0,0,0,0,0,0,0,0,0,0,0,0,0,0,0,0,0,1,0,2
"323","Marengo, IL","Marengo","IL",2018,42.2312,-88.6153,0,0,0,0,0,0,0,0,0,0,0,0,0,0,0,0,0,0,0,1,0,0,0,0,0,0,0,0,0,0,0,0,0,0,0,1
"324","Normal, IL","Normal","IL",2018,40.5218,-88.9881,0,0,0,0,0,2,0,0,0,0,0,0,0,0,0,0,0,0,0,0,0,0,0,0,0,0,0,0,0,0,0,0,0,0,0,2
"325","Peoria, IL","Peoria","IL",2018,40.752,-89.6153,0,0,0,0,0,0,0,0,0,0,0,0,0,0,1,0,0,0,0,0,0,0,0,0,0,0,0,0,0,0,0,0,1,0,0,2
"326","East Peoria, IL","East Peoria","IL",2018,40.6734,-89.5419,0,0,0,0,0,0,0,0,0,0,0,0,0,0,0,0,0,0,0,0,0,0,0,0,0,0,0,1,0,0,0,0,0,0,0,1
"327","Crete, IL","Crete","IL",2018,41.44,-87.6236,0,0,0,0,0,1,0,0,0,0,0,0,0,0,0,0,0,0,0,0,0,0,0,0,0,0,0,0,0,0,0,0,0,0,0,1
"328","Joliet, IL","Joliet","IL",2018,41.5189,-88.1499,0,0,0,0,0,0,0,0,0,0,0,0,0,0,0,0,0,3,0,0,0,0,0,0,0,0,0,0,0,0,0,0,0,0,0,3
"329","Plainfield, IL","Plainfield","IL",2018,41.6206,-88.2252,0,0,0,0,0,1,0,0,0,0,0,0,0,0,0,0,0,0,0,0,0,0,0,0,0,0,0,0,0,0,0,0,1,0,0,2
"330","Romeoville, IL","Romeoville","IL",2018,41.6318,-88.0996,0,0,0,0,0,0,0,0,0,0,0,0,0,0,1,0,0,0,0,0,0,0,0,0,0,0,0,0,0,0,0,0,0,0,0,1
"331","Rockford, IL","Rockford","IL",2018,42.2597,-89.0641,0,0,0,0,0,2,0,0,0,0,1,0,0,0,0,0,0,0,0,0,0,0,0,0,0,0,0,0,0,0,0,0,0,1,0,4
"332","Chicago, IL","Chicago","IL",2018,41.8373,-87.6862,0,1,2,0,0,18,0,0,0,0,12,0,0,0,7,4,0,5,1,0,0,0,0,0,0,0,0,2,1,0,0,0,3,6,0,62
"333","Fort Wayne, IN","Fort Wayne","IN",2018,41.0886,-85.1437,0,0,0,0,0,0,1,0,0,0,0,0,0,0,0,0,0,0,0,0,0,0,0,0,0,0,0,0,0,0,0,0,0,0,0,1
"334","Columbus, IN","Columbus","IN",2018,39.2093,-85.9183,0,0,0,0,0,2,0,0,0,0,0,0,0,0,0,0,0,0,0,0,0,0,0,0,0,0,0,0,0,0,0,0,0,0,0,2
"335","Greenfield, IN","Greenfield","IN",2018,39.7936,-85.7737,0,0,0,0,0,0,0,0,0,0,0,0,0,0,0,0,0,0,0,0,0,0,0,0,0,0,0,0,0,0,0,0,0,1,0,1
"336","Plainfield, IN","Plainfield","IN",2018,39.6953,-86.3717,0,0,0,0,0,0,0,0,0,0,0,0,0,0,0,0,0,0,0,0,0,0,0,0,0,0,0,0,0,0,0,0,0,2,0,2
"337","Hammond, IN","Hammond","IN",2018,41.6169,-87.491,0,0,0,0,0,3,0,0,0,0,0,0,0,0,0,0,0,0,0,0,0,0,0,0,0,0,0,0,0,0,0,0,0,1,0,4
"338","Lawrence, IN","Lawrence","IN",2018,39.8674,-85.9905,0,0,0,0,0,2,0,0,0,0,1,0,0,0,1,0,0,0,0,0,0,0,0,0,0,0,0,0,0,0,0,0,0,0,0,4
"339","Bloomington, IN","Bloomington","IN",2018,39.1637,-86.5257,0,0,1,0,0,5,0,0,0,0,0,0,0,0,0,0,0,1,0,0,0,0,0,0,0,0,0,0,0,0,0,0,0,0,0,7
"340","South Bend, IN","South Bend","IN",2018,41.6767,-86.2696,0,0,0,0,0,9,0,0,0,0,2,0,0,0,1,0,0,1,0,0,0,1,0,1,0,0,0,0,1,0,0,0,0,7,0,23
"341","Lafayette, IN","Lafayette","IN",2018,40.399,-86.8594,0,0,0,0,0,1,0,0,0,0,0,0,0,0,0,0,0,0,0,0,0,0,0,0,0,0,0,0,0,0,0,0,0,4,0,5
"342","Terre Haute, IN","Terre Haute","IN",2018,39.4654,-87.3763,0,0,0,0,1,2,0,3,0,0,0,0,0,0,1,0,0,0,0,0,0,0,0,0,0,0,0,0,0,0,0,0,0,2,0,9
"343","Indianapolis, IN","Indianapolis","IN",2018,39.7771,-86.1458,0,0,0,0,0,9,0,0,0,0,2,0,0,0,7,1,0,2,2,0,2,0,0,1,1,0,0,2,1,0,0,0,0,1,0,31
"344","Iola, KS","Iola","KS",2018,37.9274,-95.4006,0,0,0,0,0,1,0,0,0,0,0,0,0,0,0,0,0,0,0,0,0,0,0,0,0,0,0,0,0,0,0,0,0,0,0,1
"345","Great Bend, KS","Great Bend","KS",2018,38.3593,-98.8016,0,0,0,0,0,0,0,0,0,0,0,0,0,0,1,0,0,0,0,1,0,0,0,0,0,0,0,0,0,0,0,0,0,0,0,2
"346","Andover, KS","Andover","KS",2018,37.6869,-97.1354,0,0,1,0,0,0,0,0,0,0,0,0,0,0,0,0,0,0,0,0,0,0,0,0,0,0,0,0,0,0,0,0,0,0,0,1
"347","Burlington, KS","Burlington","KS",2018,38.1932,-95.7452,0,0,0,0,0,0,0,0,0,0,0,0,0,0,0,0,0,0,0,1,0,0,0,0,0,0,0,0,0,0,0,0,0,0,0,1
"348","Winfield, KS","Winfield","KS",2018,37.274,-96.9499,0,0,0,0,0,0,0,0,3,0,0,0,0,0,0,0,0,0,0,0,0,0,0,0,0,0,0,0,0,0,0,0,0,0,0,3
"349","Pittsburg, KS","Pittsburg","KS",2018,37.4129,-94.6984,0,0,0,0,0,0,0,0,0,0,0,0,0,0,0,0,0,0,0,0,0,0,0,0,0,0,0,0,1,0,0,0,0,0,0,1
"350","Garden City, KS","Garden City","KS",2018,37.9754,-100.8529,0,0,0,0,0,0,0,0,0,0,0,0,0,0,0,0,0,0,0,0,0,0,0,0,0,0,0,0,0,1,0,0,0,0,0,1
"351","Dodge City, KS","Dodge City","KS",2018,37.761,-100.0183,0,0,0,0,0,0,0,0,1,0,0,0,0,0,1,0,0,0,0,0,0,0,0,0,0,0,0,0,0,0,0,0,0,0,0,2
"352","Ottawa, KS","Ottawa","KS",2018,38.6,-95.2642,0,0,0,0,0,0,0,0,0,0,1,0,0,0,0,0,0,0,0,0,0,0,0,0,0,0,0,0,0,0,0,0,0,1,0,2
"353","Olathe, KS","Olathe","KS",2018,38.8832,-94.8198,0,0,0,0,0,1,0,0,0,0,0,0,0,0,0,0,0,0,0,0,0,0,0,0,0,0,0,0,0,0,0,0,0,0,0,1
"354","Overland Park, KS","Overland Park","KS",2018,38.887,-94.687,0,0,0,0,0,1,0,0,0,0,0,0,0,0,1,0,0,1,0,0,0,0,0,0,0,0,0,0,0,0,0,0,0,0,0,3
"355","Shawnee, KS","Shawnee","KS",2018,39.0158,-94.8076,0,0,0,0,0,0,0,0,0,0,0,0,0,0,1,0,0,0,0,0,0,0,0,0,0,0,0,0,0,0,0,0,0,0,0,1
"356","Chanute, KS","Chanute","KS",2018,37.6695,-95.4621,0,0,0,0,0,0,0,0,0,0,0,0,0,0,0,0,0,0,0,0,0,0,0,0,0,0,0,0,0,0,0,0,0,1,0,1
"357","Hutchinson, KS","Hutchinson","KS",2018,38.0671,-97.9081,0,0,0,0,0,2,0,0,0,0,0,0,0,0,1,0,0,0,0,0,0,1,0,0,0,0,0,1,0,0,0,0,0,0,0,5
"358","Lyons, KS","Lyons","KS",2018,38.3462,-98.2045,0,0,0,0,0,1,0,0,0,0,0,0,0,0,0,0,0,0,0,0,0,0,0,0,0,0,0,0,0,0,0,0,0,0,0,1
"359","Salina, KS","Salina","KS",2018,38.8137,-97.6143,0,0,0,0,0,2,0,0,0,0,1,0,0,0,0,0,0,0,0,0,0,1,0,0,0,0,0,0,0,0,0,0,0,0,0,4
"360","Wichita, KS","Wichita","KS",2018,37.6896,-97.3442,0,0,0,0,0,2,0,0,0,0,0,0,0,0,0,0,0,0,0,0,0,0,0,0,0,0,0,0,2,0,0,0,0,0,0,4
"361","Valley Center, KS","Valley Center","KS",2018,37.8333,-97.3645,0,0,0,0,0,0,0,0,0,0,0,0,0,0,0,0,0,0,0,0,0,2,0,0,0,0,0,0,0,0,0,0,0,0,0,2
"362","Bel Aire, KS","Bel Aire","KS",2018,37.7749,-97.2457,0,0,0,0,0,0,0,0,1,0,0,0,0,0,0,0,0,0,0,0,0,0,0,0,0,0,0,0,0,0,0,0,0,0,0,1
"363","Liberal, KS","Liberal","KS",2018,37.0466,-100.9295,0,0,0,0,0,0,0,0,1,0,0,0,0,0,1,0,0,0,1,0,0,1,0,0,0,0,0,0,0,0,0,0,0,1,0,5
"364","Topeka, KS","Topeka","KS",2018,39.0346,-95.6955,0,0,0,0,0,1,0,0,0,0,0,0,0,0,1,0,0,0,0,0,0,0,0,0,1,0,0,0,0,0,0,0,0,0,0,3
"365","Goodland, KS","Goodland","KS",2018,39.3489,-101.7142,0,0,0,0,0,0,0,0,0,0,0,0,0,0,0,1,0,0,0,0,0,0,0,0,0,0,0,0,0,0,0,0,0,0,0,1
"366","Wellington, KS","Wellington","KS",2018,37.2622,-97.4282,0,0,0,0,0,0,0,0,3,0,0,0,0,0,0,0,0,0,0,0,0,0,0,0,0,0,0,0,0,0,0,0,0,0,0,3
"367","Columbia, KY","Columbia","KY",2018,37.1036,-85.3074,1,0,0,0,0,0,0,0,0,0,0,0,0,0,0,0,0,0,0,0,0,0,0,0,0,0,0,0,0,0,0,0,0,0,0,1
"368","Lawrenceburg, KY","Lawrenceburg","KY",2018,38.0332,-84.9032,1,0,0,0,0,0,0,0,0,0,0,0,0,0,0,0,0,0,0,0,0,0,0,0,0,0,0,0,0,0,0,0,0,0,0,1
"369","Glasgow, KY","Glasgow","KY",2018,37.0047,-85.9263,1,0,0,0,0,1,0,0,0,0,0,0,0,0,0,0,0,0,0,0,0,0,0,0,0,0,0,0,0,0,0,0,0,0,0,2
"370","Owingsville, KY","Owingsville","KY",2018,38.1364,-83.7603,1,0,0,0,0,0,0,0,0,0,0,0,0,0,0,0,0,0,0,0,0,0,0,0,0,0,0,0,0,0,0,0,0,0,0,1
"371","Florence, KY","Florence","KY",2018,38.99,-84.647,2,0,0,0,0,1,0,0,0,0,0,0,0,0,0,0,0,0,0,0,0,0,0,0,0,0,0,1,0,0,0,0,0,0,0,4
"372","Paris, KY","Paris","KY",2018,38.2016,-84.2719,0,0,0,0,0,1,0,0,0,0,0,0,0,0,1,0,0,0,0,1,0,0,0,0,0,0,0,0,0,0,0,0,0,0,0,3
"373","Ashland, KY","Ashland","KY",2018,38.4592,-82.6449,0,0,0,0,0,1,0,0,0,0,1,0,0,0,1,0,0,0,0,0,0,0,0,0,0,0,0,0,0,0,0,0,0,0,0,3
"374","Danville, KY","Danville","KY",2018,37.6418,-84.7777,1,0,0,0,0,1,0,0,0,0,0,0,0,0,0,0,0,0,0,0,0,0,0,0,0,0,0,0,0,0,0,0,0,0,0,2
"375","Mount Washington, KY","Mount Washington","KY",2018,38.043,-85.5549,0,0,0,0,0,1,0,0,0,0,0,0,0,0,0,0,0,0,0,0,0,0,0,0,0,0,0,0,0,0,0,0,0,0,0,1
"376","Murray, KY","Murray","KY",2018,36.6146,-88.3206,0,0,0,0,0,0,0,0,0,0,0,0,0,0,0,0,0,0,0,0,0,0,0,0,0,0,0,0,1,0,0,0,0,0,0,1
"377","Fort Thomas, KY","Fort Thomas","KY",2018,39.0802,-84.4518,1,0,0,0,0,0,0,0,0,0,0,0,0,0,0,0,0,0,0,0,0,0,0,0,0,0,0,0,0,0,0,0,0,0,0,1
"378","Highland Heights, KY","Highland Heights","KY",2018,39.0355,-84.4567,0,0,0,0,0,0,0,0,0,0,0,0,0,0,0,0,0,0,0,0,0,0,0,0,0,0,0,0,0,0,0,0,0,1,0,1
"379","Newport, KY","Newport","KY",2018,39.0855,-84.4868,0,0,0,0,0,0,0,0,0,0,0,0,0,0,0,0,0,0,0,0,0,0,0,0,0,0,0,0,0,0,0,0,0,1,0,1
"380","Hopkinsville, KY","Hopkinsville","KY",2018,36.8386,-87.4776,2,0,0,0,0,0,0,0,0,0,0,0,0,0,0,0,0,0,0,1,0,0,0,0,0,0,0,0,0,0,0,0,0,0,0,3
"381","Oak Grove, KY","Oak Grove","KY",2018,36.6686,-87.4216,1,0,0,0,0,0,0,0,0,0,0,0,1,0,0,0,0,0,0,1,0,0,0,0,0,0,0,0,0,0,0,0,0,0,0,3
"382","Winchester, KY","Winchester","KY",2018,38.0017,-84.1907,0,0,0,0,0,0,0,0,0,0,1,0,0,0,0,0,0,0,0,0,0,0,0,0,0,0,0,0,0,0,0,0,0,0,0,1
"383","Owensboro, KY","Owensboro","KY",2018,37.7574,-87.1173,3,0,0,0,0,1,0,0,0,0,0,0,0,0,0,0,0,0,0,0,0,0,0,0,0,0,0,0,0,0,0,0,0,0,0,4
"384","Lexington, KY","Lexington","KY",2018,38.0423,-84.4587,3,0,0,0,0,8,0,0,2,1,0,0,0,0,2,0,0,0,2,4,0,0,0,2,0,0,0,4,1,0,0,0,0,3,0,32
"385","Frankfort, KY","Frankfort","KY",2018,38.1924,-84.8643,4,0,0,0,0,1,0,0,0,0,0,0,0,0,0,0,0,0,0,0,0,0,0,0,0,0,0,0,0,0,0,0,0,1,0,6
"386","Fulton, KY","Fulton","KY",2018,36.5145,-88.8819,0,0,0,0,0,1,0,0,0,0,0,0,0,0,0,0,0,0,0,0,0,0,0,0,0,0,0,0,0,0,0,0,0,0,0,1
"387","Lancaster, KY","Lancaster","KY",2018,37.6152,-84.5817,0,0,0,0,0,1,0,0,0,0,0,0,0,0,0,0,0,0,0,0,0,0,0,0,0,0,0,0,0,0,0,0,0,0,0,1
"388","Elizabethtown, KY","Elizabethtown","KY",2018,37.703,-85.877,0,0,0,0,0,0,0,0,0,0,0,0,0,0,0,0,0,0,0,0,0,0,0,0,0,0,0,1,0,0,0,0,0,0,0,1
"389","Radcliff, KY","Radcliff","KY",2018,37.8206,-85.9366,1,0,0,0,0,1,0,0,0,0,0,0,0,0,0,0,0,0,0,0,0,0,0,0,0,0,0,0,0,0,0,0,0,1,0,3
"390","Vine Grove, KY","Vine Grove","KY",2018,37.8133,-85.9828,0,0,0,0,0,0,0,0,0,0,0,0,0,0,0,0,0,0,0,0,0,0,0,0,0,0,0,1,0,0,0,0,0,0,0,1
"391","Cynthiana, KY","Cynthiana","KY",2018,38.386,-84.2993,1,0,0,0,0,0,0,0,0,0,0,0,0,0,0,0,0,0,0,0,0,1,0,0,0,0,0,0,0,0,0,0,0,0,0,2
"392","Henderson, KY","Henderson","KY",2018,37.8397,-87.5798,2,0,0,0,0,0,0,0,0,0,0,0,0,0,0,0,0,0,0,0,0,0,0,0,0,0,0,0,0,0,0,0,0,0,0,2
"393","Eminence, KY","Eminence","KY",2018,38.3637,-85.1778,0,0,0,0,0,1,0,0,0,0,0,0,0,0,0,0,0,0,0,0,0,0,0,0,0,0,0,0,0,0,0,0,0,0,0,1
"394","Dawson Springs, KY","Dawson Springs","KY",2018,37.174,-87.688,1,0,0,0,0,1,0,0,0,0,0,0,0,0,0,0,0,0,0,0,0,0,0,0,0,0,0,0,0,0,0,0,0,0,0,2
"395","St. Matthews, KY","St. Matthews","KY",2018,38.2497,-85.6383,0,0,0,0,0,1,0,0,0,0,0,0,0,0,0,0,0,0,0,0,0,0,0,0,0,0,0,0,0,0,0,0,0,0,0,1
"396","Jeffersontown, KY","Jeffersontown","KY",2018,38.2048,-85.5701,1,1,0,0,0,0,0,0,0,0,0,0,0,0,0,0,0,1,0,0,0,0,0,0,0,0,0,0,0,0,0,0,0,1,0,4
"397","Nicholasville, KY","Nicholasville","KY",2018,37.8902,-84.5669,2,0,0,0,0,2,0,0,0,0,0,0,0,0,0,0,0,0,0,0,0,0,0,0,0,0,0,0,0,0,0,0,0,0,0,4
"398","Wilmore, KY","Wilmore","KY",2018,37.8786,-84.6545,0,0,0,0,0,1,0,0,0,0,0,0,0,0,0,0,0,0,0,1,0,0,0,0,0,0,0,0,0,0,0,0,0,0,0,2
"399","Covington, KY","Covington","KY",2018,39.0334,-84.5166,1,0,0,0,0,2,0,0,0,0,0,0,0,0,0,0,0,0,0,1,0,0,0,0,1,0,0,1,0,0,0,0,1,0,0,7
"400","Erlanger, KY","Erlanger","KY",2018,39.0109,-84.5864,0,0,0,0,0,1,0,0,0,0,0,0,0,0,0,0,0,0,0,0,0,0,0,0,0,0,0,0,0,0,0,0,0,0,0,1
"401","Fort Mitchell, KY","Fort Mitchell","KY",2018,39.0459,-84.5563,0,0,0,0,0,1,0,0,0,0,0,0,0,0,0,0,0,0,0,0,0,0,0,0,0,0,0,0,0,0,0,0,0,0,0,1
"402","Independence, KY","Independence","KY",2018,38.951,-84.5492,0,0,0,0,0,1,0,0,0,0,0,0,0,0,0,0,0,0,0,0,0,0,0,0,0,0,0,0,0,0,0,0,0,0,0,1
"403","London, KY","London","KY",2018,37.1175,-84.0767,0,0,0,0,0,0,0,0,0,0,0,0,0,0,1,0,0,0,0,1,0,0,0,0,0,0,0,0,0,0,0,0,0,0,0,2
"404","Russellville, KY","Russellville","KY",2018,36.8393,-86.895,1,0,0,0,0,0,0,0,0,0,0,0,0,0,0,0,0,0,0,0,0,0,0,0,0,0,0,0,0,0,0,0,0,0,0,1
"405","Paducah, KY","Paducah","KY",2018,37.0711,-88.6436,3,0,0,0,0,1,0,0,0,0,0,0,0,0,0,0,0,0,0,1,0,0,0,0,1,0,0,0,0,0,0,0,0,0,0,6
"406","Berea, KY","Berea","KY",2018,37.5904,-84.2898,1,0,0,0,0,0,0,0,0,0,0,0,0,0,0,0,0,0,0,0,0,0,0,0,0,0,0,0,0,0,0,0,0,0,0,1
"407","Richmond, KY","Richmond","KY",2018,37.7306,-84.2926,1,1,0,0,0,0,0,0,0,0,0,0,0,0,1,0,0,0,0,0,0,0,0,0,0,0,0,0,0,0,0,0,0,0,0,3
"408","Lebanon, KY","Lebanon","KY",2018,37.5689,-85.2578,1,0,0,0,0,0,0,0,0,0,0,0,0,0,0,0,0,0,0,0,0,0,0,0,0,0,0,0,0,0,0,0,0,0,0,1
"409","Calvert City, KY","Calvert City","KY",2018,37.0295,-88.3603,1,0,0,0,0,0,0,0,0,0,0,0,0,0,0,0,0,0,0,0,0,0,0,0,0,0,0,0,0,0,0,0,0,0,0,1
"410","Maysville, KY","Maysville","KY",2018,38.6454,-83.7911,1,0,0,0,0,0,0,0,0,0,0,0,0,0,0,0,0,0,0,0,0,0,0,0,0,0,0,0,0,0,0,0,0,0,0,1
"411","Tompkinsville, KY","Tompkinsville","KY",2018,36.7012,-85.6927,1,0,0,0,0,0,0,0,0,0,0,0,0,0,0,0,0,0,0,0,0,0,0,0,0,0,0,0,0,0,0,0,0,0,0,1
"412","La Grange, KY","La Grange","KY",2018,38.3987,-85.375,0,0,0,0,0,0,0,0,0,0,0,0,0,0,0,0,0,0,0,0,1,0,0,0,0,0,0,0,0,0,0,0,0,0,0,1
"413","Falmouth, KY","Falmouth","KY",2018,38.6708,-84.331,0,0,0,0,0,0,0,0,0,0,0,0,0,0,0,0,0,0,0,1,0,0,0,0,0,0,0,0,0,0,0,0,0,0,0,1
"414","Russell Springs, KY","Russell Springs","KY",2018,37.0509,-85.0774,1,0,0,0,0,0,0,0,0,0,0,0,0,0,0,0,0,0,0,0,0,0,0,0,0,0,0,0,0,0,0,0,0,0,0,1
"415","Georgetown, KY","Georgetown","KY",2018,38.2249,-84.5482,3,0,0,0,0,4,0,0,0,0,0,0,0,0,1,0,0,0,0,0,0,0,0,0,0,0,0,0,0,0,0,0,0,0,0,8
"416","Shelbyville, KY","Shelbyville","KY",2018,38.2069,-85.2293,0,0,0,0,0,0,0,0,0,0,0,0,0,0,1,0,0,0,0,0,0,0,0,0,0,0,0,0,0,0,0,0,0,0,0,1
"417","Taylorsville, KY","Taylorsville","KY",2018,38.0368,-85.3336,0,0,0,0,0,1,0,0,0,0,0,0,0,0,0,0,0,0,0,0,0,0,0,0,0,0,0,0,0,0,0,0,0,0,0,1
"418","Campbellsville, KY","Campbellsville","KY",2018,37.3446,-85.3511,1,1,0,0,0,0,0,0,0,0,0,0,0,0,0,0,0,0,0,0,0,0,0,0,0,0,0,0,0,0,0,0,0,0,0,2
"419","Cadiz, KY","Cadiz","KY",2018,36.8695,-87.8048,0,0,0,0,0,0,0,0,0,1,0,0,0,0,0,0,0,0,0,0,0,0,0,0,0,0,0,0,0,0,0,0,0,0,0,1
"420","Uniontown, KY","Uniontown","KY",2018,37.7732,-87.9318,1,0,0,0,0,0,0,0,0,0,0,0,0,0,0,0,0,0,0,0,0,0,0,0,0,0,0,0,0,0,0,0,0,0,0,1
"421","Bowling Green, KY","Bowling Green","KY",2018,36.9719,-86.4373,3,2,0,0,0,2,0,0,0,2,0,0,0,0,0,0,1,0,0,0,0,0,0,0,0,0,1,1,0,0,0,0,0,0,0,12
"422","Corbin, KY","Corbin","KY",2018,36.9321,-84.1004,1,0,0,0,0,0,0,0,0,0,0,0,0,0,0,0,0,0,0,0,0,0,0,0,0,0,0,0,0,0,0,0,0,0,0,1
"423","Williamsburg, KY","Williamsburg","KY",2018,36.7392,-84.1647,1,0,0,0,0,0,0,0,0,0,0,0,0,0,0,0,0,0,0,0,0,0,0,0,0,0,0,0,0,0,0,0,0,0,0,1
"424","Versailles, KY","Versailles","KY",2018,38.0487,-84.7259,1,0,0,0,0,0,0,0,0,0,0,0,0,0,1,0,0,0,0,0,0,0,0,0,0,0,0,0,1,0,0,0,0,0,0,3
"425","Gonzales, LA","Gonzales","LA",2018,30.2132,-90.9234,0,0,0,0,0,0,0,0,0,0,0,0,0,0,1,0,0,0,0,0,0,0,0,0,0,0,0,0,0,0,0,0,0,0,0,1
"426","Westlake, LA","Westlake","LA",2018,30.2606,-93.2638,0,0,0,0,0,1,0,0,0,0,0,0,0,0,0,0,0,0,0,0,0,0,0,0,0,0,0,0,0,0,0,0,0,0,0,1
"427","Tallulah, LA","Tallulah","LA",2018,32.4067,-91.1915,0,0,0,0,0,1,0,0,0,0,0,0,0,0,0,0,0,0,0,0,0,0,0,0,0,0,0,0,0,0,0,0,0,0,0,1
"428","Monroe, LA","Monroe","LA",2018,32.5183,-92.0774,0,0,0,0,0,0,0,0,0,0,0,0,0,0,0,0,0,0,0,0,0,0,0,1,2,0,0,0,0,0,1,0,0,0,0,4
"429","Franklinton, LA","Franklinton","LA",2018,30.8479,-90.1459,0,0,0,0,0,1,0,0,0,0,0,0,0,0,0,0,0,0,0,0,0,0,0,0,0,0,0,0,0,0,0,0,0,0,0,1
"430","New Orleans, LA","New Orleans","LA",2018,30.0687,-89.9288,0,0,0,0,0,1,0,0,0,0,0,0,0,0,0,0,0,0,0,0,0,0,0,0,0,0,0,0,0,0,0,0,0,1,0,2
"431","Barnstable, MA","Barnstable","MA",2018,41.6722,-70.3599,0,0,0,0,0,1,0,0,0,0,0,0,0,0,0,0,0,2,0,0,0,0,0,0,0,0,0,0,0,0,0,0,0,0,0,3
"432","Pittsfield, MA","Pittsfield","MA",2018,42.4517,-73.2605,0,0,0,0,0,2,0,0,0,0,0,0,0,0,0,0,0,0,0,0,0,0,0,0,0,0,0,0,0,0,0,0,0,0,0,2
"433","Haverhill, MA","Haverhill","MA",2018,42.7838,-71.0871,0,0,0,0,0,4,1,0,0,0,1,0,0,0,0,0,0,0,0,0,0,1,0,0,0,0,0,2,0,0,0,0,1,0,0,10
"434","Lawrence, MA","Lawrence","MA",2018,42.7003,-71.1626,0,0,0,0,0,0,0,0,0,0,1,0,0,0,0,0,0,0,0,0,0,0,0,0,0,0,0,0,0,0,0,0,0,0,0,1
"435","Lynn, MA","Lynn","MA",2018,42.4779,-70.9663,0,0,0,0,0,0,0,0,0,0,0,1,0,0,0,0,0,1,0,0,0,0,0,0,0,0,0,0,0,0,0,0,0,0,0,2
"436","Salem, MA","Salem","MA",2018,42.5129,-70.902,0,0,0,0,0,0,0,0,0,0,0,0,0,0,1,0,0,1,1,0,0,0,0,0,0,0,0,0,0,0,0,0,0,1,0,4
"437","Chicopee, MA","Chicopee","MA",2018,42.1764,-72.5719,0,0,0,0,0,1,0,0,0,0,0,0,0,0,0,0,0,0,0,0,0,0,0,0,0,0,0,0,0,0,0,0,0,0,0,1
"438","Palmer, MA","Palmer","MA",2018,42.1888,-72.3112,0,0,0,0,0,1,0,0,0,0,0,0,0,0,0,0,0,0,0,0,0,0,0,0,0,0,0,0,0,0,0,0,0,0,0,1
"439","Springfield, MA","Springfield","MA",2018,42.1155,-72.5395,0,0,0,0,0,2,0,0,0,0,3,0,0,0,0,0,0,0,0,0,0,0,0,0,0,0,0,3,1,0,0,0,0,1,0,10
"440","Westfield, MA","Westfield","MA",2018,42.1382,-72.7561,0,0,0,0,0,1,0,0,0,0,0,0,0,0,0,0,0,0,0,0,0,0,0,0,0,0,0,0,0,0,0,0,0,0,0,1
"441","Amherst, MA","Amherst","MA",2018,42.3645,-72.5069,0,0,0,0,0,0,0,0,0,0,0,0,0,0,0,0,0,0,0,0,0,0,0,0,0,0,1,0,0,0,0,0,0,2,0,3
"442","Easthampton, MA","Easthampton","MA",2018,42.2652,-72.672,0,0,0,0,0,1,0,0,0,0,0,0,0,0,0,0,0,0,1,0,0,0,0,0,0,0,0,0,0,0,0,0,0,0,0,2
"443","Northampton, MA","Northampton","MA",2018,42.3266,-72.6745,0,0,0,0,0,0,0,0,0,0,0,0,0,0,1,0,0,0,0,0,0,0,0,0,0,0,0,0,0,0,0,0,0,0,0,1
"444","Cambridge, MA","Cambridge","MA",2018,42.3759,-71.1185,0,0,1,0,0,4,0,0,0,1,0,0,0,0,0,2,0,5,0,0,0,0,0,0,0,0,0,1,0,1,0,0,1,0,0,16
"445","Everett, MA","Everett","MA",2018,42.4064,-71.0545,0,0,0,0,0,0,0,0,0,0,0,0,0,0,0,0,0,1,0,0,0,0,0,0,0,0,0,0,0,0,0,0,0,0,0,1
"446","Framingham, MA","Framingham","MA",2018,42.3085,-71.4368,0,0,0,0,0,3,0,0,0,0,0,0,0,0,0,0,0,3,0,0,0,0,0,0,0,0,0,0,0,0,0,0,0,0,0,6
"447","Malden, MA","Malden","MA",2018,42.4305,-71.0576,0,0,0,0,0,0,0,0,0,0,0,0,0,0,0,0,0,0,0,0,0,0,0,0,0,0,0,1,0,0,0,0,0,0,0,1
"448","Medford, MA","Medford","MA",2018,42.4234,-71.1087,0,0,0,0,0,0,0,0,0,0,0,0,0,0,0,0,0,0,0,0,0,0,0,0,0,0,0,0,0,1,0,0,0,0,0,1
"449","Melrose, MA","Melrose","MA",2018,42.4556,-71.059,0,0,0,0,0,1,0,0,0,0,1,0,0,0,0,0,0,0,0,0,0,0,0,0,0,0,0,0,0,0,0,0,0,0,0,2
"450","Newton, MA","Newton","MA",2018,42.3316,-71.2085,0,0,0,0,0,2,0,0,0,0,2,0,0,0,0,0,0,3,0,0,0,0,0,0,0,0,0,0,0,0,0,0,0,0,0,7
"451","Somerville, MA","Somerville","MA",2018,42.3908,-71.1013,0,0,0,0,0,2,1,0,0,1,2,0,0,0,2,0,0,0,0,0,0,0,0,0,0,0,0,1,0,0,0,0,0,0,0,9
"452","Waltham, MA","Waltham","MA",2018,42.3889,-71.2423,0,0,0,0,0,1,0,0,1,0,1,0,0,0,1,0,0,1,0,0,0,0,0,0,0,0,0,1,0,0,0,0,0,1,0,7
"453","Braintree, MA","Braintree","MA",2018,42.2039,-71.0022,0,0,0,0,0,1,0,0,0,0,0,0,0,0,0,2,0,0,0,0,0,0,0,0,0,0,0,0,0,0,0,0,0,0,0,3
"454","Quincy, MA","Quincy","MA",2018,42.2516,-71.0183,0,0,3,0,0,1,0,0,0,0,0,0,0,0,0,0,0,0,0,0,0,0,0,0,0,0,0,1,0,0,0,0,0,0,0,5
"455","Brockton, MA","Brockton","MA",2018,42.0821,-71.0242,0,0,0,0,0,0,0,0,0,0,0,0,0,0,0,0,0,1,0,0,0,0,0,0,0,0,0,0,0,0,0,0,0,1,0,2
"456","Boston, MA","Boston","MA",2018,42.3188,-71.0846,0,3,5,0,0,49,0,1,0,0,30,0,0,0,12,8,0,7,5,2,0,0,0,1,0,0,1,6,0,0,0,0,2,13,0,145
"457","Revere, MA","Revere","MA",2018,42.4192,-71.0036,0,0,0,0,0,2,0,0,0,0,2,0,0,0,0,0,0,0,0,0,0,0,0,0,0,0,0,0,0,0,0,0,0,0,0,4
"458","Winthrop, MA","Winthrop","MA",2018,42.3751,-70.9847,0,0,0,0,0,0,0,0,0,0,0,0,0,0,0,0,0,1,0,0,0,0,0,0,0,0,0,0,0,0,0,0,0,0,0,1
"459","Worcester, MA","Worcester","MA",2018,42.2705,-71.8079,0,0,0,0,0,0,0,0,0,0,1,0,0,0,0,0,0,0,0,0,0,0,0,0,0,0,0,0,0,0,0,0,0,0,0,1
"460","Denton, MD","Denton","MD",2018,38.8769,-75.8265,0,0,0,0,0,1,0,0,0,0,0,0,0,0,0,0,0,0,0,0,0,0,0,0,0,0,0,0,0,0,0,0,0,0,0,1
"461","Taneytown, MD","Taneytown","MD",2018,39.657,-77.1683,0,0,1,0,0,0,0,0,0,0,0,0,0,0,0,0,0,0,0,0,0,0,0,0,0,0,0,0,0,0,0,0,0,0,0,1
"462","Takoma Park, MD","Takoma Park","MD",2018,38.981,-77.0028,0,0,0,0,0,0,0,0,0,0,0,0,0,0,0,0,0,0,1,0,0,0,0,0,0,0,0,0,0,0,0,0,0,0,0,1
"463","Laurel, MD","Laurel","MD",2018,39.095,-76.8622,0,0,0,0,0,0,0,0,0,0,0,0,0,0,0,0,0,1,0,0,0,0,0,0,0,0,0,0,0,0,0,0,0,0,0,1
"464","Riverdale Park, MD","Riverdale Park","MD",2018,38.9642,-76.9266,0,0,0,0,0,1,0,0,0,0,0,0,0,0,0,0,0,0,0,0,0,0,0,0,0,0,0,0,0,0,0,0,0,0,0,1
"465","Baltimore, MD","Baltimore","MD",2018,39.3051,-76.6144,0,0,0,0,0,0,0,0,0,0,1,0,0,0,0,0,0,0,0,0,0,0,0,0,0,0,0,0,0,0,0,0,0,0,0,1
"466","Lewiston, ME","Lewiston","ME",2018,44.0915,-70.1681,0,0,0,0,0,0,0,0,0,0,1,0,0,0,0,0,0,0,0,0,0,0,0,0,0,0,0,0,0,0,0,0,0,0,0,1
"467","Portland, ME","Portland","ME",2018,43.6773,-70.2715,0,0,1,0,0,5,0,0,0,0,3,0,0,0,0,1,0,0,0,0,0,0,0,0,0,0,0,1,0,1,0,0,0,0,0,12
"468","South Portland, ME","South Portland","ME",2018,43.631,-70.2895,0,0,0,0,0,0,0,0,0,0,0,0,0,0,0,0,0,0,0,0,0,0,0,0,0,0,0,0,0,0,0,0,0,1,0,1
"469","Eastport, ME","Eastport","ME",2018,44.9137,-67.0183,0,0,0,0,0,1,0,0,0,0,0,0,0,0,0,0,0,0,0,0,0,0,0,0,0,0,0,0,0,0,0,0,0,0,0,1
"470","Biddeford, ME","Biddeford","ME",2018,43.4674,-70.4512,0,0,0,0,0,1,0,0,0,0,0,0,0,0,0,0,0,0,0,0,0,0,0,0,0,0,0,0,0,0,0,0,0,0,0,1
"471","Saco, ME","Saco","ME",2018,43.539,-70.4624,0,0,0,0,0,1,0,0,0,0,1,0,0,0,0,0,0,0,0,0,0,0,0,0,0,0,0,0,0,0,0,0,0,0,0,2
"472","Wayland, MI","Wayland","MI",2018,42.6725,-85.6408,0,0,0,0,0,0,0,0,0,0,0,0,0,0,0,0,0,0,0,1,0,0,0,0,0,0,0,0,0,0,0,0,0,0,0,1
"473","Bay City, MI","Bay City","MI",2018,43.5903,-83.8886,0,0,0,0,0,0,0,0,0,0,1,0,0,0,0,0,0,0,0,1,0,0,0,0,0,0,0,0,0,0,0,0,0,0,0,2
"474","St. Joseph, MI","St. Joseph","MI",2018,42.0967,-86.485,0,0,0,0,0,1,0,0,0,0,0,0,0,0,0,0,0,0,0,0,0,0,0,0,0,0,0,0,0,0,0,0,0,0,0,1
"475","Bronson, MI","Bronson","MI",2018,41.8727,-85.1914,0,0,0,0,0,0,0,0,0,0,0,0,0,0,0,0,0,0,0,0,0,0,0,0,0,0,0,0,1,0,0,0,0,0,0,1
"476","Battle Creek, MI","Battle Creek","MI",2018,42.2986,-85.2296,0,0,0,0,0,0,0,0,0,0,2,0,0,0,0,0,0,0,0,0,0,0,0,0,0,0,0,0,0,0,0,0,0,0,0,2
"477","Marshall, MI","Marshall","MI",2018,42.2617,-84.9597,0,0,0,0,0,0,0,0,0,0,1,0,0,0,0,0,0,0,0,0,0,0,0,0,0,0,0,0,0,0,0,0,0,0,0,1
"478","Dowagiac, MI","Dowagiac","MI",2018,41.9834,-86.1126,0,0,0,0,0,0,0,0,0,0,0,0,0,0,1,0,0,0,0,0,0,0,0,0,0,0,0,0,0,0,0,0,0,0,0,1
"479","Sault Ste. Marie, MI","Sault Ste. Marie","MI",2018,46.4817,-84.3723,0,0,0,0,0,1,0,0,0,0,0,0,0,0,0,0,0,0,0,0,0,0,0,0,0,0,0,0,0,0,0,0,0,0,0,1
"480","Clare, MI","Clare","MI",2018,43.8258,-84.763,0,0,0,0,0,0,0,0,0,0,0,0,0,0,0,0,0,0,0,0,0,0,0,0,0,0,0,0,0,0,0,0,0,1,0,1
"481","Escanaba, MI","Escanaba","MI",2018,45.7477,-87.09,0,0,0,0,0,2,0,0,0,0,1,0,0,0,1,0,0,0,0,0,0,0,0,0,0,0,0,0,0,0,0,0,0,1,0,5
"482","Gladstone, MI","Gladstone","MI",2018,45.8522,-87.0356,0,0,0,0,0,0,0,0,0,0,0,0,0,0,0,0,0,0,0,0,0,0,0,0,0,0,0,0,0,0,0,0,0,1,0,1
"483","Kingsford, MI","Kingsford","MI",2018,45.8061,-88.0994,0,0,0,0,0,0,0,0,0,0,0,0,0,0,0,0,0,0,0,0,0,0,0,0,0,0,0,0,0,1,0,0,0,0,0,1
"484","Flint, MI","Flint","MI",2018,43.0235,-83.6922,0,0,0,0,0,6,0,0,0,0,0,0,0,0,0,0,0,0,0,0,1,0,0,0,0,0,0,0,0,0,0,0,0,3,0,10
"485","Burton, MI","Burton","MI",2018,42.9974,-83.6175,1,0,0,0,0,0,0,0,0,0,0,0,0,0,0,0,0,0,0,1,0,0,0,0,0,1,0,0,0,0,0,0,0,2,0,5
"486","Traverse City, MI","Traverse City","MI",2018,44.7547,-85.6035,0,0,1,0,0,0,0,0,0,0,0,0,0,0,1,0,0,0,0,1,0,0,0,0,0,0,0,0,0,0,0,0,0,0,0,3
"487","Litchfield, MI","Litchfield","MI",2018,42.041,-84.7567,0,0,0,0,0,0,0,0,0,0,0,0,0,0,0,0,0,0,0,0,0,0,0,0,0,0,0,0,0,0,0,0,0,1,0,1
"488","Bad Axe, MI","Bad Axe","MI",2018,43.8036,-82.9981,0,0,0,0,0,0,0,0,0,0,0,0,0,0,0,0,0,0,0,0,0,0,0,0,0,0,0,0,0,0,0,0,0,1,0,1
"489","Elkton, MI","Elkton","MI",2018,43.8183,-83.1809,0,0,0,0,0,0,0,0,0,0,0,0,0,1,0,0,0,0,0,0,0,0,0,0,0,0,0,0,0,0,0,0,0,0,0,1
"490","Harbor Beach, MI","Harbor Beach","MI",2018,43.8456,-82.6554,0,0,0,0,0,0,0,0,0,0,0,0,0,0,0,0,0,0,1,0,0,0,0,0,0,0,0,0,0,0,0,0,0,0,0,1
"491","East Lansing, MI","East Lansing","MI",2018,42.748,-84.4835,0,0,0,0,0,0,0,0,0,0,1,0,0,0,0,0,0,0,0,0,0,0,0,0,1,0,0,0,0,0,0,0,0,0,0,2
"492","Lansing, MI","Lansing","MI",2018,42.7142,-84.5601,0,0,0,0,0,1,0,0,0,0,0,0,0,0,0,0,0,0,0,0,0,0,0,0,0,0,0,0,0,0,0,0,0,1,0,2
"493","Williamston, MI","Williamston","MI",2018,42.6835,-84.2836,0,0,0,0,0,0,0,0,0,0,0,0,0,0,0,0,0,0,0,0,0,0,0,0,0,0,0,0,0,0,0,0,0,1,0,1
"494","Belding, MI","Belding","MI",2018,43.0968,-85.2331,0,0,0,0,0,0,0,0,0,0,1,0,0,0,0,0,0,0,0,0,0,0,0,0,0,0,0,0,0,0,0,0,0,0,0,1
"495","Kalamazoo, MI","Kalamazoo","MI",2018,42.2749,-85.5882,0,1,0,0,0,0,0,0,0,0,1,0,0,0,0,0,0,0,0,0,0,0,0,0,0,0,0,0,0,0,0,0,0,0,0,2
"496","Grand Rapids, MI","Grand Rapids","MI",2018,42.962,-85.6562,0,0,0,0,0,4,0,0,0,0,0,0,0,0,0,0,0,0,0,1,0,0,0,0,0,0,0,0,0,0,0,0,0,1,0,6
"497","Grandville, MI","Grandville","MI",2018,42.9003,-85.7564,0,0,0,0,0,0,0,0,0,0,0,0,0,0,1,0,0,0,0,0,0,0,0,0,0,0,0,0,0,0,0,0,0,0,0,1
"498","Lowell, MI","Lowell","MI",2018,42.9351,-85.3457,0,0,0,0,0,1,0,0,0,0,0,0,0,0,0,0,0,0,0,0,0,0,0,0,0,0,0,0,0,0,0,0,0,0,0,1
"499","Walker, MI","Walker","MI",2018,42.9853,-85.7446,0,0,0,0,0,1,0,0,0,0,0,0,0,0,0,0,0,0,0,1,0,0,0,0,0,0,0,0,0,0,0,0,0,0,0,2
"500","Wyoming, MI","Wyoming","MI",2018,42.8909,-85.7066,0,0,0,0,0,0,0,0,0,0,0,0,0,0,2,0,0,1,0,0,0,1,0,0,0,0,0,0,1,0,1,0,0,3,0,9
"501","Kentwood, MI","Kentwood","MI",2018,42.8852,-85.5925,0,0,0,0,0,1,0,0,0,0,0,0,0,0,0,0,0,0,0,0,0,0,0,0,0,0,0,0,0,0,0,0,0,0,0,1
"502","Tecumseh, MI","Tecumseh","MI",2018,42.0065,-83.945,0,0,0,0,0,1,0,0,0,0,0,0,0,0,0,0,0,0,0,0,0,0,0,0,0,0,0,0,0,0,0,0,0,0,0,1
"503","Brighton, MI","Brighton","MI",2018,42.5298,-83.7847,0,0,0,0,0,0,0,0,0,0,1,0,0,0,0,0,0,0,0,0,0,0,0,0,0,0,0,0,0,0,0,0,0,0,0,1
"504","Fowlerville, MI","Fowlerville","MI",2018,42.6596,-84.0743,0,0,0,0,0,0,0,0,0,0,0,0,0,0,0,0,0,0,0,0,2,0,0,0,0,0,0,0,0,0,0,0,0,0,0,2
"505","Pinckney, MI","Pinckney","MI",2018,42.4543,-83.9457,0,0,0,0,0,0,0,0,0,0,0,0,0,0,0,0,0,0,0,0,0,1,0,0,0,0,0,0,0,0,0,0,0,0,0,1
"506","Mackinac Island, MI","Mackinac Island","MI",2018,45.8593,-84.6253,0,0,0,0,0,1,0,0,0,0,0,0,0,0,0,0,0,0,0,0,0,0,0,0,0,0,0,0,0,0,0,0,0,0,0,1
"507","Richmond, MI","Richmond","MI",2018,42.8094,-82.7518,0,0,0,0,0,0,0,0,0,0,0,0,0,0,0,0,0,0,0,0,0,0,0,0,0,0,0,0,0,1,0,0,0,0,0,1
"508","Roseville, MI","Roseville","MI",2018,42.5074,-82.9369,0,0,0,0,0,3,0,0,0,0,1,0,0,0,0,1,0,0,0,0,0,0,0,0,0,0,0,0,0,0,0,0,0,1,0,6
"509","St. Clair Shores, MI","St. Clair Shores","MI",2018,42.4921,-82.8957,0,0,0,0,0,4,0,0,0,0,0,0,0,0,1,0,0,0,0,0,0,0,0,0,0,0,0,0,0,0,0,0,0,0,0,5
"510","Warren, MI","Warren","MI",2018,42.4934,-83.027,0,1,0,0,0,5,0,0,0,0,0,0,0,0,0,1,0,1,0,0,0,0,0,1,0,0,0,0,0,0,0,0,0,2,0,11
"511","Marquette, MI","Marquette","MI",2018,46.544,-87.4082,0,0,0,0,0,1,0,0,0,0,0,0,0,0,0,0,0,0,0,0,0,0,0,0,0,0,0,0,0,0,0,0,0,0,0,1
"512","Ludington, MI","Ludington","MI",2018,43.9573,-86.4434,0,0,0,0,0,1,0,0,0,0,0,0,0,0,0,0,0,0,0,0,0,0,0,0,0,0,0,0,0,0,0,0,0,0,0,1
"513","Menominee, MI","Menominee","MI",2018,45.122,-87.6234,0,0,0,0,0,0,0,0,0,0,0,0,0,0,0,0,0,0,0,0,0,1,0,0,0,0,0,0,0,0,0,0,0,0,0,1
"514","Midland, MI","Midland","MI",2018,43.6241,-84.2319,0,0,0,0,0,1,0,1,0,0,0,0,0,0,0,0,0,0,0,0,0,0,0,0,0,0,1,0,0,0,0,0,0,1,0,4
"515","Monroe, MI","Monroe","MI",2018,41.9154,-83.385,0,0,0,0,0,1,0,0,0,0,0,0,0,0,0,0,0,0,0,0,0,0,0,0,0,0,0,0,0,0,0,0,0,0,0,1
"516","Muskegon, MI","Muskegon","MI",2018,43.2281,-86.2563,0,0,0,0,0,0,0,0,0,0,0,0,0,0,0,0,0,0,0,0,0,1,0,0,0,0,0,0,0,0,0,0,0,0,0,1
"517","Norton Shores, MI","Norton Shores","MI",2018,43.1621,-86.2519,0,0,0,0,0,1,0,0,0,0,0,0,0,0,0,0,0,0,0,0,0,0,0,0,0,0,0,0,0,0,0,0,0,0,0,1
"518","Grant, MI","Grant","MI",2018,43.3348,-85.8094,0,0,0,0,0,0,0,0,0,0,0,0,0,0,1,0,0,0,0,0,0,0,0,0,0,0,0,0,0,0,0,0,0,0,0,1
"519","Pontiac, MI","Pontiac","MI",2018,42.6493,-83.2878,0,0,0,0,0,1,0,0,0,0,0,0,0,0,0,0,0,0,0,0,0,0,0,0,0,0,0,0,0,0,0,0,0,0,0,1
"520","Farmington Hills, MI","Farmington Hills","MI",2018,42.486,-83.3771,0,0,0,0,0,0,0,0,0,0,0,0,0,0,0,1,0,0,0,0,0,0,0,0,0,0,0,0,0,0,0,0,0,0,0,1
"521","Ferndale, MI","Ferndale","MI",2018,42.4592,-83.1314,0,0,0,0,0,0,0,0,0,0,0,0,0,0,0,0,0,0,0,1,0,0,0,0,0,0,0,0,0,0,0,0,0,0,0,1
"522","Huntington Woods, MI","Huntington Woods","MI",2018,42.4816,-83.1685,0,0,0,0,0,1,0,0,0,0,0,0,0,0,0,0,0,0,0,0,0,0,0,0,0,0,0,0,0,0,0,0,0,1,0,2
"523","Madison Heights, MI","Madison Heights","MI",2018,42.5073,-83.1034,0,0,0,0,0,1,0,0,0,0,0,0,0,0,0,0,0,0,0,0,0,0,0,0,0,0,0,0,0,0,0,0,0,0,0,1
"524","Oak Park, MI","Oak Park","MI",2018,42.4649,-83.1824,0,0,0,0,0,0,0,0,0,0,1,0,0,0,0,0,0,0,0,0,0,0,0,0,0,0,0,0,0,0,0,0,0,0,0,1
"525","Royal Oak, MI","Royal Oak","MI",2018,42.5084,-83.1539,0,0,0,0,0,0,0,0,0,0,0,0,0,0,0,0,0,1,0,0,0,0,0,0,0,0,0,1,0,0,0,0,0,0,0,2
"526","Southfield, MI","Southfield","MI",2018,42.4765,-83.2605,0,0,0,0,1,2,0,0,0,0,0,0,0,0,0,0,0,0,0,0,0,0,0,0,0,0,0,0,0,0,0,0,0,0,0,3
"527","Troy, MI","Troy","MI",2018,42.5818,-83.1457,0,0,0,0,0,4,0,0,0,0,0,0,0,0,0,0,0,0,0,0,0,0,0,1,0,0,0,0,0,0,0,0,0,1,0,6
"528","Auburn Hills, MI","Auburn Hills","MI",2018,42.6735,-83.2447,0,0,0,0,0,1,0,0,0,0,0,0,0,0,0,0,0,0,0,0,0,0,0,0,0,0,0,0,0,0,0,0,0,0,0,1
"529","Shelby, MI","Shelby","MI",2018,43.6114,-86.3648,0,0,0,0,0,0,0,0,0,0,0,0,0,0,0,0,0,0,0,0,0,1,0,0,0,0,0,0,0,0,0,0,0,0,0,1
"530","Holland, MI","Holland","MI",2018,42.7677,-86.0985,0,0,0,0,0,0,0,0,0,0,0,0,0,0,1,0,0,0,0,0,0,0,0,0,0,0,0,0,1,0,0,1,0,0,0,3
"531","Frankenmuth, MI","Frankenmuth","MI",2018,43.3321,-83.7395,0,0,0,0,0,0,0,0,0,0,0,0,0,0,0,0,0,0,0,0,0,0,0,0,0,0,0,0,0,0,0,0,0,1,0,1
"532","Saginaw, MI","Saginaw","MI",2018,43.4199,-83.9501,0,0,0,0,0,0,0,0,0,0,1,0,0,0,0,0,0,0,0,0,0,0,0,0,0,0,0,0,0,0,0,0,0,1,0,2
"533","Port Huron, MI","Port Huron","MI",2018,42.9822,-82.4387,0,0,0,0,0,1,0,0,0,0,0,0,0,0,0,0,0,0,0,0,0,0,0,0,0,0,0,0,0,0,0,0,0,0,0,1
"534","Sturgis, MI","Sturgis","MI",2018,41.7995,-85.4182,0,0,0,0,0,1,0,0,0,0,0,0,0,0,0,0,0,0,0,0,0,0,0,0,0,0,0,0,0,0,0,0,0,0,0,1
"535","Owosso, MI","Owosso","MI",2018,42.9955,-84.176,0,0,0,0,0,0,0,0,0,0,0,0,0,0,0,0,0,0,0,1,0,0,0,0,0,0,0,0,0,0,0,0,0,0,0,1
"536","South Haven, MI","South Haven","MI",2018,42.4011,-86.2677,0,0,0,0,0,0,0,0,0,0,0,0,0,0,0,0,0,0,0,0,0,0,0,0,0,1,0,0,0,0,0,0,0,1,0,2
"537","Ann Arbor, MI","Ann Arbor","MI",2018,42.2755,-83.7312,0,0,1,0,0,0,0,0,0,0,1,0,0,0,0,4,0,1,0,0,0,0,0,0,0,0,0,2,0,0,0,0,0,0,0,9
"538","Chelsea, MI","Chelsea","MI",2018,42.3132,-84.0188,0,0,0,0,0,1,0,0,0,0,0,0,0,0,0,0,0,0,0,0,0,0,0,0,0,0,0,0,0,0,0,0,0,0,0,1
"539","Milan, MI","Milan","MI",2018,42.0816,-83.6853,0,0,0,0,0,1,0,0,0,0,0,0,0,0,0,0,0,1,0,0,0,0,0,0,0,0,0,0,0,0,0,0,0,0,0,2
"540","Ypsilanti, MI","Ypsilanti","MI",2018,42.2437,-83.6205,0,0,0,0,0,2,0,0,0,0,0,0,0,0,0,0,0,0,0,0,0,0,0,0,0,0,0,1,0,0,0,0,0,0,0,3
"541","Allen Park, MI","Allen Park","MI",2018,42.2595,-83.2107,0,0,0,0,0,0,0,0,0,0,0,0,0,0,0,0,0,0,0,0,0,0,0,0,0,0,0,1,0,0,0,0,0,0,0,1
"542","Dearborn, MI","Dearborn","MI",2018,42.3127,-83.2129,0,0,0,0,0,0,0,0,0,0,0,0,0,0,0,1,0,0,0,0,0,0,0,0,0,0,0,1,0,0,0,0,0,0,0,2
"543","Dearborn Heights, MI","Dearborn Heights","MI",2018,42.3164,-83.2769,0,0,0,0,0,1,0,0,0,0,0,0,0,0,0,1,0,0,0,0,0,1,0,0,0,0,0,0,0,0,0,0,0,0,0,3
"544","Detroit, MI","Detroit","MI",2018,42.3834,-83.1024,0,4,0,0,0,15,0,0,0,0,14,0,0,0,0,0,0,1,4,0,2,3,0,0,0,0,0,3,0,2,0,0,0,6,0,54
"545","Flat Rock, MI","Flat Rock","MI",2018,42.0991,-83.2716,0,0,0,0,0,0,0,0,1,0,0,0,0,0,0,0,0,0,0,0,0,0,0,0,0,0,0,0,0,0,0,0,0,0,0,1
"546","Garden City, MI","Garden City","MI",2018,42.3244,-83.3412,0,2,0,0,0,0,0,0,0,0,0,0,0,0,0,0,0,0,0,0,0,0,0,0,0,0,0,0,0,0,0,0,0,0,0,2
"547","Hamtramck, MI","Hamtramck","MI",2018,42.3954,-83.056,0,0,0,0,0,0,0,0,0,0,0,0,0,0,0,1,0,0,0,0,0,0,0,0,0,0,0,0,0,0,0,0,0,0,0,1
"548","Harper Woods, MI","Harper Woods","MI",2018,42.439,-82.9292,0,0,0,0,0,0,0,0,0,0,0,0,0,0,0,0,0,0,0,0,0,0,0,1,0,0,0,0,0,0,0,0,0,0,0,1
"549","Highland Park, MI","Highland Park","MI",2018,42.4052,-83.0977,0,0,0,0,0,1,0,0,0,1,1,0,0,0,0,0,0,0,0,0,2,0,0,0,0,2,0,0,0,0,0,1,0,2,0,10
"550","Inkster, MI","Inkster","MI",2018,42.2935,-83.3148,0,1,0,0,0,0,0,0,0,0,0,0,0,0,0,0,0,0,0,1,0,0,0,0,0,0,0,0,0,0,0,0,0,0,0,2
"551","Livonia, MI","Livonia","MI",2018,42.3972,-83.3733,0,0,0,0,0,0,0,0,0,0,1,0,0,0,0,0,0,0,0,0,0,0,0,0,0,0,0,0,0,0,0,0,0,0,0,1
"552","Melvindale, MI","Melvindale","MI",2018,42.2802,-83.1782,0,0,0,0,0,0,0,0,0,0,0,0,0,0,0,0,0,0,0,0,0,0,0,1,0,0,0,0,0,0,0,0,0,0,0,1
"553","Romulus, MI","Romulus","MI",2018,42.2237,-83.366,0,0,0,0,0,4,0,0,0,0,0,0,0,0,0,0,0,0,0,0,0,0,0,0,0,0,0,0,0,0,0,0,0,1,0,5
"554","Southgate, MI","Southgate","MI",2018,42.2047,-83.2057,0,0,0,0,0,2,0,0,0,0,1,0,0,0,0,0,0,0,0,0,0,0,0,0,0,0,0,0,0,0,0,0,0,0,0,3
"555","Trenton, MI","Trenton","MI",2018,42.1394,-83.1929,0,0,0,0,0,1,0,0,0,0,0,0,0,0,0,0,0,0,0,0,0,0,0,0,0,0,0,0,0,0,0,0,0,0,0,1
"556","Wayne, MI","Wayne","MI",2018,42.2774,-83.3877,0,0,0,0,0,1,0,0,0,0,0,0,0,0,0,0,0,0,0,0,0,0,0,0,0,0,0,0,0,0,0,0,0,0,0,1
"557","Wyandotte, MI","Wyandotte","MI",2018,42.2113,-83.1558,0,0,0,0,0,0,0,0,0,0,0,0,0,0,0,0,0,0,0,0,0,0,0,0,0,0,1,0,0,0,0,0,0,0,0,1
"558","Cadillac, MI","Cadillac","MI",2018,44.2494,-85.4163,0,0,0,0,0,0,0,0,0,0,0,0,0,0,0,0,0,1,0,1,0,0,0,0,1,0,0,0,0,0,0,0,0,0,0,3
"559","Blaine, MN","Blaine","MN",2018,45.1696,-93.2077,0,0,0,0,0,0,0,0,0,0,0,0,0,0,1,0,0,0,0,0,0,0,0,0,0,0,0,0,0,0,0,0,0,0,0,1
"560","Columbia Heights, MN","Columbia Heights","MN",2018,45.0484,-93.2472,0,0,0,0,0,1,0,0,0,0,0,0,0,0,0,0,0,0,0,0,0,0,0,0,0,0,0,0,0,0,0,0,0,0,0,1
"561","Coon Rapids, MN","Coon Rapids","MN",2018,45.1755,-93.3095,0,1,0,0,1,1,0,0,0,0,0,0,0,0,0,0,0,0,0,0,0,0,0,0,0,0,0,0,0,0,0,0,0,0,0,3
"562","Detroit Lakes, MN","Detroit Lakes","MN",2018,46.806,-95.8449,0,0,0,0,0,0,0,0,0,0,0,0,0,0,0,0,0,0,0,0,0,1,0,0,0,0,0,0,0,0,0,1,0,0,0,2
"563","Mankato, MN","Mankato","MN",2018,44.1712,-93.9773,0,0,0,0,0,3,0,0,0,0,0,0,0,0,1,1,0,0,0,0,0,0,0,1,0,0,0,1,0,0,0,0,0,1,0,8
"564","North Branch, MN","North Branch","MN",2018,45.5137,-92.9601,0,0,0,0,0,1,0,0,0,0,0,0,0,0,0,0,0,0,0,0,0,0,0,0,0,0,0,0,0,0,0,0,0,0,0,1
"565","Moorhead, MN","Moorhead","MN",2018,46.8673,-96.7461,0,0,0,0,0,1,0,0,0,0,0,0,0,0,0,0,0,0,0,1,0,0,0,0,0,0,0,1,0,0,0,0,0,0,0,3
"566","Mendota Heights, MN","Mendota Heights","MN",2018,44.8815,-93.14,0,0,0,0,0,0,0,0,0,0,0,0,0,0,0,0,0,1,0,0,0,0,0,0,0,0,0,0,0,0,0,0,0,0,0,1
"567","West St. Paul, MN","West St. Paul","MN",2018,44.9018,-93.0858,0,0,0,0,0,1,0,0,0,0,0,0,0,0,0,0,0,0,0,0,0,0,0,0,0,0,0,0,0,0,0,0,0,0,0,1
"568","Inver Grove Heights, MN","Inver Grove Heights","MN",2018,44.8247,-93.0596,0,0,0,0,0,1,0,0,0,0,0,0,0,0,0,0,0,0,0,0,0,0,0,0,0,0,0,0,0,0,0,0,0,0,0,1
"569","Lakeville, MN","Lakeville","MN",2018,44.6774,-93.252,0,0,0,0,0,4,0,0,0,0,1,0,0,0,0,0,0,1,0,0,0,0,0,0,0,0,0,0,0,0,0,0,0,0,0,6
"570","Winnebago, MN","Winnebago","MN",2018,43.7644,-94.1703,0,0,0,0,0,0,0,0,0,0,0,0,0,0,0,0,0,0,0,0,0,0,0,0,0,0,0,0,0,1,0,0,0,0,0,1
"571","Red Wing, MN","Red Wing","MN",2018,44.5816,-92.6036,0,0,0,0,0,2,0,0,0,0,0,0,0,0,0,0,0,0,0,0,0,0,0,0,0,0,0,0,0,0,0,0,0,0,0,2
"572","Brooklyn Park, MN","Brooklyn Park","MN",2018,45.1112,-93.3505,0,1,1,0,0,0,0,0,0,0,1,0,0,0,0,0,0,0,0,0,0,0,0,0,0,0,0,0,0,0,1,0,0,0,0,4
"573","Minneapolis, MN","Minneapolis","MN",2018,44.9635,-93.2678,0,0,0,0,2,5,0,0,0,0,12,0,0,0,1,0,0,0,0,0,0,0,0,0,0,0,0,1,1,0,0,0,0,1,0,23
"574","Minnetonka, MN","Minnetonka","MN",2018,44.9322,-93.4598,0,0,0,0,0,0,0,0,0,0,0,0,0,0,0,1,0,0,0,0,0,0,0,0,0,0,0,0,0,0,0,0,0,0,0,1
"575","St. Louis Park, MN","St. Louis Park","MN",2018,44.9488,-93.3649,1,1,0,0,0,1,0,0,0,0,0,0,0,0,1,0,0,1,0,0,0,0,0,0,0,0,0,0,0,0,0,0,0,0,0,5
"576","Eden Prairie, MN","Eden Prairie","MN",2018,44.8488,-93.4595,0,0,0,0,0,0,0,0,0,0,0,0,0,0,0,0,0,1,0,0,0,0,0,0,0,0,0,0,0,0,0,0,0,0,0,1
"577","Maple Grove, MN","Maple Grove","MN",2018,45.1089,-93.4626,0,0,0,0,0,1,0,0,0,0,0,0,0,0,0,0,0,0,0,0,0,0,0,0,0,0,0,0,0,0,0,0,0,0,0,1
"578","Fairmont, MN","Fairmont","MN",2018,43.6441,-94.4621,0,0,0,0,0,1,0,0,0,0,0,0,0,0,0,0,0,0,0,0,0,0,0,0,0,0,0,0,0,0,0,0,0,0,0,1
"579","St. Peter, MN","St. Peter","MN",2018,44.3296,-93.9659,0,0,0,0,0,0,0,0,0,0,0,0,0,0,0,0,0,0,2,0,0,0,0,0,0,0,0,0,0,0,0,0,0,0,0,2
"580","Rochester, MN","Rochester","MN",2018,44.0151,-92.4778,0,0,0,0,0,2,0,0,0,0,0,0,0,0,0,3,0,0,0,0,0,0,0,0,0,0,0,0,0,0,0,0,0,0,0,5
"581","Fergus Falls, MN","Fergus Falls","MN",2018,46.2853,-96.076,0,0,0,0,0,0,0,0,0,0,0,0,0,0,1,0,0,0,0,0,0,0,0,0,0,0,0,0,0,0,0,0,0,0,0,1
"582","Maplewood, MN","Maplewood","MN",2018,44.9842,-93.0247,0,0,0,0,0,1,0,1,0,0,1,0,0,0,0,1,0,0,0,0,0,0,0,0,0,0,0,0,0,0,0,0,0,1,0,5
"583","Mounds View, MN","Mounds View","MN",2018,45.1071,-93.2076,0,0,0,0,0,0,0,0,0,0,0,0,0,0,0,0,0,0,0,0,0,0,0,0,0,0,0,0,0,0,0,0,0,1,0,1
"584","New Brighton, MN","New Brighton","MN",2018,45.0658,-93.206,0,0,0,0,0,1,0,0,0,0,0,0,0,0,0,0,0,0,0,0,0,0,0,0,0,0,0,0,0,0,0,0,0,1,0,2
"585","St. Paul, MN","St. Paul","MN",2018,44.9477,-93.104,0,0,1,0,0,5,0,1,0,0,2,0,0,0,0,0,0,5,0,0,0,0,0,0,0,0,0,0,1,0,0,0,0,0,0,15
"586","Northfield, MN","Northfield","MN",2018,44.455,-93.1698,0,0,0,0,0,1,0,0,0,0,0,0,0,0,0,0,0,0,0,0,0,0,0,0,0,0,0,0,0,0,0,0,0,0,0,1
"587","Prior Lake, MN","Prior Lake","MN",2018,44.7251,-93.4409,0,0,0,0,0,0,0,0,0,0,0,0,0,0,0,0,0,0,0,0,0,0,0,0,0,0,0,0,0,0,0,0,0,2,0,2
"588","St. Cloud, MN","St. Cloud","MN",2018,45.5339,-94.1718,0,1,0,0,0,4,0,0,0,0,1,0,0,0,0,3,0,0,0,0,0,0,0,0,0,0,0,0,0,0,0,0,0,0,0,9
"589","Janesville, MN","Janesville","MN",2018,44.1214,-93.7107,0,0,0,0,0,1,0,0,0,0,0,0,0,0,0,0,0,0,0,0,0,0,0,0,0,0,0,0,0,0,0,0,0,0,0,1
"590","Woodbury, MN","Woodbury","MN",2018,44.9056,-92.923,0,0,0,0,0,1,0,0,0,0,0,0,0,0,0,0,0,0,0,0,0,0,0,0,0,0,0,0,0,0,0,0,0,0,0,1
"591","Fulton, MO","Fulton","MO",2018,38.8551,-91.9511,0,0,0,0,0,1,0,0,0,0,0,0,0,0,0,0,0,0,0,0,0,0,0,0,0,0,0,0,0,0,0,0,0,0,0,1
"592","Belton, MO","Belton","MO",2018,38.8193,-94.5334,0,0,1,0,0,1,0,0,0,0,0,0,0,0,0,0,0,0,0,0,0,0,0,0,0,0,0,0,0,0,0,1,0,2,0,5
"593","Gladstone, MO","Gladstone","MO",2018,39.2133,-94.5593,0,0,0,0,0,0,0,0,0,0,0,0,0,0,0,0,0,0,0,0,0,0,0,0,0,0,0,0,0,0,0,1,0,0,0,1
"594","Smithville, MO","Smithville","MO",2018,39.3921,-94.5748,1,0,0,0,0,0,0,0,0,0,0,0,0,0,0,0,0,0,0,0,0,0,0,0,0,0,0,0,0,0,0,0,0,0,0,1
"595","Jefferson City, MO","Jefferson City","MO",2018,38.5676,-92.1759,0,1,0,0,0,0,0,0,0,0,0,0,0,0,0,0,0,0,0,0,0,0,0,0,0,0,0,0,0,0,0,0,0,0,0,1
"596","West Plains, MO","West Plains","MO",2018,36.7378,-91.868,0,0,0,0,0,0,0,0,0,0,0,0,0,0,1,0,0,0,0,0,0,0,0,0,0,0,0,0,0,0,0,0,0,0,0,1
"597","Blue Springs, MO","Blue Springs","MO",2018,39.0124,-94.2721,0,0,0,0,0,1,0,0,0,0,0,0,0,0,0,0,0,0,0,0,0,0,0,1,0,0,0,0,0,0,0,0,0,2,0,4
"598","Grain Valley, MO","Grain Valley","MO",2018,39.0168,-94.2085,0,0,0,0,0,1,0,0,0,0,0,0,0,0,0,0,0,0,0,0,0,0,0,0,0,0,0,0,0,0,0,0,0,0,0,1
"599","Independence, MO","Independence","MO",2018,39.0871,-94.3501,0,0,0,0,0,1,0,0,0,0,1,0,0,0,0,0,0,0,1,0,0,0,0,0,0,0,0,0,0,0,0,0,0,0,0,3
"600","Duquesne, MO","Duquesne","MO",2018,37.0711,-94.4573,0,0,0,0,0,0,0,0,0,0,0,0,0,0,0,0,0,0,0,0,0,1,0,0,0,0,0,0,0,0,0,0,0,0,0,1
"601","Lexington, MO","Lexington","MO",2018,39.1798,-93.8694,0,0,0,0,0,1,0,0,0,0,0,0,0,0,0,0,0,0,0,0,0,0,0,0,0,0,0,0,0,0,0,0,0,0,0,1
"602","Macon, MO","Macon","MO",2018,39.7424,-92.4712,0,0,0,0,0,1,0,0,0,0,0,0,0,0,0,0,0,0,0,0,0,0,0,0,0,0,0,0,0,0,0,0,0,0,0,1
"603","Lilbourn, MO","Lilbourn","MO",2018,36.5908,-89.613,0,0,0,0,0,0,0,0,0,0,0,0,0,0,0,0,0,0,0,0,0,0,0,0,0,0,0,0,0,1,0,0,0,0,0,1
"604","Wentzville, MO","Wentzville","MO",2018,38.8152,-90.8667,0,0,0,0,0,0,0,0,1,0,0,0,0,0,0,0,0,0,0,0,0,0,0,0,0,0,0,0,0,0,0,0,0,0,0,1
"605","Kansas City, MO","Kansas City","MO",2018,39.1239,-94.5541,0,0,0,0,0,20,0,0,0,0,3,0,0,0,1,0,0,0,0,0,0,0,0,1,0,0,0,1,0,0,0,0,1,6,0,33
"606","St. Louis, MO","St. Louis","MO",2018,38.6358,-90.2451,0,0,0,0,0,1,0,0,0,0,1,0,0,0,0,0,0,0,0,0,0,0,0,0,0,0,0,0,0,0,0,0,0,0,0,2
"607","Clinton, MS","Clinton","MS",2018,32.354,-90.3403,0,0,0,0,0,0,0,0,0,0,1,0,0,0,0,0,0,0,0,0,0,0,0,0,0,0,0,0,0,0,0,0,0,0,0,1
"608","Byram, MS","Byram","MS",2018,32.189,-90.2861,0,0,0,0,0,0,0,0,0,0,0,0,0,0,0,0,0,0,0,0,0,0,0,0,0,0,0,0,0,1,0,0,0,0,0,1
"609","Ridgeland, MS","Ridgeland","MS",2018,32.4236,-90.1481,0,0,0,0,0,0,0,0,0,0,0,0,0,0,0,0,0,0,0,1,0,0,0,0,0,0,0,0,0,0,0,0,0,0,0,1
"610","Holly Springs, MS","Holly Springs","MS",2018,34.7768,-89.4466,0,0,0,0,0,0,0,0,0,0,0,0,0,0,0,1,0,0,0,0,0,0,0,0,0,0,0,0,0,0,0,0,0,0,0,1
"611","Brandon, MS","Brandon","MS",2018,32.2778,-89.9896,0,0,1,0,0,0,0,0,0,0,0,0,0,0,0,0,0,0,0,0,0,0,0,0,0,0,0,0,0,0,0,0,0,1,0,2
"612","Bozeman, MT","Bozeman","MT",2018,45.6832,-111.0552,0,0,0,0,0,0,0,0,0,0,1,0,0,0,0,0,0,0,0,0,0,0,0,0,0,0,0,0,0,0,0,0,0,0,0,1
"613","Helena, MT","Helena","MT",2018,46.5965,-112.0202,0,0,0,0,0,0,0,0,1,0,0,0,0,0,0,0,0,0,0,0,0,0,0,0,0,0,0,0,0,0,0,0,0,0,0,1
"614","Missoula, MT","Missoula","MT",2018,46.875,-114.0214,1,0,0,0,0,0,0,0,0,0,0,0,0,0,0,0,0,0,0,3,0,0,0,0,0,0,0,0,0,0,0,0,0,0,0,4
"615","Billings, MT","Billings","MT",2018,45.7891,-108.5524,0,0,0,0,0,0,0,0,0,0,0,0,0,0,0,0,0,0,0,1,0,0,0,0,0,0,0,0,0,0,0,0,0,0,0,1
"616","Asheville, NC","Asheville","NC",2018,35.5704,-82.5536,0,0,0,0,0,1,0,0,0,0,0,0,0,0,1,0,0,0,0,0,0,0,0,0,0,0,0,0,0,0,1,0,0,0,0,3
"617","Morganton, NC","Morganton","NC",2018,35.7408,-81.7003,0,0,0,0,0,0,0,0,0,0,0,0,0,0,0,0,0,0,1,0,0,0,0,1,0,0,0,0,0,0,0,0,0,0,0,2
"618","Hickory, NC","Hickory","NC",2018,35.7425,-81.323,0,0,0,0,0,0,0,0,0,0,0,0,0,0,0,1,0,0,0,0,0,0,0,0,0,0,0,0,0,0,0,0,0,0,0,1
"619","Newton, NC","Newton","NC",2018,35.663,-81.2333,0,0,0,0,0,0,0,0,0,0,0,0,0,0,0,0,0,0,0,0,0,0,0,0,0,0,0,0,0,0,0,0,0,2,0,2
"620","Pittsboro, NC","Pittsboro","NC",2018,35.7256,-79.1714,0,0,0,0,0,2,0,0,0,0,0,0,0,0,1,0,0,0,0,0,0,0,0,0,0,0,0,0,0,0,0,0,0,0,0,3
"621","New Bern, NC","New Bern","NC",2018,35.0955,-77.0723,0,0,0,0,0,2,0,0,0,0,0,0,0,0,0,0,0,0,0,0,0,0,0,0,0,0,0,0,0,0,0,0,0,0,0,2
"622","Fayetteville, NC","Fayetteville","NC",2018,35.0846,-78.9776,0,0,0,0,0,3,0,0,0,0,0,0,0,0,0,0,0,0,0,0,0,0,0,0,0,0,0,0,0,0,0,0,0,0,0,3
"623","Hope Mills, NC","Hope Mills","NC",2018,34.969,-78.9559,1,0,0,0,0,0,0,0,0,0,0,0,0,0,0,0,0,0,0,0,0,0,0,0,0,0,0,0,0,0,0,0,0,0,0,1
"624","Southern Shores, NC","Southern Shores","NC",2018,36.1205,-75.7327,0,0,0,0,0,0,0,0,0,0,0,0,0,0,0,0,0,0,0,1,0,0,0,0,0,0,0,0,0,0,0,0,0,0,0,1
"625","Lexington, NC","Lexington","NC",2018,35.8017,-80.2682,0,0,0,0,0,1,0,0,0,0,0,0,0,0,0,0,0,0,0,0,0,0,0,0,0,0,0,0,0,0,0,0,0,0,0,1
"626","Mocksville, NC","Mocksville","NC",2018,35.9006,-80.5631,0,0,0,0,0,0,0,0,0,0,0,0,0,0,1,0,0,0,0,0,0,0,0,0,0,0,0,0,0,0,0,0,0,1,0,2
"627","Durham, NC","Durham","NC",2018,35.9794,-78.9031,0,0,0,0,0,2,0,0,0,0,0,0,0,0,1,3,0,0,0,1,0,0,0,1,0,0,0,0,0,0,0,0,0,4,0,12
"628","Greensboro, NC","Greensboro","NC",2018,36.0956,-79.8269,0,0,0,0,0,5,0,0,0,0,2,0,1,0,0,0,0,0,0,0,0,0,0,1,0,0,0,0,0,0,0,0,0,2,0,11
"629","Roanoke Rapids, NC","Roanoke Rapids","NC",2018,36.4452,-77.6491,0,0,0,0,0,0,0,0,0,0,1,0,0,0,0,0,0,0,0,0,0,0,0,0,0,0,0,0,0,0,0,0,0,4,0,5
"630","Dunn, NC","Dunn","NC",2018,35.3113,-78.6129,0,0,0,0,0,0,0,0,0,0,0,0,0,0,0,0,0,0,0,0,0,1,0,0,0,0,0,0,0,0,0,0,0,0,0,1
"631","Hendersonville, NC","Hendersonville","NC",2018,35.3242,-82.4576,0,0,0,0,0,1,0,0,0,0,0,0,0,0,0,0,0,0,0,0,0,0,0,0,0,0,0,0,0,0,0,0,0,0,0,1
"632","Mooresville, NC","Mooresville","NC",2018,35.5849,-80.8265,0,0,0,0,0,1,0,0,0,0,1,0,0,0,0,0,0,0,0,0,0,0,0,0,0,0,0,0,0,0,0,0,0,1,0,3
"633","Statesville, NC","Statesville","NC",2018,35.7842,-80.8714,0,0,0,0,0,0,0,0,0,0,1,0,0,0,0,0,0,0,0,0,0,0,0,0,0,0,0,0,0,0,0,0,0,0,0,1
"634","Huntersville, NC","Huntersville","NC",2018,35.4058,-80.8727,0,0,0,0,0,1,0,0,0,0,0,0,0,0,0,0,0,0,0,1,0,0,0,0,0,0,0,0,0,0,0,0,0,0,0,2
"635","Carolina Beach, NC","Carolina Beach","NC",2018,34.0396,-77.8966,0,0,0,0,0,3,0,0,0,0,0,0,0,0,0,0,0,0,0,0,0,0,0,0,0,0,0,0,0,0,0,0,0,0,0,3
"636","Wilmington, NC","Wilmington","NC",2018,34.21,-77.8866,0,0,0,0,0,4,0,0,0,0,1,0,0,0,0,0,0,2,0,0,0,0,0,0,0,0,0,0,0,0,1,0,0,1,0,9
"637","Jacksonville, NC","Jacksonville","NC",2018,34.7288,-77.3941,0,0,0,0,0,1,0,0,0,0,1,0,0,0,0,0,0,0,0,0,0,0,0,0,0,0,0,0,0,0,0,0,0,0,0,2
"638","Salisbury, NC","Salisbury","NC",2018,35.6656,-80.4909,0,0,0,0,0,1,0,0,0,0,0,0,0,0,0,0,0,0,0,1,0,0,0,1,0,0,0,0,0,0,0,0,0,0,0,3
"639","Raleigh, NC","Raleigh","NC",2018,35.8325,-78.6435,0,0,0,0,0,1,0,0,0,0,2,0,0,0,0,0,0,3,1,0,0,0,0,0,0,0,0,0,0,0,1,0,0,2,0,10
"640","Apex, NC","Apex","NC",2018,35.7239,-78.8728,0,0,1,0,0,0,0,0,0,0,0,0,0,0,0,0,0,0,0,0,0,0,0,0,0,0,0,0,0,0,0,0,0,0,0,1
"641","Cary, NC","Cary","NC",2018,35.782,-78.8191,0,0,0,0,0,0,0,0,0,0,0,0,0,0,0,1,0,4,0,0,0,0,0,0,0,0,0,0,0,0,0,0,0,0,0,5
"642","Boone, NC","Boone","NC",2018,36.2111,-81.6668,0,0,0,0,0,1,0,0,0,0,0,0,0,0,0,0,0,0,0,2,0,0,0,0,0,0,0,0,0,0,0,0,0,0,0,3
"643","Bismarck, ND","Bismarck","ND",2018,46.8144,-100.7694,0,0,0,0,0,0,0,0,0,0,0,0,0,0,0,0,0,0,0,1,0,0,0,0,0,0,0,0,0,0,0,0,0,1,0,2
"644","Fargo, ND","Fargo","ND",2018,46.8652,-96.8292,0,0,0,0,0,0,0,1,0,0,1,0,0,0,0,0,0,0,0,0,0,0,0,0,0,0,0,0,0,0,0,0,0,0,0,2
"645","Grand Forks, ND","Grand Forks","ND",2018,47.9218,-97.0886,0,0,0,0,0,0,0,0,0,0,0,0,0,0,0,0,0,1,0,0,0,0,0,0,0,0,0,0,0,0,0,0,0,0,0,1
"646","Devils Lake, ND","Devils Lake","ND",2018,48.1131,-98.875,0,0,0,0,0,0,0,0,0,0,1,0,0,0,0,0,0,0,0,0,0,0,0,0,0,0,0,0,0,0,0,0,0,0,0,1
"647","Dickinson, ND","Dickinson","ND",2018,46.8917,-102.7924,0,0,0,0,0,1,0,0,0,0,0,0,0,0,0,0,0,0,0,0,0,0,0,0,0,0,0,0,0,0,0,0,0,0,0,1
"648","Williston, ND","Williston","ND",2018,48.1814,-103.6364,0,0,0,0,0,1,0,0,0,0,0,0,0,0,0,0,0,0,0,0,0,0,0,0,0,0,0,0,0,0,0,0,0,0,0,1
"649","Manchester, NH","Manchester","NH",2018,42.9848,-71.4447,0,0,0,0,0,1,0,0,0,0,0,0,0,0,0,0,0,0,0,0,0,0,0,0,0,0,0,1,0,0,0,0,0,0,0,2
"650","Northfield, NJ","Northfield","NJ",2018,39.3718,-74.5543,0,0,0,0,0,0,0,0,0,0,0,0,0,0,0,0,0,0,0,0,0,0,0,0,0,0,0,0,0,0,0,0,0,1,0,1
"651","Pleasantville, NJ","Pleasantville","NJ",2018,39.39,-74.5169,0,0,0,0,0,0,0,0,0,0,0,0,0,0,0,1,0,0,0,0,0,0,0,0,0,0,0,0,0,0,0,0,0,0,0,1
"652","Closter, NJ","Closter","NJ",2018,40.9733,-73.9604,0,0,0,0,0,0,0,0,0,0,0,0,0,0,1,0,0,1,0,0,0,0,0,0,0,0,0,0,0,1,0,0,0,0,0,3
"653","Dumont, NJ","Dumont","NJ",2018,40.9452,-73.9923,0,0,0,0,0,1,0,0,0,0,0,0,0,0,0,0,0,1,0,0,0,0,0,0,0,0,0,0,0,0,0,0,0,0,0,2
"654","East Rutherford, NJ","East Rutherford","NJ",2018,40.8179,-74.0854,0,0,0,0,0,0,0,0,0,0,0,0,0,0,0,0,0,1,0,0,0,0,0,0,0,0,0,0,0,0,0,0,0,0,0,1
"655","Emerson, NJ","Emerson","NJ",2018,40.9748,-74.0239,0,0,0,0,0,1,0,0,0,0,0,0,0,0,0,0,0,0,0,0,0,0,0,0,0,0,0,0,0,0,0,0,0,0,0,1
"656","Englewood, NJ","Englewood","NJ",2018,40.8917,-73.9736,0,0,0,0,0,4,0,0,0,0,0,0,0,0,2,0,0,1,0,0,0,0,0,0,0,0,0,0,0,0,0,0,0,0,0,7
"657","Fair Lawn, NJ","Fair Lawn","NJ",2018,40.9359,-74.1177,0,0,0,0,0,0,0,0,0,0,0,0,0,0,0,0,0,2,0,0,0,0,0,0,0,0,0,0,0,0,0,0,0,0,0,2
"658","Fort Lee, NJ","Fort Lee","NJ",2018,40.8509,-73.9712,1,0,0,0,0,1,0,0,0,0,0,0,0,0,1,0,0,2,0,0,0,0,0,0,0,0,0,0,0,0,0,0,0,0,0,5
"659","Franklin Lakes, NJ","Franklin Lakes","NJ",2018,41.0086,-74.2083,0,0,0,0,0,0,0,0,0,0,0,0,0,0,0,0,0,5,0,0,0,0,0,0,0,0,0,0,0,0,0,0,0,0,0,5
"660","Hackensack, NJ","Hackensack","NJ",2018,40.889,-74.0461,0,0,0,0,0,2,0,0,0,0,0,0,0,0,1,0,0,1,0,0,0,0,0,0,0,0,0,0,0,0,0,0,0,0,0,4
"661","Haworth, NJ","Haworth","NJ",2018,40.9622,-73.9976,0,0,0,0,0,0,0,0,0,0,0,0,0,0,0,0,0,2,0,0,0,0,0,0,0,0,0,0,0,0,0,0,0,0,0,2
"662","Hillsdale, NJ","Hillsdale","NJ",2018,41.0074,-74.044,0,0,0,0,0,2,0,0,0,0,0,0,0,0,0,0,0,7,0,0,0,0,0,0,0,0,0,0,0,0,0,0,0,0,0,9
"663","Leonia, NJ","Leonia","NJ",2018,40.8638,-73.9899,0,0,0,0,0,0,0,0,0,0,0,0,0,0,0,0,0,1,0,0,0,0,0,0,0,0,0,0,0,0,0,0,0,0,0,1
"664","Lodi, NJ","Lodi","NJ",2018,40.8784,-74.0814,0,0,0,0,0,0,0,0,0,0,1,0,0,0,0,0,0,0,1,0,0,0,0,0,0,0,0,0,0,0,0,0,0,0,0,2
"665","New Milford, NJ","New Milford","NJ",2018,40.9337,-74.0196,0,0,0,0,0,1,0,0,0,0,0,0,0,0,0,0,0,1,0,0,0,0,0,0,0,0,0,0,0,0,0,0,0,0,0,2
"666","North Arlington, NJ","North Arlington","NJ",2018,40.7875,-74.1273,0,0,0,0,0,0,0,0,0,0,0,0,0,0,0,0,0,1,0,0,0,0,0,0,0,0,0,0,0,0,0,0,0,0,0,1
"667","Oradell, NJ","Oradell","NJ",2018,40.9562,-74.0314,0,0,0,0,0,0,0,0,0,0,0,0,0,0,0,0,0,1,0,0,0,0,0,0,0,0,0,0,0,0,0,0,0,0,0,1
"668","Paramus, NJ","Paramus","NJ",2018,40.9455,-74.0712,0,0,1,0,0,0,0,0,0,0,0,0,0,0,0,0,0,1,0,0,0,0,0,0,0,0,0,0,0,0,0,0,0,0,0,2
"669","Ridgefield Park, NJ","Ridgefield Park","NJ",2018,40.8543,-74.0201,0,0,0,0,0,1,0,0,0,0,0,0,0,0,0,0,0,0,0,0,0,0,0,0,0,0,0,0,0,0,0,0,0,0,0,1
"670","Ridgewood, NJ","Ridgewood","NJ",2018,40.9822,-74.1128,0,0,0,0,0,1,0,0,0,0,0,0,0,0,0,0,0,4,0,0,0,0,0,0,0,0,0,0,0,0,0,0,0,0,0,5
"671","Tenafly, NJ","Tenafly","NJ",2018,40.9175,-73.9531,0,0,0,0,0,0,0,0,0,0,0,0,0,0,0,0,0,1,0,0,0,0,0,0,0,0,0,0,0,0,0,0,0,0,0,1
"672","Beverly, NJ","Beverly","NJ",2018,40.0652,-74.9221,0,0,0,0,0,1,0,0,0,0,0,0,0,0,0,0,0,0,0,0,0,0,0,0,0,0,0,0,0,0,0,0,0,0,0,1
"673","Berlin, NJ","Berlin","NJ",2018,39.7915,-74.9375,0,0,0,0,0,1,0,0,0,0,0,0,0,0,0,0,0,0,0,0,0,0,0,0,0,0,0,0,0,0,0,0,0,0,0,1
"674","Brooklawn, NJ","Brooklawn","NJ",2018,39.8788,-75.1207,0,0,0,0,0,0,0,0,0,0,0,0,0,0,0,0,0,0,0,0,0,0,0,1,0,0,0,0,0,0,0,0,0,0,0,1
"675","Gloucester City, NJ","Gloucester City","NJ",2018,39.8924,-75.1172,0,0,0,0,0,1,0,0,0,0,0,0,0,0,0,0,0,0,0,0,0,0,0,0,0,0,0,0,0,0,0,0,0,0,0,1
"676","Haddonfield, NJ","Haddonfield","NJ",2018,39.8955,-75.0346,0,0,0,0,0,1,0,0,0,0,0,0,0,0,0,0,0,1,0,0,0,0,0,0,0,0,0,0,0,0,0,0,0,0,0,2
"677","Merchantville, NJ","Merchantville","NJ",2018,39.9502,-75.0504,0,0,0,0,0,1,0,0,0,0,0,0,0,0,0,0,0,0,0,0,0,0,0,0,0,0,0,0,0,0,0,0,0,0,0,1
"678","Bridgeton, NJ","Bridgeton","NJ",2018,39.4286,-75.2281,0,0,1,0,0,3,0,0,0,0,2,0,1,0,0,0,0,0,2,0,0,0,0,0,0,0,0,0,1,0,0,0,0,0,0,10
"679","Millville, NJ","Millville","NJ",2018,39.3903,-75.0561,0,0,0,0,0,1,0,0,0,0,0,0,0,0,0,0,0,0,1,0,0,0,0,0,0,0,0,0,0,0,0,0,0,0,0,2
"680","Vineland, NJ","Vineland","NJ",2018,39.4653,-74.9981,0,0,0,0,0,2,0,0,0,0,0,0,0,0,0,0,0,0,0,0,0,0,0,0,0,0,0,0,0,0,0,0,0,0,0,2
"681","East Orange, NJ","East Orange","NJ",2018,40.7651,-74.2117,0,0,0,0,0,0,0,0,0,0,0,0,0,0,0,0,0,1,0,0,0,0,0,0,0,0,0,0,0,0,0,0,0,0,0,1
"682","Glen Ridge, NJ","Glen Ridge","NJ",2018,40.8041,-74.2043,0,0,0,0,0,1,0,0,0,0,0,0,0,0,0,0,0,0,0,0,0,0,0,0,0,0,0,0,0,0,0,0,0,0,0,1
"683","Paulsboro, NJ","Paulsboro","NJ",2018,39.84,-75.2397,0,0,0,0,0,1,0,0,0,0,0,0,0,0,0,0,0,0,0,0,0,0,0,0,0,0,0,0,0,0,0,0,0,0,0,1
"684","Pitman, NJ","Pitman","NJ",2018,39.7335,-75.1306,0,0,0,0,0,3,0,0,0,0,0,0,0,0,0,0,0,0,0,0,0,0,0,0,0,0,0,0,0,0,0,0,0,0,0,3
"685","Woodbury, NJ","Woodbury","NJ",2018,39.8379,-75.1524,0,0,0,0,0,10,0,0,0,0,3,0,0,0,2,0,0,0,0,0,0,1,0,0,0,0,0,0,0,0,0,0,0,0,0,16
"686","Hoboken, NJ","Hoboken","NJ",2018,40.7453,-74.0279,0,1,1,0,0,1,0,0,0,0,3,0,0,0,0,0,0,1,0,0,0,0,0,0,0,0,0,0,0,0,0,0,0,0,0,7
"687","Jersey City, NJ","Jersey City","NJ",2018,40.7161,-74.0682,0,0,1,0,0,1,0,0,0,0,0,0,0,0,1,1,0,0,0,0,0,0,0,0,0,0,0,0,0,0,0,0,0,0,0,4
"688","Secaucus, NJ","Secaucus","NJ",2018,40.781,-74.0659,0,0,1,0,0,0,0,0,0,0,0,0,0,0,0,0,0,0,0,0,0,0,0,0,0,0,0,0,0,0,0,0,0,0,0,1
"689","Union City, NJ","Union City","NJ",2018,40.7674,-74.0323,0,0,0,0,0,1,0,0,0,0,0,0,0,0,0,0,0,1,0,0,0,0,0,0,0,0,0,0,0,0,0,0,0,0,0,2
"690","West New York, NJ","West New York","NJ",2018,40.7856,-74.0093,0,0,0,0,0,0,0,0,0,0,0,0,0,0,1,0,0,0,1,0,0,0,0,0,0,0,0,0,0,0,0,0,0,0,0,2
"691","Lambertville, NJ","Lambertville","NJ",2018,40.3687,-74.943,0,0,0,0,0,0,0,0,0,0,1,0,0,0,0,0,0,0,0,0,0,0,0,0,0,0,0,0,0,0,0,0,0,0,0,1
"692","Hightstown, NJ","Hightstown","NJ",2018,40.2686,-74.5253,0,0,0,0,0,1,0,0,0,0,0,0,0,0,0,0,0,0,0,0,0,0,0,0,0,0,0,0,0,0,0,0,0,1,0,2
"693","Princeton, NJ","Princeton","NJ",2018,40.3563,-74.6693,0,0,0,0,0,0,0,0,0,0,0,0,0,0,0,0,0,0,0,1,0,0,0,0,0,0,0,0,0,0,0,0,0,0,0,1
"694","Carteret, NJ","Carteret","NJ",2018,40.5848,-74.2284,0,0,0,0,0,0,0,1,0,0,0,0,0,0,0,0,0,0,0,0,0,0,0,0,0,0,0,0,0,0,0,0,0,0,0,1
"695","Highland Park, NJ","Highland Park","NJ",2018,40.5006,-74.4283,0,0,0,0,0,0,0,0,0,0,0,0,0,0,0,0,0,1,0,0,0,0,0,0,0,0,0,0,0,0,0,0,0,0,0,1
"696","Metuchen, NJ","Metuchen","NJ",2018,40.5424,-74.3628,0,0,0,0,0,0,0,0,0,0,0,0,0,0,0,0,0,1,0,0,0,0,0,0,0,0,0,0,0,0,0,0,0,0,0,1
"697","New Brunswick, NJ","New Brunswick","NJ",2018,40.487,-74.445,0,0,0,0,0,0,0,0,0,0,1,0,0,0,0,0,0,0,0,0,0,0,0,0,0,0,0,0,0,0,0,0,0,0,0,1
"698","South Plainfield, NJ","South Plainfield","NJ",2018,40.5748,-74.4153,0,0,0,0,0,1,0,0,0,0,0,0,0,0,0,0,0,0,0,0,0,0,0,0,0,0,0,0,0,0,0,0,0,0,0,1
"699","Spotswood, NJ","Spotswood","NJ",2018,40.3949,-74.392,0,0,0,0,0,1,0,0,0,0,0,0,1,0,0,0,0,0,0,0,0,0,0,0,0,0,0,0,0,0,0,0,0,0,0,2
"700","Deal, NJ","Deal","NJ",2018,40.2497,-73.9976,0,0,0,0,0,1,0,0,0,0,0,0,0,0,0,0,0,0,0,0,0,0,0,0,0,0,0,0,0,0,0,0,0,0,0,1
"701","Highlands, NJ","Highlands","NJ",2018,40.4036,-73.9899,0,0,0,0,0,1,0,0,0,0,0,0,0,0,0,0,0,0,0,0,0,0,0,0,0,0,0,0,0,0,0,0,0,0,0,1
"702","Keansburg, NJ","Keansburg","NJ",2018,40.4471,-74.1316,0,1,0,0,0,5,0,0,0,0,2,0,0,0,1,1,0,0,1,0,0,0,0,0,0,0,0,0,0,0,0,0,0,0,0,11
"703","Long Branch, NJ","Long Branch","NJ",2018,40.2965,-73.9915,0,0,0,0,0,1,0,0,0,0,0,0,0,0,0,0,0,0,0,0,0,0,0,0,0,0,0,0,0,0,0,0,0,0,0,1
"704","Monmouth Beach, NJ","Monmouth Beach","NJ",2018,40.3364,-73.9863,0,0,0,0,0,0,0,0,0,0,0,0,0,0,0,0,0,1,0,0,0,0,0,0,0,0,0,0,0,0,0,0,0,0,0,1
"705","Tinton Falls, NJ","Tinton Falls","NJ",2018,40.2709,-74.0948,0,0,0,0,0,2,0,0,0,0,0,0,0,0,0,0,0,0,0,0,1,0,0,0,0,0,0,0,0,0,0,0,0,0,0,3
"706","Sea Girt, NJ","Sea Girt","NJ",2018,40.1308,-74.0358,0,0,0,0,0,1,0,0,0,0,0,0,0,0,0,0,0,0,0,0,0,0,0,0,0,0,0,0,0,0,0,0,0,0,0,1
"707","Shrewsbury, NJ","Shrewsbury","NJ",2018,40.3249,-74.06,0,0,0,0,0,1,0,0,0,0,0,0,0,0,0,0,0,0,0,0,0,0,0,0,0,0,0,0,0,0,0,0,0,0,0,1
"708","Boonton, NJ","Boonton","NJ",2018,40.9047,-74.4048,0,1,0,0,0,2,0,0,0,0,0,0,0,0,0,2,0,0,0,0,0,0,0,0,0,0,0,0,0,0,0,0,0,0,0,5
"709","Dover, NJ","Dover","NJ",2018,40.8859,-74.5597,0,0,0,0,0,0,0,0,0,0,0,0,0,0,1,0,0,0,0,0,0,0,0,1,0,0,0,0,0,0,0,0,0,0,0,2
"710","Lincoln Park, NJ","Lincoln Park","NJ",2018,40.9239,-74.3035,0,0,0,0,0,0,0,0,0,0,0,0,0,0,0,0,0,0,0,0,0,0,0,1,0,0,0,0,0,0,0,0,0,0,0,1
"711","Madison, NJ","Madison","NJ",2018,40.7586,-74.417,0,0,0,0,0,12,0,0,0,0,0,0,0,0,0,0,0,1,0,0,0,0,0,0,0,0,0,0,0,0,0,0,0,0,0,13
"712","Point Pleasant Beach, NJ","Point Pleasant Beach","NJ",2018,40.0929,-74.0459,0,0,1,0,0,0,0,0,0,0,0,0,0,0,0,0,0,0,0,0,0,0,0,0,0,0,0,0,0,0,0,0,0,0,0,1
"713","Tuckerton, NJ","Tuckerton","NJ",2018,39.5974,-74.3306,0,0,0,0,0,1,0,0,0,0,0,0,0,0,0,0,0,0,0,0,0,0,0,0,0,0,0,0,0,0,0,0,0,0,0,1
"714","Bloomingdale, NJ","Bloomingdale","NJ",2018,41.03,-74.3319,0,0,0,0,0,1,0,0,0,0,0,0,0,0,0,0,0,0,0,0,0,0,0,0,0,0,0,0,0,0,0,0,0,0,0,1
"715","Clifton, NJ","Clifton","NJ",2018,40.8631,-74.1575,0,0,0,0,0,2,0,1,0,0,0,0,0,0,0,1,0,0,0,0,0,0,0,0,0,0,0,0,0,0,0,0,0,0,0,4
"716","North Haledon, NJ","North Haledon","NJ",2018,40.9628,-74.1844,0,0,0,0,0,1,0,0,0,0,0,0,0,0,0,0,0,0,1,0,0,0,0,0,0,0,0,0,0,0,0,0,0,0,0,2
"717","Pompton Lakes, NJ","Pompton Lakes","NJ",2018,41.0024,-74.2859,0,1,0,0,1,0,0,0,0,0,0,0,0,0,0,0,0,3,0,0,0,0,0,0,0,0,0,0,0,0,0,0,0,0,0,5
"718","Totowa, NJ","Totowa","NJ",2018,40.9039,-74.2213,0,0,0,0,0,0,0,0,0,0,0,0,0,0,0,0,0,0,0,0,0,0,0,1,0,0,0,0,0,0,0,0,0,0,0,1
"719","Newton, NJ","Newton","NJ",2018,41.0534,-74.7527,0,0,0,0,0,1,0,0,0,0,1,0,0,0,0,0,0,0,0,0,0,0,0,0,0,0,0,0,0,0,0,0,0,0,0,2
"720","Stanhope, NJ","Stanhope","NJ",2018,40.9141,-74.7027,0,0,0,0,0,0,0,0,0,0,0,0,0,0,0,0,0,1,0,0,0,0,0,0,0,0,0,0,0,0,0,0,0,0,0,1
"721","Elizabeth, NJ","Elizabeth","NJ",2018,40.6657,-74.1912,0,0,0,0,0,0,0,0,0,0,0,0,0,0,0,0,0,0,0,0,0,0,0,0,0,0,0,0,0,0,0,0,0,1,0,1
"722","Linden, NJ","Linden","NJ",2018,40.6251,-74.2381,0,0,0,0,0,2,0,0,0,0,0,0,0,0,0,0,0,0,0,0,0,0,0,0,0,0,0,0,0,0,0,0,0,0,0,2
"723","Mountainside, NJ","Mountainside","NJ",2018,40.6811,-74.36,0,0,0,0,0,0,0,0,0,0,0,0,0,0,0,0,0,1,0,0,0,0,0,0,0,0,0,0,0,0,0,0,0,0,0,1
"724","New Providence, NJ","New Providence","NJ",2018,40.6996,-74.4034,0,0,0,0,0,1,0,0,0,0,0,0,0,0,1,0,0,1,0,0,0,0,0,0,0,0,0,0,0,1,0,0,0,0,0,4
"725","Rahway, NJ","Rahway","NJ",2018,40.6077,-74.2807,0,0,0,0,0,1,0,0,0,0,0,0,0,0,0,0,0,0,0,0,0,0,0,0,0,0,0,0,0,0,0,0,0,1,0,2
"726","Roselle, NJ","Roselle","NJ",2018,40.6527,-74.2599,0,0,0,0,0,2,0,0,0,0,0,0,0,0,0,0,0,0,0,0,0,0,0,0,0,0,0,0,0,0,0,0,0,0,0,2
"727","Summit, NJ","Summit","NJ",2018,40.7154,-74.3647,0,0,1,0,0,0,0,0,0,0,0,0,0,0,0,0,0,4,0,0,0,0,0,0,0,0,0,0,0,0,0,0,0,0,0,5
"728","Westfield, NJ","Westfield","NJ",2018,40.6515,-74.3433,0,0,0,0,0,2,0,0,0,0,0,0,0,0,0,0,0,3,0,0,0,0,0,0,0,0,0,0,0,0,0,0,0,0,0,5
"729","Albuquerque, NM","Albuquerque","NM",2018,35.1053,-106.6464,2,1,1,0,0,8,1,0,0,0,2,0,0,2,6,3,0,1,0,1,0,0,0,0,0,0,17,1,0,0,0,0,1,2,0,49
"730","Belen, NM","Belen","NM",2018,34.7115,-106.7985,0,0,0,0,0,0,0,0,0,0,0,0,0,0,0,0,0,0,0,0,0,0,0,0,0,0,0,0,0,0,0,0,0,1,0,1
"731","North Las Vegas, NV","North Las Vegas","NV",2018,36.288,-115.0901,0,0,0,0,0,2,0,0,0,0,0,0,0,0,0,0,0,0,0,0,0,0,0,0,0,0,0,0,0,0,0,0,0,1,0,3
"732","Henderson, NV","Henderson","NV",2018,36.0133,-115.038,0,0,0,0,0,1,0,0,0,0,0,0,0,0,1,2,0,0,0,0,0,0,0,0,0,0,0,0,0,0,0,0,0,1,0,5
"733","Boulder City, NV","Boulder City","NV",2018,35.8407,-114.9257,0,0,0,0,0,0,0,0,0,0,0,0,0,0,0,0,0,0,0,1,0,0,0,0,0,0,0,0,0,0,0,0,0,0,0,1
"734","Reno, NV","Reno","NV",2018,39.5497,-119.8483,0,0,0,0,0,0,0,0,0,0,1,0,0,0,0,0,0,1,0,0,0,0,0,0,0,0,0,0,0,0,0,0,0,0,0,2
"735","Albany, NY","Albany","NY",2018,42.6664,-73.7987,0,0,1,0,0,3,0,0,0,0,3,0,0,0,0,0,0,3,0,0,0,0,0,0,0,0,1,0,0,0,0,0,0,1,0,12
"736","Watervliet, NY","Watervliet","NY",2018,42.7243,-73.7068,0,0,0,0,0,0,0,0,0,0,0,0,0,0,0,0,0,0,1,0,0,0,0,0,0,0,0,0,0,0,0,0,0,0,0,1
"737","Binghamton, NY","Binghamton","NY",2018,42.1014,-75.9093,0,0,0,0,0,1,0,0,0,0,0,0,0,0,0,0,0,1,0,0,0,0,0,0,0,0,0,0,0,0,0,0,0,0,0,2
"738","Buffalo, NY","Buffalo","NY",2018,42.9016,-78.8487,0,0,0,0,0,5,0,0,0,0,0,1,0,0,0,0,0,0,0,0,0,0,0,0,0,0,0,0,0,0,0,0,0,0,0,6
"739","Rochester, NY","Rochester","NY",2018,43.168,-77.6162,0,0,0,0,0,4,0,0,0,0,1,0,0,0,0,0,0,0,0,0,0,0,0,0,0,0,0,0,0,0,0,0,0,0,0,5
"740","New York, NY","New York","NY",2018,40.6943,-73.9249,0,2,5,0,0,39,0,4,0,0,36,0,0,0,7,16,0,191,5,0,0,0,1,1,0,0,2,12,2,0,0,0,10,18,0,351
"741","Niagara Falls, NY","Niagara Falls","NY",2018,43.0921,-79.0147,0,0,0,0,0,1,0,0,0,0,0,0,0,0,0,0,0,0,0,0,0,0,0,0,0,0,0,0,0,0,0,0,0,0,0,1
"742","Kingston, NY","Kingston","NY",2018,41.9295,-73.9968,0,0,0,0,0,0,0,0,0,0,0,0,0,0,0,0,0,1,0,0,0,0,0,0,0,0,0,0,0,0,0,0,0,0,0,1
"743","Mount Vernon, NY","Mount Vernon","NY",2018,40.9136,-73.8291,0,0,0,0,0,2,0,0,0,0,0,0,0,0,0,1,0,0,0,0,0,0,0,0,0,0,0,0,0,0,0,0,0,1,0,4
