"","city_state","city","state","year","lat","lng","Anti-American Indian or Alaska Native","Anti-Arab","Anti-Asian","Anti-Atheism/Agnosticism","Anti-Bisexual","Anti-Black or African American","Anti-Buddhist","Anti-Catholic","Anti-Eastern Orthodox (Russian, Greek, Other)","Anti-Female","Anti-Gay (Male)","Anti-Gender Non-Conforming","Anti-Heterosexual","Anti-Hindu","Anti-Hispanic or Latino","Anti-Islamic (Muslim)","Anti-Jehovah's Witness","Anti-Jewish","Anti-Lesbian (Female)","Anti-Lesbian, Gay, Bisexual, or Transgender (Mixed Group)","Anti-Male","Anti-Mental Disability","Anti-Mormon","Anti-Multiple Races, Group","Anti-Multiple Religions, Group","Anti-Native Hawaiian or Other Pacific Islander","Anti-Other Christian","Anti-Other Race/Ethnicity/Ancestry","Anti-Other Religion","Anti-Physical Disability","Anti-Protestant","Anti-Sikh","Anti-Transgender","Anti-White","Unknown (offender's motivation not known)","total_cases"
"1","Anchorage, AK","Anchorage","AK",2013,61.1508,-149.1091,3,0,0,0,0,5,0,0,0,0,0,0,0,0,0,0,0,0,0,0,0,0,0,0,0,0,0,0,0,0,0,0,0,0,0,8
"2","Hoover, AL","Hoover","AL",2013,33.3754,-86.8064,0,0,0,0,0,0,0,0,0,0,1,0,0,0,0,0,0,0,0,0,0,0,0,0,0,0,0,0,0,0,0,0,0,0,0,1
"3","Prattville, AL","Prattville","AL",2013,32.4605,-86.4588,0,0,0,0,0,2,0,0,0,0,0,0,0,0,0,0,0,0,0,0,0,0,0,0,0,0,0,0,0,0,0,0,0,0,0,2
"4","Florence, AL","Florence","AL",2013,34.8303,-87.6654,0,0,0,0,0,1,0,0,0,0,0,0,0,0,0,0,0,0,0,0,0,0,0,1,0,0,0,0,0,0,0,0,0,0,0,2
"5","Tuscaloosa, AL","Tuscaloosa","AL",2013,33.2348,-87.5267,0,0,0,0,0,1,0,0,0,0,0,0,0,0,0,0,0,0,0,0,0,0,0,0,0,0,0,0,0,0,0,0,0,0,0,1
"6","Bentonville, AR","Bentonville","AR",2013,36.3546,-94.2306,0,0,0,0,0,1,0,0,0,0,0,0,0,0,0,0,0,0,0,0,0,0,0,0,0,0,0,0,0,0,0,0,0,0,0,1
"7","Rogers, AR","Rogers","AR",2013,36.3172,-94.1526,0,0,0,0,0,1,0,0,0,0,0,0,0,0,0,0,0,0,0,0,0,0,0,0,0,0,0,0,0,0,0,0,0,0,0,1
"8","Berryville, AR","Berryville","AR",2013,36.3713,-93.5704,0,0,0,0,0,1,0,0,0,0,0,0,0,0,0,0,0,0,0,0,0,0,0,0,0,0,0,0,0,0,0,0,0,0,0,1
"9","Gurdon, AR","Gurdon","AR",2013,33.9155,-93.1544,0,0,0,0,0,1,0,0,0,0,0,0,0,0,0,0,0,0,0,0,0,0,0,0,0,0,0,0,0,0,0,0,0,0,0,1
"10","Marion, AR","Marion","AR",2013,35.2041,-90.2061,0,0,0,0,0,0,0,0,0,0,1,0,0,0,0,0,0,0,0,0,0,0,0,0,0,0,0,0,0,0,0,0,0,0,0,1
"11","Pine Bluff, AR","Pine Bluff","AR",2013,34.2116,-92.0178,0,0,0,0,0,0,0,0,0,0,1,0,0,0,0,0,0,0,0,0,0,0,0,0,0,0,0,0,0,0,0,0,0,0,0,1
"12","England, AR","England","AR",2013,34.546,-91.969,0,0,0,0,0,1,0,0,0,0,0,0,0,0,0,0,0,0,0,0,0,0,0,0,0,0,0,0,0,0,0,0,0,0,0,1
"13","Cabot, AR","Cabot","AR",2013,34.9768,-92.0274,0,0,0,0,0,1,0,0,0,0,0,0,0,0,0,0,0,0,0,0,0,0,0,0,0,0,0,0,0,0,0,0,0,0,0,1
"14","North Little Rock, AR","North Little Rock","AR",2013,34.7808,-92.2371,0,0,0,0,0,1,0,0,0,0,0,0,0,0,0,0,0,0,0,0,0,0,0,0,0,0,0,0,0,0,0,0,0,0,0,1
"15","Sherwood, AR","Sherwood","AR",2013,34.8508,-92.2028,0,0,0,0,0,0,0,0,0,0,0,0,0,0,0,0,0,0,0,0,0,0,0,0,0,0,0,0,0,0,0,0,0,1,0,1
"16","Fort Smith, AR","Fort Smith","AR",2013,35.3493,-94.3695,0,0,0,0,0,1,0,0,0,0,1,0,0,0,0,0,0,0,0,0,0,0,0,0,0,0,0,0,0,0,0,0,0,0,0,2
"17","Fairfield Bay, AR","Fairfield Bay","AR",2013,35.605,-92.2658,0,0,0,0,0,1,0,0,0,0,0,0,0,0,0,0,0,0,0,0,0,0,0,0,0,0,0,0,0,0,0,0,0,0,0,1
"18","Eagar, AZ","Eagar","AZ",2013,34.1058,-109.2956,0,0,0,0,0,0,0,0,0,0,0,0,0,0,1,0,0,0,0,0,0,0,0,0,0,0,0,0,0,0,0,0,0,0,0,1
"19","Avondale, AZ","Avondale","AZ",2013,33.3858,-112.3236,0,0,0,0,0,4,0,0,0,0,0,0,0,0,1,0,0,0,0,0,0,0,0,0,0,0,0,0,0,0,0,0,0,0,0,5
"20","El Mirage, AZ","El Mirage","AZ",2013,33.5905,-112.3271,0,0,0,0,0,0,0,0,0,0,0,0,0,0,0,0,0,0,0,0,0,0,0,0,0,0,0,0,0,0,0,0,0,1,0,1
"21","Gilbert, AZ","Gilbert","AZ",2013,33.3101,-111.7463,0,0,0,0,0,1,0,0,0,0,0,0,0,0,0,0,0,0,0,0,0,0,0,0,0,0,0,0,0,0,0,0,0,0,0,1
"22","Glendale, AZ","Glendale","AZ",2013,33.5791,-112.2311,0,0,0,0,0,2,0,0,0,0,1,0,0,0,0,2,0,1,0,0,0,0,0,0,0,0,0,1,0,0,0,0,0,0,0,7
"23","Goodyear, AZ","Goodyear","AZ",2013,33.2613,-112.3622,0,0,0,0,0,0,0,0,0,0,1,0,0,0,0,0,0,0,1,0,0,0,0,0,0,0,0,0,0,0,0,0,0,0,0,2
"24","Mesa, AZ","Mesa","AZ",2013,33.4017,-111.718,0,0,0,0,0,1,0,0,0,0,0,0,0,0,0,0,0,0,0,0,0,0,0,0,1,0,0,0,0,0,0,0,0,0,0,2
"25","Phoenix, AZ","Phoenix","AZ",2013,33.5722,-112.0891,0,0,1,0,0,41,0,0,0,0,18,0,0,0,17,3,0,9,4,1,0,1,0,2,4,0,0,10,3,1,0,0,0,8,0,123
"26","Scottsdale, AZ","Scottsdale","AZ",2013,33.6872,-111.8651,0,0,0,0,0,0,0,0,0,0,0,0,0,0,1,0,0,1,0,0,0,0,0,0,0,0,0,0,0,0,0,0,0,0,0,2
"27","Tempe, AZ","Tempe","AZ",2013,33.3881,-111.9318,0,0,0,0,0,1,0,0,0,0,1,0,0,0,0,0,0,0,1,0,0,0,0,0,0,0,0,0,0,0,0,0,0,0,0,3
"28","Tucson, AZ","Tucson","AZ",2013,32.1545,-110.8782,0,0,0,0,1,11,0,1,0,0,3,0,0,0,1,2,0,2,2,0,0,0,0,0,0,0,0,0,1,0,0,0,0,2,0,26
"29","Apache Junction, AZ","Apache Junction","AZ",2013,33.3985,-111.5351,0,0,0,0,0,2,0,0,0,0,0,0,0,0,0,0,0,0,0,0,0,1,0,0,0,0,0,0,0,0,0,0,0,0,0,3
"30","Maricopa, AZ","Maricopa","AZ",2013,33.0404,-112.0006,0,0,0,0,0,1,0,0,0,0,0,0,0,0,0,0,0,0,0,0,0,0,0,0,0,0,0,0,0,0,0,0,0,0,0,1
"31","Prescott, AZ","Prescott","AZ",2013,34.585,-112.4475,0,0,0,0,0,0,0,0,0,0,0,0,0,0,1,0,0,0,0,0,0,0,0,0,0,0,0,0,0,0,0,0,0,0,0,1
"32","Yuma, AZ","Yuma","AZ",2013,32.5992,-114.5488,0,0,0,0,0,1,0,0,0,0,0,0,0,0,1,1,0,1,0,0,0,0,0,0,1,0,0,2,0,1,1,0,0,2,0,11
"33","Alameda, CA","Alameda","CA",2013,37.767,-122.2672,0,0,0,0,0,0,0,0,0,0,0,0,0,0,0,0,0,1,0,0,0,0,0,0,0,0,0,0,0,0,0,0,0,0,0,1
"34","Berkeley, CA","Berkeley","CA",2013,37.8723,-122.276,0,0,0,0,0,6,0,0,0,0,1,0,0,0,0,0,0,1,1,2,0,0,0,0,0,0,0,1,0,0,0,0,0,1,0,13
"35","Emeryville, CA","Emeryville","CA",2013,37.8382,-122.2932,0,0,0,0,0,1,0,0,0,0,0,0,0,0,0,0,0,0,0,0,0,0,0,0,0,0,0,0,0,0,0,0,0,0,0,1
"36","Hayward, CA","Hayward","CA",2013,37.6328,-122.0772,0,0,0,0,0,0,0,0,0,0,1,0,0,0,0,0,0,0,0,0,0,0,0,0,1,0,0,0,0,0,0,0,0,0,0,2
"37","Livermore, CA","Livermore","CA",2013,37.6862,-121.7608,0,0,0,0,0,0,0,0,0,0,0,0,0,0,1,0,0,0,0,0,0,0,0,0,0,0,0,0,0,0,0,0,0,0,0,1
"38","Newark, CA","Newark","CA",2013,37.5204,-122.0312,0,0,0,0,0,1,0,0,0,0,0,0,0,0,1,0,0,0,0,0,0,0,0,1,0,0,0,0,0,0,0,0,0,0,0,3
"39","Oakland, CA","Oakland","CA",2013,37.7903,-122.2165,0,0,1,0,0,1,0,0,0,0,1,0,2,0,2,1,0,0,0,1,0,0,0,0,0,0,0,0,0,0,0,0,0,2,0,11
"40","San Leandro, CA","San Leandro","CA",2013,37.7071,-122.1601,1,0,0,0,0,1,0,0,0,0,1,0,0,0,1,0,0,0,0,0,0,0,0,1,0,0,0,0,0,0,0,0,0,0,0,5
"41","Union City, CA","Union City","CA",2013,37.603,-122.0187,0,0,0,0,0,1,0,0,0,0,0,0,0,0,1,0,0,0,0,0,0,0,0,0,0,0,0,3,0,0,0,0,0,0,0,5
"42","Chico, CA","Chico","CA",2013,39.7575,-121.8152,0,0,0,0,0,1,0,3,0,0,0,0,0,0,0,0,0,0,0,0,0,0,0,0,0,0,0,0,0,0,0,0,0,0,0,4
"43","Gridley, CA","Gridley","CA",2013,39.3622,-121.6971,0,0,0,0,0,0,0,0,0,0,0,0,0,0,0,0,0,0,0,0,0,0,0,0,0,0,0,1,0,0,0,0,0,0,0,1
"44","Oroville, CA","Oroville","CA",2013,39.4999,-121.5634,0,0,0,0,1,1,0,0,0,0,0,0,0,0,0,0,0,0,0,0,0,0,0,0,0,0,0,0,0,0,0,0,0,0,0,2
"45","Antioch, CA","Antioch","CA",2013,37.9789,-121.7958,0,0,0,0,0,2,0,0,0,0,0,0,0,0,0,0,0,0,0,0,0,0,0,0,0,0,0,0,0,0,0,0,0,0,0,2
"46","Brentwood, CA","Brentwood","CA",2013,37.9355,-121.7191,0,0,0,0,0,4,0,0,0,0,0,0,0,0,0,0,0,0,0,0,0,0,0,0,0,0,0,0,0,0,0,0,0,0,0,4
"47","Concord, CA","Concord","CA",2013,37.9722,-122.0016,0,0,0,0,0,1,0,0,0,0,0,0,0,0,0,0,0,0,0,0,0,0,0,0,0,0,0,0,0,0,0,0,0,0,0,1
"48","El Cerrito, CA","El Cerrito","CA",2013,37.9197,-122.3025,0,0,0,0,0,0,0,0,0,0,0,0,1,0,0,2,0,0,0,0,0,0,0,0,0,0,0,4,0,0,0,0,0,0,0,7
"49","Hercules, CA","Hercules","CA",2013,38.0064,-122.2564,0,0,0,0,0,0,0,0,0,0,0,0,0,0,0,0,0,0,0,0,0,0,0,0,0,0,0,1,0,0,0,0,0,0,0,1
"50","Pinole, CA","Pinole","CA",2013,37.9931,-122.2834,0,0,0,0,0,0,0,0,0,0,0,0,0,0,0,0,0,0,0,0,0,0,0,0,0,0,0,1,0,0,0,0,0,0,0,1
"51","Richmond, CA","Richmond","CA",2013,37.9477,-122.339,0,0,0,0,0,0,0,0,0,0,2,0,0,0,0,0,0,0,0,0,0,0,0,0,0,0,0,0,0,0,0,0,0,1,0,3
"52","Walnut Creek, CA","Walnut Creek","CA",2013,37.9024,-122.0398,0,0,0,0,0,1,0,0,0,0,0,0,0,0,0,0,0,0,0,0,0,0,0,0,0,0,0,0,0,0,0,0,0,0,0,1
"53","South Lake Tahoe, CA","South Lake Tahoe","CA",2013,38.9393,-119.9828,0,0,0,0,0,0,0,0,0,0,0,0,0,0,1,0,0,0,0,0,0,0,0,0,0,0,0,0,0,0,0,0,0,0,0,1
"54","Clovis, CA","Clovis","CA",2013,36.8278,-119.6831,0,0,0,0,0,0,0,0,0,0,1,0,0,0,1,0,0,0,1,0,0,0,0,0,0,0,0,0,0,0,1,0,0,0,0,4
"55","Fresno, CA","Fresno","CA",2013,36.7831,-119.7941,0,0,0,0,0,4,0,0,0,0,1,0,0,0,0,0,0,0,1,1,0,0,0,0,0,0,0,2,0,0,0,0,1,0,0,10
"56","Eureka, CA","Eureka","CA",2013,40.7942,-124.1568,0,0,0,0,0,1,0,0,0,0,0,0,0,0,0,0,0,0,1,0,0,0,0,0,0,0,0,0,0,0,0,0,0,0,0,2
"57","Holtville, CA","Holtville","CA",2013,32.813,-115.378,0,0,0,0,0,0,0,0,0,0,0,0,0,0,0,0,0,0,0,0,0,0,0,0,0,0,0,0,1,0,0,0,0,0,0,1
"58","Bakersfield, CA","Bakersfield","CA",2013,35.3529,-119.0359,0,0,0,0,0,1,0,0,0,0,0,0,0,0,0,0,0,1,0,0,0,0,0,0,0,0,0,0,0,0,0,0,0,1,0,3
"59","Ridgecrest, CA","Ridgecrest","CA",2013,35.6308,-117.6621,0,0,0,0,0,0,0,0,0,0,1,0,0,0,0,0,0,0,0,0,0,0,0,0,0,0,0,0,0,0,0,0,0,0,0,1
"60","Taft, CA","Taft","CA",2013,35.1267,-119.4242,0,0,0,0,0,0,0,0,0,0,0,0,0,0,0,0,0,0,1,0,0,0,0,0,0,0,0,0,0,0,0,0,0,0,0,1
"61","Tehachapi, CA","Tehachapi","CA",2013,35.1274,-118.4749,0,0,1,0,0,0,0,0,0,0,0,0,0,0,1,0,0,0,0,0,0,0,0,0,0,0,0,0,0,0,0,0,0,0,0,2
"62","Corcoran, CA","Corcoran","CA",2013,36.0839,-119.561,0,0,0,0,0,1,0,0,0,0,0,0,0,0,0,0,0,0,0,0,0,0,0,0,0,0,0,0,0,0,0,0,0,0,0,1
"63","Hanford, CA","Hanford","CA",2013,36.3274,-119.6549,0,0,0,0,0,1,0,0,0,0,1,0,0,0,0,0,0,0,0,0,0,0,0,0,0,0,0,0,0,0,0,0,0,0,0,2
"64","Lemoore, CA","Lemoore","CA",2013,36.2949,-119.7983,0,0,0,0,0,1,0,0,0,0,0,0,0,0,0,0,0,0,0,0,0,0,0,0,0,0,0,0,0,0,0,0,0,0,0,1
"65","Clearlake, CA","Clearlake","CA",2013,38.959,-122.633,0,0,0,0,0,1,0,0,0,0,1,0,0,0,0,0,0,0,0,0,0,0,0,0,0,0,0,0,0,0,0,0,0,0,0,2
"66","Alhambra, CA","Alhambra","CA",2013,34.084,-118.1355,0,0,0,0,0,1,0,0,0,0,0,0,0,0,0,0,0,0,0,0,0,0,0,0,0,0,0,0,0,0,0,0,0,0,0,1
"67","Arcadia, CA","Arcadia","CA",2013,34.1342,-118.0373,0,0,0,0,0,1,0,0,0,0,0,0,0,0,0,0,0,0,0,0,0,0,0,0,0,0,0,0,0,0,0,0,0,0,0,1
"68","Azusa, CA","Azusa","CA",2013,34.1386,-117.9124,0,0,0,0,0,1,0,0,0,0,0,0,0,0,0,0,0,0,0,0,0,0,0,0,0,0,0,0,0,0,0,0,0,0,0,1
"69","Baldwin Park, CA","Baldwin Park","CA",2013,34.0829,-117.9721,0,0,0,0,0,0,0,0,0,0,1,0,0,0,0,0,0,0,0,0,0,0,0,0,0,0,0,0,0,0,0,0,0,0,0,1
"70","Westlake Village, CA","Westlake Village","CA",2013,34.1369,-118.822,0,0,0,0,0,0,0,0,0,0,0,0,0,0,0,0,0,0,0,0,0,0,0,0,0,0,0,0,2,0,0,0,0,0,0,2
"71","Beverly Hills, CA","Beverly Hills","CA",2013,34.0786,-118.4021,0,0,0,0,0,0,0,0,0,0,0,0,0,0,0,0,0,1,0,0,0,0,0,0,0,0,0,0,0,0,0,0,0,0,0,1
"72","Burbank, CA","Burbank","CA",2013,34.1879,-118.3235,0,0,0,0,0,1,0,0,0,0,0,0,0,0,1,0,0,1,1,1,0,0,0,0,0,0,0,0,0,0,0,0,0,0,0,5
"73","Claremont, CA","Claremont","CA",2013,34.1259,-117.7153,0,0,0,0,0,0,0,1,0,0,1,0,0,0,0,0,0,0,0,0,0,0,0,0,0,0,0,0,0,0,0,0,0,1,0,3
"74","Compton, CA","Compton","CA",2013,33.893,-118.2275,0,0,0,0,0,1,0,0,0,0,0,0,0,0,0,0,0,0,1,0,0,0,0,0,0,0,0,0,0,0,0,0,0,0,0,2
"75","Covina, CA","Covina","CA",2013,34.0903,-117.8817,0,0,0,0,0,0,0,0,0,0,0,0,0,0,0,0,0,0,1,0,0,0,0,0,0,0,0,0,0,0,2,0,0,0,0,3
"76","Cerritos, CA","Cerritos","CA",2013,33.8677,-118.0686,0,0,1,0,0,2,0,0,0,0,0,0,0,0,0,0,0,0,0,0,0,0,0,0,0,0,0,0,0,0,0,0,0,0,0,3
"77","Agoura Hills, CA","Agoura Hills","CA",2013,34.151,-118.7608,0,0,0,0,0,2,0,0,0,0,0,0,0,0,0,0,0,0,0,0,0,0,0,0,0,0,0,0,0,0,0,0,0,0,0,2
"78","West Hollywood, CA","West Hollywood","CA",2013,34.0882,-118.3718,0,0,1,0,0,0,0,0,0,0,0,0,0,0,1,0,0,0,0,2,0,0,0,0,0,0,0,1,0,0,0,0,0,0,0,5
"79","Santa Clarita, CA","Santa Clarita","CA",2013,34.4175,-118.4964,0,0,0,0,0,1,0,0,0,0,2,0,0,0,0,0,0,0,0,1,0,0,0,1,0,0,0,0,0,0,0,0,0,0,0,5
"80","Duarte, CA","Duarte","CA",2013,34.161,-117.9504,0,0,0,0,0,1,0,0,0,0,1,0,0,0,0,0,0,0,0,0,0,0,0,0,0,0,0,0,0,0,0,0,0,0,0,2
"81","El Monte, CA","El Monte","CA",2013,34.0739,-118.0291,0,0,0,0,0,4,0,0,0,0,0,0,0,0,0,0,0,0,0,0,0,0,0,1,0,0,0,0,0,0,0,0,0,0,0,5
"82","Glendale, CA","Glendale","CA",2013,34.1818,-118.2468,0,0,0,0,0,1,0,0,0,0,0,0,0,0,0,0,0,0,0,0,0,0,0,0,0,0,0,0,0,0,0,0,0,0,0,1
"83","Glendora, CA","Glendora","CA",2013,34.1449,-117.8468,0,0,0,0,0,1,0,0,0,0,0,0,0,0,0,0,0,0,0,0,0,0,0,0,0,0,0,0,0,0,0,0,0,0,0,1
"84","Hawaiian Gardens, CA","Hawaiian Gardens","CA",2013,33.8303,-118.0728,0,0,0,0,0,4,0,0,0,0,0,0,0,0,0,0,0,0,0,0,0,0,0,0,0,0,0,0,0,0,0,0,0,0,0,4
"85","Calabasas, CA","Calabasas","CA",2013,34.1375,-118.6689,0,0,0,0,0,0,0,0,0,0,0,0,0,0,0,0,0,2,0,0,0,0,0,0,0,0,0,0,0,0,0,0,0,0,0,2
"86","Malibu, CA","Malibu","CA",2013,34.0368,-118.7845,0,0,0,0,0,1,0,0,0,0,0,0,0,0,0,0,0,0,0,0,0,0,0,0,0,0,0,0,0,0,0,0,0,0,0,1
"87","Lakewood, CA","Lakewood","CA",2013,33.8471,-118.1221,0,0,0,0,0,2,0,0,0,0,0,0,0,0,0,0,0,0,0,0,0,0,0,0,0,0,0,0,0,0,0,0,0,0,0,2
"88","La Mirada, CA","La Mirada","CA",2013,33.9025,-118.0093,0,0,0,0,0,1,0,0,0,0,0,0,0,0,0,0,0,1,0,0,0,0,0,0,0,0,0,0,1,0,0,0,0,0,0,3
"89","Lomita, CA","Lomita","CA",2013,33.7933,-118.3175,0,0,0,0,0,0,0,0,0,0,0,0,0,0,0,0,0,0,0,0,0,0,0,0,0,0,0,1,0,0,0,0,0,0,0,1
"90","Long Beach, CA","Long Beach","CA",2013,33.7981,-118.1675,0,0,1,0,0,2,0,0,0,0,1,0,0,0,0,0,0,0,0,0,0,0,0,0,0,0,0,0,1,0,0,0,0,0,0,5
"91","Los Angeles, CA","Los Angeles","CA",2013,34.1139,-118.4068,0,0,1,0,0,36,0,0,0,0,9,0,0,0,6,2,0,23,7,17,0,0,0,0,0,0,0,3,3,0,0,0,2,4,0,113
"92","Lynwood, CA","Lynwood","CA",2013,33.924,-118.2017,0,0,0,0,0,1,0,0,0,0,0,0,0,0,0,0,0,0,0,0,0,0,0,0,0,0,0,0,0,0,0,0,0,0,0,1
"93","Manhattan Beach, CA","Manhattan Beach","CA",2013,33.8895,-118.3972,0,0,0,0,0,1,0,0,0,0,0,0,0,0,0,0,0,0,0,0,0,0,0,0,0,0,0,0,0,0,0,0,0,0,0,1
"94","Norwalk, CA","Norwalk","CA",2013,33.9069,-118.0829,0,0,0,0,0,4,0,0,0,0,0,0,0,0,0,0,0,1,0,0,0,0,0,0,0,0,0,0,0,0,0,0,0,0,0,5
"95","Palmdale, CA","Palmdale","CA",2013,34.5944,-118.1057,0,0,0,0,0,4,0,1,0,0,2,0,0,0,0,0,0,0,0,1,0,0,0,0,0,0,0,0,0,0,0,0,0,0,0,8
"96","Paramount, CA","Paramount","CA",2013,33.8976,-118.1652,0,0,0,0,0,2,0,0,0,0,0,0,0,0,0,0,0,0,0,0,0,0,0,0,0,0,0,0,0,0,0,0,0,0,0,2
"97","Pasadena, CA","Pasadena","CA",2013,34.1597,-118.139,0,0,0,0,0,1,0,0,0,0,0,0,0,0,0,0,0,0,0,0,0,0,0,0,0,0,0,1,1,0,0,0,0,0,0,3
"98","Pico Rivera, CA","Pico Rivera","CA",2013,33.9902,-118.0888,0,0,0,0,0,0,0,0,0,0,1,0,0,0,0,0,0,0,0,0,0,0,0,0,0,0,0,1,0,0,0,0,0,0,0,2
"99","Redondo Beach, CA","Redondo Beach","CA",2013,33.8574,-118.3766,0,0,0,0,0,2,0,0,0,0,0,0,0,0,1,0,0,0,0,1,0,0,0,0,0,0,0,1,0,0,0,0,0,0,0,5
"100","Rolling Hills Estates, CA","Rolling Hills Estates","CA",2013,33.7783,-118.3509,0,0,0,0,0,1,0,0,0,0,0,0,0,0,0,0,0,0,0,0,0,0,0,0,0,0,0,0,0,0,0,0,0,0,0,1
"101","San Dimas, CA","San Dimas","CA",2013,34.1082,-117.809,0,0,0,0,0,1,0,0,0,0,0,0,0,0,0,0,0,0,0,0,0,0,0,0,0,0,0,0,0,0,0,0,0,0,0,1
"102","South Gate, CA","South Gate","CA",2013,33.9448,-118.1926,0,0,0,0,0,0,0,0,0,0,1,0,0,0,0,0,0,0,0,0,0,0,0,0,1,0,0,0,0,0,0,0,0,0,0,2
"103","Temple City, CA","Temple City","CA",2013,34.1021,-118.0579,0,0,0,0,0,0,0,0,0,0,0,0,0,0,0,1,0,0,0,0,0,0,0,0,0,0,0,0,0,0,0,0,0,0,0,1
"104","Torrance, CA","Torrance","CA",2013,33.8346,-118.3417,0,0,0,0,0,1,0,0,0,0,0,0,0,0,1,0,0,0,0,0,0,0,0,0,0,0,0,0,0,0,0,0,0,0,0,2
"105","Vernon, CA","Vernon","CA",2013,34.0019,-118.2106,0,0,0,0,0,0,0,0,0,0,0,0,0,0,0,0,0,0,0,0,0,0,0,1,0,0,0,0,0,0,0,0,0,0,0,1
"106","West Covina, CA","West Covina","CA",2013,34.0555,-117.9112,0,0,1,0,0,4,0,0,0,0,0,0,0,0,0,0,0,0,0,0,0,0,0,0,0,0,0,0,0,0,0,0,0,1,0,6
"107","Carson, CA","Carson","CA",2013,33.8374,-118.2559,0,0,0,0,0,0,0,0,0,0,0,0,0,0,0,0,0,0,0,0,0,0,0,0,0,0,0,0,0,0,0,0,0,1,0,1
"108","Rancho Palos Verdes, CA","Rancho Palos Verdes","CA",2013,33.7554,-118.3637,0,0,0,0,0,0,0,0,0,0,0,0,0,0,0,0,0,1,0,0,0,0,0,0,0,0,0,0,0,0,0,0,0,0,0,1
"109","Lancaster, CA","Lancaster","CA",2013,34.6935,-118.1753,0,0,1,0,0,1,0,0,0,0,0,0,0,0,1,1,0,0,0,0,0,0,0,0,0,0,0,0,0,0,0,0,0,1,0,5
"110","Atwater, CA","Atwater","CA",2013,37.3543,-120.5981,0,0,0,0,0,0,0,0,0,0,0,0,0,0,1,0,0,0,0,0,0,0,0,0,0,0,0,0,0,0,0,0,0,0,0,1
"111","Monterey, CA","Monterey","CA",2013,36.5922,-121.8807,0,0,0,0,0,1,0,0,0,0,1,0,0,0,0,0,0,0,0,0,0,0,0,0,0,0,0,0,0,0,0,0,0,0,0,2
"112","Pacific Grove, CA","Pacific Grove","CA",2013,36.6192,-121.9255,0,0,0,0,0,0,0,0,0,0,0,0,0,0,0,0,0,1,0,0,0,0,0,0,0,0,0,0,0,0,0,0,0,0,0,1
"113","Salinas, CA","Salinas","CA",2013,36.6884,-121.6317,0,0,0,0,0,0,0,0,0,0,0,0,0,0,1,0,0,0,1,0,0,0,0,0,0,0,0,0,0,0,0,0,0,0,0,2
"114","Buena Park, CA","Buena Park","CA",2013,33.8572,-118.0046,0,0,0,0,1,0,0,0,0,0,0,0,0,0,0,0,0,0,0,0,0,0,0,0,0,0,0,1,0,0,0,0,0,0,0,2
"115","Costa Mesa, CA","Costa Mesa","CA",2013,33.6667,-117.9135,0,0,0,0,0,1,0,0,0,0,0,0,0,0,0,0,0,0,0,0,0,0,0,0,0,0,0,0,0,0,0,0,0,0,0,1
"116","Cypress, CA","Cypress","CA",2013,33.8171,-118.0386,0,0,0,0,0,0,0,0,0,0,0,0,0,0,1,0,0,0,0,0,0,0,0,0,0,0,0,0,0,0,0,0,0,0,0,1
"117","Fullerton, CA","Fullerton","CA",2013,33.8841,-117.9279,0,0,0,0,0,0,0,0,0,0,0,0,0,0,0,0,0,1,0,1,0,0,0,0,0,0,0,0,0,0,0,0,0,0,0,2
"118","Garden Grove, CA","Garden Grove","CA",2013,33.7787,-117.9601,0,0,0,0,0,1,0,0,0,0,0,0,0,0,1,0,0,0,0,0,0,0,0,0,0,0,0,2,0,0,0,0,0,0,0,4
"119","Huntington Beach, CA","Huntington Beach","CA",2013,33.696,-118.0025,0,0,0,0,0,0,0,0,0,0,0,0,0,0,0,0,0,0,0,0,0,0,0,0,0,0,0,0,0,0,0,0,1,0,0,1
"120","Laguna Beach, CA","Laguna Beach","CA",2013,33.5448,-117.7612,0,0,0,0,0,0,0,0,0,0,1,0,0,0,0,0,0,0,0,0,0,0,0,0,0,0,0,0,0,0,0,0,0,0,0,1
"121","La Habra, CA","La Habra","CA",2013,33.9278,-117.9513,0,0,0,0,0,0,0,0,0,0,0,0,0,0,0,0,0,0,0,0,0,0,0,0,0,0,0,0,1,0,0,0,0,0,0,1
"122","Los Alamitos, CA","Los Alamitos","CA",2013,33.7972,-118.0594,0,0,0,0,0,1,0,0,0,0,0,0,0,0,0,0,0,0,0,0,0,0,0,0,0,0,0,0,0,0,0,0,0,0,0,1
"123","Newport Beach, CA","Newport Beach","CA",2013,33.6151,-117.8669,0,0,0,0,0,0,0,0,0,0,1,0,0,0,0,0,0,2,0,0,0,0,0,0,0,0,0,0,0,0,0,0,0,0,0,3
"124","Orange, CA","Orange","CA",2013,33.8038,-117.8218,0,0,0,0,0,1,0,0,0,0,1,0,0,0,0,0,0,0,0,0,0,0,0,0,0,0,0,0,1,0,0,0,0,0,0,3
"125","Placentia, CA","Placentia","CA",2013,33.8807,-117.8553,0,0,0,0,0,1,0,0,0,0,0,0,0,0,0,0,0,0,0,0,0,0,0,0,0,0,0,0,0,0,0,0,0,0,0,1
"126","Santa Ana, CA","Santa Ana","CA",2013,33.7366,-117.8819,0,0,0,0,0,0,0,0,0,0,1,0,0,0,0,0,0,0,0,0,0,0,0,0,0,0,0,0,0,0,0,0,0,0,0,1
"127","Stanton, CA","Stanton","CA",2013,33.8002,-117.9935,0,0,0,0,1,0,0,0,0,0,0,0,0,0,0,0,0,0,0,0,0,0,0,0,0,0,0,0,0,0,0,0,0,0,0,1
"128","Westminster, CA","Westminster","CA",2013,33.7523,-117.9938,0,0,0,0,0,0,0,0,0,0,1,0,0,0,1,0,0,0,0,0,0,1,0,1,0,0,0,0,1,0,0,0,0,0,0,5
"129","Yorba Linda, CA","Yorba Linda","CA",2013,33.889,-117.7714,0,0,0,0,0,1,0,0,0,0,0,0,0,0,0,0,0,0,0,0,0,0,0,0,0,0,0,0,0,0,0,0,0,0,0,1
"130","Irvine, CA","Irvine","CA",2013,33.6772,-117.7738,0,0,0,0,0,0,0,0,0,0,0,0,0,0,0,0,0,1,0,0,0,0,0,0,0,0,0,0,0,0,0,0,0,0,0,1
"131","Dana Point, CA","Dana Point","CA",2013,33.4733,-117.6968,0,0,0,0,0,0,0,0,0,0,0,0,0,0,0,1,0,0,0,0,0,0,0,0,0,0,0,0,0,0,0,0,0,0,0,1
"132","Lake Forest, CA","Lake Forest","CA",2013,33.6606,-117.6712,0,0,0,0,0,2,0,0,0,0,0,0,0,0,0,0,0,0,0,0,0,0,0,0,0,0,0,0,0,0,0,0,0,0,0,2
"133","Auburn, CA","Auburn","CA",2013,38.895,-121.0778,0,0,0,0,0,1,0,0,0,0,0,0,0,0,0,0,0,0,0,0,0,0,0,0,0,0,0,0,0,0,0,0,0,0,0,1
"134","Roseville, CA","Roseville","CA",2013,38.7703,-121.3196,0,0,0,0,0,0,0,0,0,0,1,0,0,0,0,0,0,0,0,0,0,0,0,0,0,0,0,0,0,0,0,0,0,0,0,1
"135","Banning, CA","Banning","CA",2013,33.946,-116.8992,0,0,0,0,0,0,0,0,0,0,0,0,0,0,0,0,0,0,0,0,0,0,0,0,0,0,0,1,0,0,0,0,0,0,0,1
"136","Palm Springs, CA","Palm Springs","CA",2013,33.8017,-116.5382,2,0,0,0,0,1,0,0,0,0,4,0,0,0,0,0,0,1,0,0,0,0,0,0,0,0,0,0,0,0,0,0,0,0,0,8
"137","Riverside, CA","Riverside","CA",2013,33.9381,-117.3948,0,0,0,0,0,9,0,0,0,0,1,0,0,0,1,0,0,1,0,0,0,0,0,0,0,0,0,1,0,0,0,0,1,2,0,16
"138","Corona, CA","Corona","CA",2013,33.8616,-117.5649,0,0,0,0,0,0,0,0,0,0,0,0,0,0,0,0,0,0,0,0,0,0,0,0,0,0,0,1,0,0,0,0,0,0,0,1
"139","Lake Elsinore, CA","Lake Elsinore","CA",2013,33.6847,-117.3344,0,0,0,0,0,0,0,0,0,0,0,0,0,0,0,0,0,0,0,0,0,0,0,0,0,0,0,0,2,0,0,0,0,0,0,2
"140","La Quinta, CA","La Quinta","CA",2013,33.6536,-116.2785,0,0,1,0,0,0,0,0,0,0,0,0,0,0,0,0,0,1,0,0,0,0,0,0,0,0,0,0,0,0,0,0,0,0,0,2
"141","Moreno Valley, CA","Moreno Valley","CA",2013,33.9244,-117.2045,0,0,0,0,0,1,0,0,0,0,0,0,0,0,0,0,0,0,0,0,0,0,0,0,0,0,0,0,0,0,0,0,0,0,0,1
"142","Temecula, CA","Temecula","CA",2013,33.4928,-117.1315,0,0,0,0,0,1,0,0,0,0,0,0,0,0,0,0,0,0,0,0,0,0,0,0,0,0,0,0,0,0,0,0,0,0,0,1
"143","Murrieta, CA","Murrieta","CA",2013,33.572,-117.1909,0,0,0,0,0,3,0,0,0,0,1,0,0,0,0,0,0,1,0,0,0,0,0,0,0,0,0,0,0,0,0,0,0,0,0,5
"144","Jurupa Valley, CA","Jurupa Valley","CA",2013,34.001,-117.4705,0,0,0,0,0,0,0,0,0,0,0,0,0,0,0,0,0,0,0,0,0,0,0,0,0,0,0,0,1,0,0,0,0,0,0,1
"145","Galt, CA","Galt","CA",2013,38.2693,-121.3,0,0,0,0,0,1,0,0,0,0,0,0,0,0,0,0,0,0,0,0,0,0,0,0,0,0,0,0,0,0,0,0,0,0,0,1
"146","Sacramento, CA","Sacramento","CA",2013,38.5667,-121.4683,0,0,0,0,0,5,0,0,0,0,5,0,0,0,1,1,0,1,1,0,0,0,0,0,0,0,0,1,0,0,0,0,0,1,0,16
"147","Elk Grove, CA","Elk Grove","CA",2013,38.416,-121.3842,0,0,0,0,0,1,0,0,0,0,0,0,0,0,0,0,0,0,0,0,0,0,0,0,0,0,0,0,0,0,0,0,0,0,0,1
"148","Rancho Cordova, CA","Rancho Cordova","CA",2013,38.574,-121.2523,0,0,0,0,0,1,0,0,0,0,0,0,0,0,0,0,0,0,0,0,0,0,0,0,0,0,0,0,0,0,0,0,0,0,0,1
"149","Citrus Heights, CA","Citrus Heights","CA",2013,38.6948,-121.288,0,0,0,0,0,1,0,0,0,0,0,0,0,0,0,0,0,0,0,0,0,0,0,0,0,0,0,0,0,0,0,0,0,0,0,1
"150","Chino, CA","Chino","CA",2013,33.9836,-117.6654,0,0,0,0,0,2,0,0,0,0,2,0,0,0,0,0,0,2,0,0,0,0,0,0,0,0,0,3,0,0,0,0,0,0,0,9
"151","Colton, CA","Colton","CA",2013,34.0538,-117.3254,0,0,0,0,0,1,0,0,0,0,0,0,0,0,0,0,0,0,0,0,0,0,0,0,0,0,0,0,0,0,0,0,0,0,0,1
"152","Fontana, CA","Fontana","CA",2013,34.0968,-117.4599,0,0,0,0,0,1,0,0,0,0,0,0,0,0,0,0,0,0,0,0,0,0,0,0,0,0,0,0,0,0,0,0,0,0,0,1
"153","Montclair, CA","Montclair","CA",2013,34.0714,-117.698,0,0,0,0,0,1,0,0,0,0,0,0,0,0,0,0,0,0,0,0,0,0,0,0,0,0,0,0,0,0,0,0,0,1,0,2
"154","Ontario, CA","Ontario","CA",2013,34.0393,-117.6064,0,0,0,0,0,1,0,0,0,0,0,0,0,0,0,0,0,0,0,0,0,0,0,0,0,0,0,0,0,0,0,0,0,0,0,1
"155","Redlands, CA","Redlands","CA",2013,34.0511,-117.1712,0,0,0,0,0,0,0,0,0,0,1,0,0,0,0,0,0,2,0,0,0,0,0,0,0,0,0,0,0,0,0,0,0,0,0,3
"156","San Bernardino, CA","San Bernardino","CA",2013,34.1417,-117.2946,0,0,0,0,0,1,0,0,0,0,0,0,0,0,1,0,0,0,0,0,0,0,0,0,0,0,0,0,0,0,0,0,0,1,0,3
"157","Victorville, CA","Victorville","CA",2013,34.5277,-117.3536,0,0,0,0,0,5,0,0,0,0,0,0,0,0,0,0,0,0,0,1,0,0,0,1,0,0,0,0,0,0,0,0,0,0,0,7
"158","Adelanto, CA","Adelanto","CA",2013,34.5815,-117.4397,0,0,0,0,0,1,0,0,0,0,0,0,0,0,1,0,0,0,0,0,0,0,0,0,0,0,0,0,0,0,0,0,0,0,0,2
"159","Yucca Valley, CA","Yucca Valley","CA",2013,34.1234,-116.4216,0,0,0,0,0,0,0,0,0,0,0,0,0,0,0,0,0,0,0,0,0,0,0,0,0,0,0,0,0,0,0,0,0,1,0,1
"160","Carlsbad, CA","Carlsbad","CA",2013,33.1247,-117.2837,0,0,0,0,0,1,0,0,0,0,0,0,0,0,1,1,0,0,0,0,0,0,0,0,0,0,0,0,0,0,0,0,0,0,0,3
"161","Chula Vista, CA","Chula Vista","CA",2013,32.6281,-117.0145,0,0,0,0,0,2,0,0,0,0,0,0,0,0,0,0,0,0,1,0,0,0,0,1,0,0,0,0,0,0,0,0,0,0,0,4
"162","Coronado, CA","Coronado","CA",2013,32.664,-117.16,0,0,0,0,0,0,0,0,0,0,0,0,0,0,0,0,0,1,0,0,0,0,0,0,0,0,0,0,0,0,0,0,0,0,0,1
"163","El Cajon, CA","El Cajon","CA",2013,32.8017,-116.9605,0,0,0,0,0,1,0,0,0,0,0,0,0,0,0,0,0,0,0,0,0,0,0,0,0,0,0,1,0,0,0,0,0,0,0,2
"164","Escondido, CA","Escondido","CA",2013,33.1347,-117.0722,0,0,1,0,0,2,0,1,0,0,0,0,0,0,2,0,0,0,1,0,0,0,0,0,0,0,0,0,0,0,0,0,0,1,0,8
"165","Imperial Beach, CA","Imperial Beach","CA",2013,32.5689,-117.1184,0,0,0,0,0,1,0,0,0,0,0,0,0,0,0,0,0,0,0,1,0,0,0,0,0,0,0,1,0,0,0,0,0,0,0,3
"166","National City, CA","National City","CA",2013,32.6654,-117.0983,0,0,0,0,0,1,0,0,0,0,1,0,0,0,0,0,0,0,0,0,0,0,0,0,0,0,0,0,0,0,0,0,0,1,0,3
"167","Oceanside, CA","Oceanside","CA",2013,33.2247,-117.3083,0,0,0,0,0,3,0,0,0,0,1,0,0,0,1,0,0,1,0,0,0,0,0,1,0,0,0,0,0,0,0,0,0,1,0,8
"168","San Diego, CA","San Diego","CA",2013,32.8312,-117.1225,0,0,1,0,0,13,0,1,0,0,0,0,0,0,1,7,0,3,1,11,0,0,0,1,0,0,0,0,1,0,0,0,0,3,0,43
"169","Vista, CA","Vista","CA",2013,33.1896,-117.2386,0,0,0,0,0,1,0,0,0,0,0,0,0,0,0,0,0,0,0,1,0,0,0,0,0,0,0,0,0,0,0,0,0,0,0,2
"170","Lemon Grove, CA","Lemon Grove","CA",2013,32.7331,-117.0344,0,0,0,0,0,0,0,0,0,0,0,0,0,0,0,0,0,0,0,1,0,0,0,1,0,0,0,0,0,0,0,0,0,0,0,2
"171","Santee, CA","Santee","CA",2013,32.8554,-116.9851,0,0,0,0,0,1,0,0,0,0,0,0,0,0,1,0,0,0,0,1,0,0,0,0,0,0,0,0,0,0,0,0,0,0,0,3
"172","Encinitas, CA","Encinitas","CA",2013,33.049,-117.2613,0,0,0,0,0,1,0,0,0,0,0,0,0,0,1,0,0,1,0,0,0,0,0,1,0,0,0,0,0,0,0,0,0,0,0,4
"173","San Francisco, CA","San Francisco","CA",2013,37.7562,-122.443,0,0,4,0,0,1,0,0,0,0,12,0,0,0,0,0,0,2,0,1,0,0,0,0,0,0,0,1,1,0,0,0,0,2,0,24
"174","Lodi, CA","Lodi","CA",2013,38.1218,-121.2932,0,0,0,0,0,0,0,0,0,0,0,0,0,0,1,0,0,0,0,0,0,0,0,0,0,0,0,1,0,0,0,0,0,0,0,2
"175","Manteca, CA","Manteca","CA",2013,37.7927,-121.2264,0,0,0,0,0,1,0,0,0,0,1,0,0,0,0,1,0,0,0,0,0,0,0,0,0,0,0,0,0,0,0,0,0,0,0,3
"176","Stockton, CA","Stockton","CA",2013,37.9765,-121.3109,0,0,0,0,0,1,0,0,0,0,0,0,0,0,0,0,0,0,0,1,0,0,0,0,0,0,0,0,0,0,0,0,0,0,0,2
"177","Tracy, CA","Tracy","CA",2013,37.7269,-121.4522,0,0,0,0,0,4,0,0,0,0,1,0,0,0,1,0,0,0,0,0,0,0,0,0,0,0,0,0,0,0,0,0,0,0,0,6
"178","San Luis Obispo, CA","San Luis Obispo","CA",2013,35.2669,-120.6691,0,0,1,0,0,0,0,0,0,0,1,0,0,0,0,0,0,0,0,0,0,0,0,0,0,0,0,0,0,0,0,0,0,0,0,2
"179","Atascadero, CA","Atascadero","CA",2013,35.4827,-120.6858,0,0,0,0,0,1,0,0,0,0,0,0,0,0,0,0,0,0,0,0,0,0,0,0,0,0,0,1,0,0,0,0,0,0,0,2
"180","Daly City, CA","Daly City","CA",2013,37.6862,-122.4685,0,0,0,0,0,0,0,0,0,0,1,0,0,0,0,1,0,0,0,0,0,0,0,0,0,0,0,0,1,0,0,0,0,0,0,3
"181","Pacifica, CA","Pacifica","CA",2013,37.6112,-122.4781,0,0,0,0,0,0,0,0,0,0,0,0,0,0,0,0,0,0,0,0,0,0,0,0,0,0,0,0,1,0,0,0,0,0,0,1
"182","Redwood City, CA","Redwood City","CA",2013,37.5026,-122.2252,0,0,0,0,0,0,0,0,0,0,0,0,0,0,0,0,0,1,0,0,0,0,0,0,0,0,0,0,0,0,0,0,0,0,0,1
"183","San Mateo, CA","San Mateo","CA",2013,37.5521,-122.3122,0,0,0,0,0,0,0,0,0,0,1,0,0,0,0,0,0,0,0,0,0,0,0,0,0,0,0,0,0,0,0,0,0,0,0,1
"184","Foster City, CA","Foster City","CA",2013,37.5553,-122.2659,0,0,0,0,0,1,0,0,0,0,0,0,0,0,0,0,0,0,0,0,0,0,0,0,0,0,0,0,0,0,0,0,0,0,0,1
"185","Santa Barbara, CA","Santa Barbara","CA",2013,34.4285,-119.7202,0,0,0,0,0,1,0,0,0,0,0,0,0,0,0,0,0,0,1,0,0,0,0,0,0,0,0,0,0,0,0,0,0,0,0,2
"186","Santa Maria, CA","Santa Maria","CA",2013,34.9334,-120.4432,0,0,0,0,0,0,0,0,0,0,0,0,0,0,0,0,0,0,0,1,0,0,0,0,0,0,0,0,0,0,0,0,0,0,0,1
"187","Campbell, CA","Campbell","CA",2013,37.2802,-121.9538,0,0,0,0,0,1,0,0,0,0,0,0,0,0,0,0,0,0,0,0,0,0,0,0,0,0,0,0,0,0,0,0,0,0,0,1
"188","Cupertino, CA","Cupertino","CA",2013,37.3168,-122.0465,0,0,0,0,0,0,0,0,0,0,0,1,0,0,0,0,0,0,0,0,0,0,0,0,0,0,0,0,0,0,0,0,0,0,0,1
"189","Gilroy, CA","Gilroy","CA",2013,37.0047,-121.5855,0,0,0,0,0,0,0,0,0,0,0,0,0,0,0,0,0,0,0,2,0,0,0,0,0,0,0,0,0,0,0,0,0,0,0,2
"190","Los Gatos, CA","Los Gatos","CA",2013,37.2303,-121.956,0,0,1,0,0,1,0,0,0,0,0,0,0,0,0,0,0,0,0,0,0,0,0,0,0,0,0,0,0,0,0,0,0,0,0,2
"191","Milpitas, CA","Milpitas","CA",2013,37.4339,-121.8921,0,0,0,0,0,1,0,0,0,0,0,0,0,0,0,0,0,0,0,0,0,0,0,0,0,0,0,0,0,0,0,0,0,0,0,1
"192","Morgan Hill, CA","Morgan Hill","CA",2013,37.1326,-121.6417,0,0,0,0,0,0,0,0,0,0,0,0,0,0,0,0,0,1,0,0,0,0,0,0,0,0,0,0,0,0,0,0,0,0,0,1
"193","Palo Alto, CA","Palo Alto","CA",2013,37.3913,-122.1468,0,0,0,0,0,0,0,0,0,0,0,0,0,0,1,0,0,0,0,0,0,0,0,0,0,0,0,0,0,0,0,0,0,0,0,1
"194","San Jose, CA","San Jose","CA",2013,37.3019,-121.8486,0,0,1,0,0,4,0,0,0,0,5,0,0,0,0,0,0,1,1,0,0,0,0,0,0,0,0,1,1,0,0,0,0,1,0,15
"195","Santa Clara, CA","Santa Clara","CA",2013,37.3645,-121.968,0,0,0,0,0,0,0,0,0,0,0,0,0,0,0,0,0,0,0,2,0,0,0,0,0,0,0,0,0,0,0,0,0,0,0,2
"196","Saratoga, CA","Saratoga","CA",2013,37.2684,-122.0263,0,0,0,0,0,1,0,0,0,0,0,0,0,0,0,0,0,0,0,0,0,0,0,0,0,0,0,0,0,0,0,0,0,0,0,1
"197","Sunnyvale, CA","Sunnyvale","CA",2013,37.3836,-122.0256,0,0,1,0,0,0,0,0,0,0,0,0,0,0,0,0,0,0,0,0,0,0,0,0,0,0,0,0,0,0,0,0,0,0,0,1
"198","Santa Cruz, CA","Santa Cruz","CA",2013,36.9789,-122.0346,0,0,0,0,0,1,0,0,0,0,0,0,0,0,0,0,0,0,1,0,0,0,0,0,0,0,0,0,0,0,0,0,0,0,0,2
"199","Redding, CA","Redding","CA",2013,40.5698,-122.365,0,0,0,0,0,5,0,0,0,0,0,0,0,0,2,0,0,0,0,1,0,0,0,0,0,0,0,0,0,0,0,0,0,0,0,8
"200","Fairfield, CA","Fairfield","CA",2013,38.2592,-122.0324,0,0,0,0,0,2,0,0,0,0,0,0,0,0,1,0,0,0,0,0,0,0,0,0,0,0,0,0,0,0,0,0,0,0,0,3
"201","Vallejo, CA","Vallejo","CA",2013,38.1133,-122.2358,0,0,0,0,0,0,0,0,0,0,0,0,0,0,0,0,0,0,0,0,0,0,0,0,0,0,0,1,0,0,0,0,0,1,0,2
"202","Healdsburg, CA","Healdsburg","CA",2013,38.6229,-122.8651,0,0,0,0,0,1,0,0,0,0,0,0,0,0,0,0,0,0,0,0,0,0,0,0,0,0,0,0,0,0,0,0,0,0,0,1
"203","Rohnert Park, CA","Rohnert Park","CA",2013,38.348,-122.6964,0,0,0,0,0,0,0,0,0,0,0,0,0,0,2,0,0,0,0,0,0,0,0,0,0,0,0,1,0,0,0,0,0,0,0,3
"204","Santa Rosa, CA","Santa Rosa","CA",2013,38.4458,-122.7067,0,0,0,0,0,0,0,0,0,0,2,0,0,0,0,0,0,0,0,0,0,0,0,0,1,0,0,0,0,0,0,0,0,0,0,3
"205","Modesto, CA","Modesto","CA",2013,37.6374,-121.0028,0,0,0,0,0,0,0,0,0,0,1,0,0,0,0,0,0,1,0,0,0,0,0,0,0,0,0,1,0,0,0,0,0,0,0,3
"206","Turlock, CA","Turlock","CA",2013,37.5053,-120.8588,0,0,0,0,0,1,0,0,0,0,0,0,0,0,0,0,0,0,0,0,0,0,0,0,0,0,0,0,0,0,0,0,0,0,0,1
"207","Yuba City, CA","Yuba City","CA",2013,39.1357,-121.6381,0,0,0,0,0,0,0,0,0,0,0,0,0,0,0,0,0,0,0,0,0,0,0,0,0,0,0,1,0,0,0,0,0,0,0,1
"208","Red Bluff, CA","Red Bluff","CA",2013,40.1735,-122.2413,0,0,0,0,0,2,0,0,0,0,0,0,0,0,0,0,0,0,0,1,0,0,0,0,0,0,0,0,0,0,0,0,0,0,0,3
"209","Visalia, CA","Visalia","CA",2013,36.3276,-119.3269,0,0,0,0,0,1,0,0,0,0,0,0,0,0,0,0,0,0,1,0,0,0,0,0,0,0,0,0,0,0,0,0,0,0,0,2
"210","Sonora, CA","Sonora","CA",2013,37.9819,-120.3828,0,0,0,0,0,1,0,0,0,0,0,0,0,0,0,0,0,0,0,0,0,0,0,0,0,0,0,0,0,0,0,0,0,0,0,1
"211","Camarillo, CA","Camarillo","CA",2013,34.223,-119.0322,0,0,0,0,0,2,0,0,0,0,0,0,0,0,0,0,0,1,0,0,0,0,0,0,0,0,0,0,0,0,0,0,0,0,0,3
"212","Oxnard, CA","Oxnard","CA",2013,34.1963,-119.1815,0,0,0,0,0,0,0,0,0,0,0,0,0,0,0,0,0,0,0,1,0,0,0,0,0,0,0,0,0,0,0,0,0,0,0,1
"213","Thousand Oaks, CA","Thousand Oaks","CA",2013,34.1914,-118.8755,0,0,0,0,0,0,0,0,0,0,0,0,0,0,0,0,0,0,0,0,0,0,0,0,0,0,0,0,1,0,0,0,0,0,0,1
"214","Simi Valley, CA","Simi Valley","CA",2013,34.2663,-118.749,0,0,0,0,0,0,0,0,0,0,0,0,0,0,1,0,0,1,0,0,0,0,0,1,0,0,0,0,0,0,0,0,0,0,0,3
"215","Davis, CA","Davis","CA",2013,38.5552,-121.7365,0,0,0,0,0,1,0,0,0,0,4,0,0,0,0,0,0,1,0,0,0,0,0,1,0,0,0,1,0,0,0,0,0,0,0,8
"216","Aurora, CO","Aurora","CO",2013,39.7087,-104.7273,2,0,0,0,0,2,0,0,0,0,1,0,0,0,2,0,0,0,0,0,0,0,0,0,0,0,0,0,0,0,0,0,0,0,0,7
"217","Commerce City, CO","Commerce City","CO",2013,39.8642,-104.8434,0,0,0,1,0,0,0,0,0,0,0,0,0,0,0,0,0,0,0,0,0,0,0,0,0,0,0,0,0,0,0,0,0,0,0,1
"218","Thornton, CO","Thornton","CO",2013,39.9197,-104.9438,0,0,0,0,0,0,0,0,0,0,1,0,0,0,0,0,0,0,1,0,0,0,0,0,0,0,0,0,0,0,1,0,0,0,0,3
"219","Westminster, CO","Westminster","CO",2013,39.8837,-105.0624,0,0,0,0,0,0,0,0,0,0,0,0,0,0,0,0,0,0,0,1,0,0,0,0,0,0,0,0,0,0,0,0,0,0,0,1
"220","Englewood, CO","Englewood","CO",2013,39.6468,-104.9942,0,0,0,0,0,1,0,0,0,0,0,0,0,0,0,0,0,0,0,0,0,0,0,0,0,0,0,0,0,1,0,0,0,0,0,2
"221","Littleton, CO","Littleton","CO",2013,39.5915,-105.0188,0,0,0,0,0,0,0,0,0,0,0,0,0,0,0,0,0,0,0,0,0,0,0,0,0,0,0,0,0,0,0,0,0,1,0,1
"222","Glendale, CO","Glendale","CO",2013,39.7036,-104.9352,0,0,0,0,0,0,0,0,0,0,0,0,0,0,0,0,0,0,0,0,0,0,0,0,1,0,0,0,0,0,0,0,0,0,0,1
"223","Greenwood Village, CO","Greenwood Village","CO",2013,39.6152,-104.913,0,0,0,0,0,1,0,0,0,0,0,0,0,0,0,0,0,0,0,0,0,0,0,0,0,0,0,0,0,0,0,0,0,0,0,1
"224","Centennial, CO","Centennial","CO",2013,39.5926,-104.8674,0,0,0,0,0,3,0,0,0,0,1,0,0,0,0,0,0,2,0,0,0,0,0,0,0,0,0,0,0,0,0,0,0,0,0,6
"225","Lafayette, CO","Lafayette","CO",2013,39.9949,-105.0997,0,0,1,0,0,0,0,0,0,0,0,0,0,0,1,0,0,0,0,0,0,0,0,1,0,0,0,0,0,0,0,0,0,0,0,3
"226","Longmont, CO","Longmont","CO",2013,40.1686,-105.1005,0,0,0,0,0,0,0,0,0,0,1,0,0,0,1,0,0,0,0,0,0,0,0,0,0,0,0,0,0,0,0,0,0,1,0,3
"227","Castle Rock, CO","Castle Rock","CO",2013,39.3763,-104.8535,0,0,0,0,0,0,0,0,0,0,0,0,0,0,2,0,0,0,0,0,0,0,0,0,0,0,0,0,0,0,0,0,0,0,0,2
"228","Lone Tree, CO","Lone Tree","CO",2013,39.5309,-104.871,0,0,0,0,0,0,0,0,0,0,0,0,0,0,0,0,0,0,0,1,0,0,0,0,0,0,0,0,0,0,0,0,0,0,0,1
"229","Colorado Springs, CO","Colorado Springs","CO",2013,38.8674,-104.7606,0,0,0,0,1,3,0,0,0,0,1,0,0,0,1,1,0,0,0,0,0,0,0,0,0,0,0,0,0,0,0,0,0,0,0,7
"230","Fountain, CO","Fountain","CO",2013,38.6886,-104.6829,0,0,0,0,0,2,0,0,0,0,1,0,0,0,0,0,0,0,0,0,0,0,0,0,0,0,0,0,0,0,0,0,0,0,0,3
"231","Monument, CO","Monument","CO",2013,39.0735,-104.8467,0,0,0,0,0,0,0,0,0,0,0,0,0,0,0,0,0,1,0,0,0,0,0,0,0,0,0,0,0,0,0,0,0,0,0,1
"232","Glenwood Springs, CO","Glenwood Springs","CO",2013,39.5455,-107.3346,0,0,0,0,0,0,0,0,0,0,1,0,0,0,0,0,0,0,0,0,0,0,0,0,0,0,0,0,0,0,0,0,0,0,0,1
"233","Rifle, CO","Rifle","CO",2013,39.5362,-107.7729,0,0,0,0,0,0,0,0,0,0,0,0,0,0,1,0,0,0,0,0,0,0,0,0,0,0,0,0,0,0,0,0,0,0,0,1
"234","Arvada, CO","Arvada","CO",2013,39.8321,-105.1511,0,0,0,0,0,2,0,0,0,0,0,0,0,0,0,0,0,0,0,0,0,0,0,0,0,0,0,0,0,0,0,0,0,0,0,2
"235","Golden, CO","Golden","CO",2013,39.7406,-105.2118,0,0,0,0,0,0,0,0,0,0,0,0,0,0,1,0,0,0,0,0,0,0,0,0,0,0,0,0,0,0,0,0,0,0,0,1
"236","Lakewood, CO","Lakewood","CO",2013,39.6977,-105.1168,0,0,0,0,0,0,0,0,0,0,0,0,0,0,0,0,0,0,1,0,0,0,0,1,0,0,0,1,0,0,1,0,0,0,0,4
"237","Durango, CO","Durango","CO",2013,37.2659,-107.8782,0,0,0,0,0,0,0,0,0,0,0,0,0,0,0,0,0,0,0,2,0,0,0,0,0,0,0,0,0,0,0,0,0,0,0,2
"238","Loveland, CO","Loveland","CO",2013,40.4166,-105.0623,0,0,0,0,0,1,0,0,0,0,0,0,0,0,0,0,0,0,0,0,0,0,0,0,0,0,0,0,0,0,0,0,0,0,0,1
"239","Grand Junction, CO","Grand Junction","CO",2013,39.0876,-108.5673,0,0,0,0,0,3,0,0,0,0,1,0,0,0,0,0,0,0,0,0,0,0,0,0,0,0,0,0,0,0,0,0,0,1,0,5
"240","Snowmass Village, CO","Snowmass Village","CO",2013,39.2207,-106.9386,0,0,0,0,0,1,0,0,0,0,0,0,0,0,0,0,0,0,0,0,0,0,0,0,0,0,0,0,0,0,0,0,0,0,0,1
"241","Pueblo, CO","Pueblo","CO",2013,38.2705,-104.6112,0,0,0,0,0,0,0,0,0,0,0,0,0,0,0,0,0,0,0,0,0,0,0,0,0,0,0,0,0,0,0,0,0,2,0,2
"242","Steamboat Springs, CO","Steamboat Springs","CO",2013,40.4777,-106.8243,0,0,0,0,0,0,0,0,0,0,0,0,0,0,1,0,0,0,0,0,0,0,0,0,0,0,0,0,0,0,0,0,0,0,0,1
"243","Telluride, CO","Telluride","CO",2013,37.9364,-107.8269,0,0,0,0,0,0,0,0,0,0,1,0,0,0,0,0,0,0,0,0,0,0,0,0,0,0,0,0,0,0,0,0,0,0,0,1
"244","Dillon, CO","Dillon","CO",2013,39.6213,-106.0392,0,0,0,0,0,0,0,0,0,0,0,0,0,0,1,0,0,0,0,0,0,0,0,0,0,0,0,0,0,0,0,0,0,0,0,1
"245","Greeley, CO","Greeley","CO",2013,40.4151,-104.7706,0,0,0,0,0,0,0,0,0,0,0,0,0,0,0,0,0,0,0,1,0,0,0,0,0,0,0,0,0,0,0,0,0,0,0,1
"246","Erie, CO","Erie","CO",2013,40.0403,-105.0398,0,0,0,0,0,0,0,0,0,0,0,0,0,0,0,0,0,1,0,0,0,0,0,0,0,0,0,0,0,0,0,0,0,0,0,1
"247","Denver, CO","Denver","CO",2013,39.7621,-104.8759,0,0,0,0,0,4,0,1,0,0,5,0,0,0,0,1,0,2,0,10,0,0,0,3,1,0,0,1,0,0,0,0,0,2,0,30
"248","Bridgeport, CT","Bridgeport","CT",2013,41.1918,-73.1953,0,0,0,0,0,4,0,0,0,0,2,0,0,0,3,0,0,1,0,0,0,0,0,0,0,0,0,0,0,0,0,0,0,1,0,11
"249","Danbury, CT","Danbury","CT",2013,41.4016,-73.471,0,0,0,0,0,0,0,0,0,0,1,0,0,0,1,0,0,1,0,0,0,0,0,0,0,0,0,0,0,0,0,0,0,0,0,3
"250","Derby, CT","Derby","CT",2013,41.3265,-73.0833,0,0,0,0,0,1,0,0,0,0,0,0,0,0,0,0,0,0,0,0,0,0,0,0,0,0,0,0,0,0,0,0,0,0,0,1
"251","Hartford, CT","Hartford","CT",2013,41.7661,-72.6834,0,0,0,0,0,0,0,0,0,0,1,0,0,0,0,0,0,1,1,0,0,0,0,0,0,0,0,0,0,0,0,0,0,1,0,4
"252","Meriden, CT","Meriden","CT",2013,41.5367,-72.7944,0,0,0,0,0,1,0,0,0,0,0,0,1,0,0,0,0,0,0,0,0,0,0,0,0,0,0,0,0,0,0,0,0,1,0,3
"253","Middletown, CT","Middletown","CT",2013,41.5476,-72.6549,0,0,0,0,0,3,0,0,0,0,0,0,0,0,1,0,0,0,1,0,0,0,0,0,0,0,0,0,0,0,0,0,0,2,0,7
"254","Milford, CT","Milford","CT",2013,41.2256,-73.0616,0,0,0,0,0,3,0,0,0,0,0,0,0,0,0,0,0,1,0,0,0,0,0,0,0,1,0,0,0,0,0,0,0,0,0,5
"255","New Britain, CT","New Britain","CT",2013,41.6758,-72.7862,0,0,0,0,0,0,0,0,0,0,1,0,0,0,0,0,0,0,0,0,0,0,0,0,0,0,0,0,0,0,0,0,0,0,0,1
"256","New Haven, CT","New Haven","CT",2013,41.3112,-72.9246,0,0,0,0,0,2,0,0,0,0,1,0,0,0,1,0,0,0,0,2,0,0,0,0,0,0,0,0,0,0,0,0,0,3,0,9
"257","New London, CT","New London","CT",2013,41.3502,-72.1023,0,0,0,0,0,1,0,0,0,0,1,0,0,0,0,0,0,0,1,0,0,0,0,0,0,0,0,0,0,0,0,0,0,0,0,3
"258","Norwalk, CT","Norwalk","CT",2013,41.1144,-73.4215,0,0,0,0,0,1,0,0,0,0,1,0,0,0,0,0,0,0,0,0,0,0,0,0,0,0,0,1,0,0,0,0,0,0,0,3
"259","Norwich, CT","Norwich","CT",2013,41.5495,-72.0882,0,0,0,0,0,1,0,0,0,0,0,0,0,0,0,0,0,0,0,0,0,0,0,0,0,0,0,0,0,0,0,0,0,0,0,1
"260","Stamford, CT","Stamford","CT",2013,41.1035,-73.5583,0,0,0,0,0,1,0,0,0,0,2,0,0,0,2,0,0,2,0,0,0,1,0,0,0,0,0,0,0,0,0,0,0,0,0,8
"261","Torrington, CT","Torrington","CT",2013,41.8349,-73.1281,0,0,0,0,0,3,0,0,0,0,0,0,0,0,0,0,0,0,0,0,0,0,0,1,0,0,0,0,0,0,0,0,0,1,0,5
"262","Waterbury, CT","Waterbury","CT",2013,41.5583,-73.0361,0,0,0,0,0,6,0,0,0,0,0,0,0,0,0,0,0,0,0,0,0,0,0,0,0,0,0,0,0,0,0,0,0,0,0,6
"263","West Haven, CT","West Haven","CT",2013,41.2739,-72.9672,0,0,0,0,0,1,0,0,0,0,0,0,0,0,0,0,0,0,0,0,0,0,0,0,0,0,0,0,0,0,0,0,0,0,0,1
"264","Willimantic, CT","Willimantic","CT",2013,41.7153,-72.2173,0,0,0,0,0,1,0,0,0,0,0,0,0,0,0,0,0,0,0,0,0,0,0,0,0,0,0,0,0,0,0,0,0,0,0,1
"265","Washington, DC","Washington","DC",2013,38.9047,-77.0163,0,0,2,0,0,5,0,1,0,0,30,0,0,0,1,0,0,4,1,0,0,0,0,1,1,0,0,2,0,0,0,0,12,10,0,70
"266","Dover, DE","Dover","DE",2013,39.161,-75.5203,0,0,0,0,0,0,0,0,0,0,1,0,0,0,0,0,0,0,0,0,0,0,0,0,0,0,0,0,0,0,0,0,0,0,0,1
"267","Smyrna, DE","Smyrna","DE",2013,39.2936,-75.6083,0,0,0,0,0,1,0,0,0,0,0,0,0,0,0,0,0,0,0,0,0,0,0,0,0,0,0,0,0,0,0,0,0,0,0,1
"268","New Castle, DE","New Castle","DE",2013,39.6685,-75.5692,0,0,0,0,0,1,0,0,0,0,0,0,0,0,0,0,0,0,0,0,0,0,0,0,0,0,0,0,0,0,0,0,0,0,0,1
"269","Milford, DE","Milford","DE",2013,38.9091,-75.4224,0,0,0,0,0,1,0,0,0,0,1,0,0,0,0,0,0,0,0,0,0,0,0,0,0,0,0,0,0,0,0,0,0,0,0,2
"270","Milton, DE","Milton","DE",2013,38.7751,-75.3104,0,0,0,0,0,1,0,0,0,0,0,0,0,0,0,0,0,0,0,0,0,0,0,0,0,0,0,0,0,0,0,0,0,0,0,1
"271","Seaford, DE","Seaford","DE",2013,38.6538,-75.611,0,0,0,0,0,1,0,0,0,0,0,0,0,0,0,0,0,0,0,0,0,0,0,0,0,0,0,0,0,0,0,0,0,0,0,1
"272","Gainesville, FL","Gainesville","FL",2013,29.6804,-82.3458,0,0,0,0,0,2,0,0,0,0,0,0,1,0,0,0,0,0,0,0,0,0,0,0,0,0,0,0,0,0,0,0,0,1,0,4
"273","Panama City, FL","Panama City","FL",2013,30.1995,-85.6004,0,0,0,0,0,2,0,0,0,0,0,0,0,0,0,0,0,0,0,0,0,0,0,0,0,0,0,0,0,0,0,0,0,0,0,2
"274","Melbourne, FL","Melbourne","FL",2013,28.1085,-80.6627,0,0,0,0,0,1,0,0,0,0,0,0,0,0,0,1,0,0,0,0,0,0,0,0,0,0,0,0,0,0,0,0,0,0,0,2
"275","Palm Bay, FL","Palm Bay","FL",2013,27.955,-80.6627,0,0,0,0,0,0,0,0,0,0,0,0,0,0,0,0,0,0,0,0,0,0,0,0,0,0,0,1,1,0,0,0,0,0,0,2
"276","Hallandale Beach, FL","Hallandale Beach","FL",2013,25.9854,-80.1423,0,0,0,0,0,1,0,0,0,0,0,0,0,0,0,0,0,0,0,1,0,0,0,0,0,0,0,0,0,0,0,0,0,1,0,3
"277","Pompano Beach, FL","Pompano Beach","FL",2013,26.2428,-80.1312,0,0,0,0,0,0,0,1,0,0,0,0,0,0,0,0,0,0,0,0,0,0,0,0,0,0,0,1,0,0,0,0,0,1,0,3
"278","Pembroke Pines, FL","Pembroke Pines","FL",2013,26.0128,-80.3382,0,0,0,0,0,0,0,0,0,0,0,0,0,0,0,0,0,0,0,0,0,0,0,0,0,0,0,1,0,0,0,0,0,0,0,1
"279","Davie, FL","Davie","FL",2013,26.0789,-80.287,0,0,0,0,0,2,0,0,0,0,0,0,0,0,0,0,0,1,0,0,0,0,0,0,0,0,0,1,0,0,2,0,0,0,0,6
"280","Miramar, FL","Miramar","FL",2013,25.9773,-80.3351,0,0,0,0,0,0,0,0,0,0,0,0,0,0,0,0,0,0,0,1,0,0,0,0,0,0,0,0,0,0,0,0,0,0,0,1
"281","Sunrise, FL","Sunrise","FL",2013,26.1547,-80.2997,0,0,0,0,0,1,0,0,0,0,0,0,0,0,0,0,0,0,0,0,0,0,0,0,0,0,0,0,0,0,0,0,0,0,0,1
"282","Parkland, FL","Parkland","FL",2013,26.3218,-80.2533,0,0,0,0,0,1,0,0,0,0,0,0,0,0,0,0,0,0,0,0,0,0,0,0,0,0,0,0,0,0,0,0,0,0,0,1
"283","Weston, FL","Weston","FL",2013,26.1006,-80.4054,0,0,0,0,0,0,0,0,0,0,0,0,0,0,0,0,0,0,0,0,0,0,0,0,0,0,0,0,0,0,0,0,0,1,0,1
"284","Homestead, FL","Homestead","FL",2013,25.4665,-80.4472,0,0,0,0,0,1,0,0,0,0,0,0,0,0,0,0,0,0,0,1,0,0,0,0,0,0,0,0,0,0,0,0,0,1,0,3
"285","Miami Beach, FL","Miami Beach","FL",2013,25.8171,-80.1396,0,0,0,0,0,0,0,0,0,0,0,0,0,0,0,0,0,1,0,2,0,0,0,0,0,0,0,0,1,0,1,0,0,0,0,5
"286","North Miami Beach, FL","North Miami Beach","FL",2013,25.9302,-80.166,0,0,0,0,0,0,0,0,0,0,0,0,0,0,0,0,0,0,0,1,0,0,0,0,0,0,0,0,0,0,0,0,0,0,0,1
"287","North Miami, FL","North Miami","FL",2013,25.9007,-80.1686,0,0,0,0,0,2,0,0,0,0,0,0,0,0,0,0,0,0,0,3,0,0,0,0,0,0,0,0,1,0,0,0,0,0,0,6
"288","Miami Gardens, FL","Miami Gardens","FL",2013,25.9433,-80.2426,0,0,0,0,0,0,0,0,0,0,0,0,0,0,0,0,0,0,0,1,0,0,0,0,0,0,0,0,0,0,0,0,0,0,0,1
"289","Jacksonville, FL","Jacksonville","FL",2013,30.3322,-81.6749,0,0,0,0,0,4,0,0,0,0,0,0,0,0,0,0,0,0,0,0,0,0,0,0,0,0,0,0,0,0,0,0,0,3,0,7
"290","Pensacola, FL","Pensacola","FL",2013,30.4427,-87.1886,0,0,0,0,0,0,0,0,0,0,0,0,0,0,0,0,0,0,0,1,0,0,0,0,0,0,0,0,0,0,0,0,0,0,0,1
"291","Leesburg, FL","Leesburg","FL",2013,28.7657,-81.8996,0,0,0,0,0,1,0,0,0,0,0,0,0,0,0,0,0,0,0,0,0,0,0,0,0,0,0,0,0,0,0,0,0,0,0,1
"292","Tallahassee, FL","Tallahassee","FL",2013,30.4551,-84.2526,0,0,0,0,0,2,0,0,0,0,0,0,0,0,0,0,0,0,0,0,0,0,0,0,0,0,0,0,0,0,0,0,0,0,0,2
"293","Key West, FL","Key West","FL",2013,24.5637,-81.7768,0,0,0,0,0,2,0,0,0,0,0,0,0,0,0,0,0,0,0,1,0,0,0,0,0,0,0,0,0,0,0,0,0,0,0,3
"294","Orlando, FL","Orlando","FL",2013,28.4772,-81.3369,0,0,0,0,0,2,0,0,0,0,0,0,0,0,0,0,0,0,0,3,0,0,0,0,0,0,0,0,0,0,0,0,0,1,0,6
"295","Kissimmee, FL","Kissimmee","FL",2013,28.3042,-81.4164,0,0,0,0,0,0,0,0,0,0,0,0,0,0,0,0,0,0,0,1,0,0,0,0,0,0,0,0,0,0,0,0,0,0,0,1
"296","Delray Beach, FL","Delray Beach","FL",2013,26.455,-80.0905,0,0,0,0,0,0,0,0,0,0,0,0,0,0,0,0,0,0,0,0,0,0,0,0,0,0,0,0,0,0,0,0,0,1,0,1
"297","Jupiter, FL","Jupiter","FL",2013,26.9199,-80.1128,0,0,0,0,0,0,0,0,0,0,0,0,0,0,0,0,0,0,0,1,0,0,0,0,0,0,0,0,0,0,0,0,0,1,0,2
"298","Largo, FL","Largo","FL",2013,27.9088,-82.7711,0,0,0,0,0,1,0,0,0,0,0,0,0,0,0,0,0,0,0,1,0,0,0,0,0,0,0,0,0,0,0,0,0,0,0,2
"299","St. Petersburg, FL","St. Petersburg","FL",2013,27.7931,-82.6652,0,0,0,0,0,0,0,0,0,0,0,0,0,0,0,0,0,1,0,0,0,0,0,0,0,0,0,0,0,0,0,0,0,0,0,1
"300","Lake Alfred, FL","Lake Alfred","FL",2013,28.1041,-81.7264,0,0,0,0,0,0,0,0,0,0,0,0,0,0,0,0,0,0,0,0,0,0,0,0,0,0,0,1,0,0,0,0,0,0,0,1
"301","Port St. Lucie, FL","Port St. Lucie","FL",2013,27.2796,-80.3883,0,0,0,0,0,1,0,0,0,0,0,0,0,0,0,0,0,0,0,0,0,0,0,0,0,0,0,0,0,0,0,0,0,0,0,1
"302","Venice, FL","Venice","FL",2013,27.1163,-82.4135,0,0,0,0,0,0,0,0,0,0,0,0,0,0,0,0,0,0,0,0,0,0,0,0,1,0,0,0,0,0,1,0,0,0,0,2
"303","North Port, FL","North Port","FL",2013,27.0577,-82.1975,0,0,0,0,0,0,0,0,0,0,0,0,0,0,0,0,0,0,0,1,0,0,0,0,0,0,0,0,0,0,0,0,0,0,0,1
"304","Sanford, FL","Sanford","FL",2013,28.7893,-81.276,0,0,0,0,0,0,0,0,0,0,0,0,0,0,0,0,0,0,0,2,0,0,0,0,0,0,0,0,0,0,0,0,0,0,0,2
"305","Ponce Inlet, FL","Ponce Inlet","FL",2013,29.0927,-80.9473,0,0,0,0,0,1,0,0,0,0,0,0,0,0,0,0,0,0,0,0,0,0,0,0,0,0,0,0,0,0,0,0,0,0,0,1
"306","Villa Rica, GA","Villa Rica","GA",2013,33.7305,-84.917,0,0,0,0,0,1,0,0,0,0,0,0,0,0,0,0,0,0,0,0,0,0,0,0,0,0,0,0,0,0,0,0,0,0,0,1
"307","Conyers, GA","Conyers","GA",2013,33.6645,-83.9966,0,0,0,0,0,0,0,0,0,0,0,0,0,0,0,0,0,0,0,0,0,0,0,0,0,0,0,0,0,0,0,0,0,1,0,1
"308","Atlanta, GA","Atlanta","GA",2013,33.7627,-84.4224,0,0,0,0,0,5,0,0,0,0,12,0,0,0,0,0,0,1,0,0,0,0,0,0,0,0,0,2,0,1,0,0,0,0,0,21
"309","Waterloo, IA","Waterloo","IA",2013,42.492,-92.3522,0,0,0,0,0,0,0,0,0,0,0,0,0,0,0,0,0,0,0,0,0,0,0,0,0,0,0,0,0,0,0,0,0,1,0,1
"310","Altoona, IA","Altoona","IA",2013,41.6481,-93.4784,0,0,0,0,0,0,0,0,0,0,1,0,0,0,0,0,0,0,0,0,0,0,0,0,0,0,0,0,0,0,0,0,0,0,0,1
"311","Grinnell, IA","Grinnell","IA",2013,41.7361,-92.7244,0,0,0,0,0,0,0,0,0,0,0,0,0,0,0,0,0,0,0,1,0,0,0,0,0,0,0,0,0,0,0,0,0,0,0,1
"312","Ames, IA","Ames","IA",2013,42.0259,-93.6215,0,0,1,0,0,0,0,0,0,0,0,0,0,0,0,0,0,0,0,0,0,0,0,0,0,0,0,1,0,0,0,0,0,0,0,2
"313","Indianola, IA","Indianola","IA",2013,41.3629,-93.5652,0,0,0,0,0,0,0,0,0,0,0,0,0,0,0,0,0,1,0,0,0,0,0,0,0,0,0,0,0,0,0,0,0,0,0,1
"314","Boise, ID","Boise","ID",2013,43.6007,-116.2312,0,0,0,0,0,8,0,0,0,0,3,0,0,0,0,0,0,0,0,1,0,0,0,0,0,0,0,0,0,0,1,0,0,0,0,13
"315","Chubbuck, ID","Chubbuck","ID",2013,42.9261,-112.4624,0,0,0,0,0,0,0,0,0,0,0,0,0,0,0,0,0,0,0,0,0,0,0,0,0,0,0,0,3,0,0,0,0,0,0,3
"316","Montpelier, ID","Montpelier","ID",2013,42.326,-111.2988,0,0,0,0,0,1,0,0,0,0,0,0,0,0,0,0,0,0,0,0,0,0,0,0,0,0,0,0,0,0,0,0,0,0,0,1
"317","Hailey, ID","Hailey","ID",2013,43.5141,-114.3,0,0,0,0,0,0,0,0,0,0,0,0,0,0,1,0,0,0,0,0,0,0,0,0,0,0,0,0,0,0,0,0,0,0,0,1
"318","Caldwell, ID","Caldwell","ID",2013,43.6453,-116.6591,0,0,0,0,0,0,0,0,0,0,0,0,0,0,0,0,0,0,0,0,0,0,0,1,0,0,0,0,0,0,0,0,0,0,0,1
"319","Nampa, ID","Nampa","ID",2013,43.5845,-116.5631,1,0,0,0,0,2,0,0,0,0,0,0,0,0,1,0,0,0,0,0,0,0,0,0,0,0,0,0,0,0,0,0,0,0,0,4
"320","Coeur d'Alene, ID","Coeur d'Alene","ID",2013,47.7041,-116.7935,0,0,1,0,0,0,0,0,0,0,0,0,0,0,0,0,0,0,0,0,0,0,0,1,0,0,0,0,0,0,0,0,0,0,0,2
"321","Payette, ID","Payette","ID",2013,44.0788,-116.9255,0,0,0,0,0,0,0,0,0,0,0,0,0,0,0,0,0,0,0,0,0,0,0,0,0,0,0,0,0,0,0,0,0,2,0,2
"322","Twin Falls, ID","Twin Falls","ID",2013,42.5645,-114.4615,0,0,0,0,0,1,0,0,0,0,0,0,0,0,0,0,0,0,0,0,0,0,0,0,0,0,0,0,0,0,0,0,0,0,0,1
"323","Quincy, IL","Quincy","IL",2013,39.9335,-91.3799,0,0,0,0,0,1,0,0,0,0,0,0,0,0,0,0,0,0,0,0,0,0,0,0,0,0,0,0,0,0,0,0,0,0,0,1
"324","Champaign, IL","Champaign","IL",2013,40.1144,-88.2735,0,0,0,0,0,0,0,0,0,0,0,0,0,0,0,0,0,0,0,0,0,0,0,0,0,0,0,0,0,0,0,0,0,1,0,1
"325","Urbana, IL","Urbana","IL",2013,40.1106,-88.1972,0,0,0,0,0,1,0,0,0,0,0,0,0,0,0,0,0,0,0,0,0,0,0,0,0,0,0,0,0,0,0,0,0,1,0,2
"326","Bartlett, IL","Bartlett","IL",2013,41.9803,-88.2069,0,0,0,0,0,0,0,0,0,0,0,0,0,0,1,0,0,1,0,0,0,0,0,0,0,0,0,0,0,0,0,0,0,0,0,2
"327","Berwyn, IL","Berwyn","IL",2013,41.8433,-87.7909,0,0,0,0,0,1,0,0,0,0,0,0,0,0,0,0,0,0,0,0,0,0,0,0,0,0,0,0,0,0,0,0,0,0,0,1
"328","Harvey, IL","Harvey","IL",2013,41.6076,-87.6521,0,0,0,0,0,0,0,0,0,0,0,0,0,0,0,0,0,0,0,0,0,0,0,0,0,0,0,0,0,0,0,0,0,1,0,1
"329","Skokie, IL","Skokie","IL",2013,42.0359,-87.74,0,0,0,0,0,2,0,0,0,0,0,0,0,0,0,0,0,0,0,0,0,0,0,0,0,0,0,1,0,0,0,0,0,0,0,3
"330","La Grange, IL","La Grange","IL",2013,41.8072,-87.8741,0,0,0,0,0,0,0,0,0,0,0,0,0,0,0,0,0,1,0,0,0,0,0,0,0,0,0,0,0,0,0,0,0,0,0,1
"331","DeKalb, IL","DeKalb","IL",2013,41.9313,-88.7482,0,0,0,0,0,1,0,0,0,0,0,0,0,0,0,0,0,0,0,0,0,0,0,0,0,0,0,0,0,0,0,0,0,0,0,1
"332","Carol Stream, IL","Carol Stream","IL",2013,41.9182,-88.1308,0,0,0,0,0,0,0,0,0,0,0,0,0,0,0,1,0,0,0,0,0,0,0,0,0,0,0,0,0,0,0,0,0,0,0,1
"333","Canton, IL","Canton","IL",2013,40.5632,-90.0409,0,0,0,0,0,0,0,0,0,0,0,0,0,0,0,0,0,0,0,0,0,0,0,0,0,0,0,0,1,0,0,0,0,0,0,1
"334","Aurora, IL","Aurora","IL",2013,41.7637,-88.2901,0,0,0,0,0,0,0,0,0,0,1,0,0,0,0,0,0,0,0,0,0,0,0,0,0,0,0,0,0,0,0,0,0,0,0,1
"335","St. Charles, IL","St. Charles","IL",2013,41.9193,-88.3109,0,0,0,0,0,0,0,0,0,0,1,0,0,0,1,0,0,0,0,0,0,0,0,0,0,0,0,0,0,0,0,0,0,0,0,2
"336","Dixon, IL","Dixon","IL",2013,41.8439,-89.4794,0,0,0,0,0,0,0,0,0,0,1,0,0,0,0,0,0,0,0,0,0,0,0,0,0,0,0,0,0,0,0,0,0,0,0,1
"337","Crystal Lake, IL","Crystal Lake","IL",2013,42.2333,-88.3351,0,0,0,0,0,0,0,0,0,0,0,0,0,0,0,0,0,1,0,0,0,0,0,0,0,0,0,0,0,0,0,0,0,0,0,1
"338","Normal, IL","Normal","IL",2013,40.5218,-88.9881,0,0,0,0,0,0,0,0,0,0,1,0,0,0,0,0,0,0,0,0,0,0,0,0,0,0,0,0,0,0,0,0,0,0,0,1
"339","Irving, IL","Irving","IL",2013,39.2053,-89.4054,0,0,0,0,0,1,0,0,0,0,0,0,0,0,0,0,0,0,0,0,0,0,0,0,0,0,0,0,0,0,0,0,0,0,0,1
"340","Oregon, IL","Oregon","IL",2013,42.0131,-89.3354,0,0,0,0,0,1,0,0,0,0,0,0,0,0,0,0,0,0,0,0,0,0,0,0,0,0,0,0,0,0,0,0,0,0,0,1
"341","Peoria, IL","Peoria","IL",2013,40.752,-89.6153,0,0,0,0,0,2,0,0,0,0,1,0,0,0,0,0,0,0,1,0,0,0,0,0,0,0,0,0,0,0,0,0,0,1,0,5
"342","Chester, IL","Chester","IL",2013,37.9199,-89.8259,0,0,0,0,0,0,0,0,0,0,0,0,0,0,0,0,0,0,0,0,0,0,0,0,0,0,0,0,0,0,0,0,0,1,0,1
"343","Moline, IL","Moline","IL",2013,41.4821,-90.4921,0,0,0,0,0,1,0,0,0,0,0,0,0,0,0,0,0,0,0,0,0,0,0,0,0,0,0,0,0,0,0,0,0,0,0,1
"344","Springfield, IL","Springfield","IL",2013,39.771,-89.6538,0,0,0,0,0,5,0,0,0,0,0,0,0,0,0,0,0,0,0,0,0,0,0,0,0,0,0,0,0,0,0,0,0,0,0,5
"345","Morton, IL","Morton","IL",2013,40.6136,-89.4669,0,0,0,0,0,0,0,0,0,0,1,0,0,0,0,0,0,0,0,0,0,0,0,0,0,0,0,0,0,0,0,0,0,0,0,1
"346","Pekin, IL","Pekin","IL",2013,40.5679,-89.6262,0,0,0,0,0,2,0,0,0,0,0,0,0,0,0,0,0,0,0,0,0,0,0,0,0,0,0,0,0,0,0,0,0,0,0,2
"347","Sterling, IL","Sterling","IL",2013,41.7995,-89.6956,0,0,0,0,0,0,0,0,0,0,0,0,0,0,0,0,0,0,0,1,0,0,0,0,0,0,0,0,0,0,0,0,0,0,0,1
"348","Mokena, IL","Mokena","IL",2013,41.5327,-87.8779,0,0,0,0,0,1,0,0,0,0,0,0,0,0,0,0,0,0,0,0,0,0,0,0,0,0,0,0,0,0,0,0,0,0,0,1
"349","Rockford, IL","Rockford","IL",2013,42.2597,-89.0641,0,0,0,0,0,1,0,0,0,0,0,0,0,0,0,1,0,0,0,1,0,0,0,0,0,0,0,0,0,0,0,0,0,1,0,4
"350","Roscoe, IL","Roscoe","IL",2013,42.4256,-89.0083,0,0,0,0,0,0,0,0,0,0,0,0,0,0,0,0,0,0,0,0,0,0,0,0,0,0,0,0,0,0,0,0,0,1,0,1
"351","Chicago, IL","Chicago","IL",2013,41.8373,-87.6862,0,0,3,0,0,15,0,0,0,0,11,0,0,0,1,0,0,2,6,1,0,0,0,1,0,0,0,2,0,0,0,0,0,3,0,45
"352","Fort Wayne, IN","Fort Wayne","IN",2013,41.0886,-85.1437,0,0,0,0,0,1,0,0,0,0,0,0,0,0,0,0,0,0,0,0,0,0,0,0,0,0,0,0,0,0,0,0,0,0,0,1
"353","Goshen, IN","Goshen","IN",2013,41.5743,-85.8308,0,0,0,0,1,0,0,0,0,0,0,0,0,0,0,0,0,0,0,0,0,0,0,0,0,0,0,0,0,0,0,0,0,0,0,1
"354","Franklin, IN","Franklin","IN",2013,39.4938,-86.0546,0,0,0,0,0,1,0,0,0,0,0,0,0,0,0,0,0,0,0,0,0,0,0,0,0,0,0,0,0,0,0,0,0,0,0,1
"355","Bloomington, IN","Bloomington","IN",2013,39.1637,-86.5257,0,0,1,0,0,6,0,0,0,0,2,0,0,0,0,0,0,0,0,0,0,0,0,0,0,0,0,0,0,0,0,0,0,1,0,10
"356","Mishawaka, IN","Mishawaka","IN",2013,41.6736,-86.1669,0,0,0,0,0,0,0,0,0,0,0,0,0,0,0,0,0,0,0,2,0,0,0,0,0,0,0,0,0,0,0,0,0,0,0,2
"357","South Bend, IN","South Bend","IN",2013,41.6767,-86.2696,0,0,0,0,0,0,0,0,0,0,0,0,0,0,0,0,0,0,0,1,0,0,0,0,0,0,0,0,0,0,0,0,0,2,0,3
"358","Indianapolis, IN","Indianapolis","IN",2013,39.7771,-86.1458,0,0,1,0,0,23,0,0,0,0,6,0,0,0,5,0,0,0,0,0,0,0,0,1,0,0,0,3,0,0,0,0,0,4,0,43
"359","Iola, KS","Iola","KS",2013,37.9274,-95.4006,0,0,0,0,0,1,0,0,0,0,1,0,0,0,0,0,0,0,0,0,0,0,0,0,0,0,0,0,0,0,0,0,0,0,0,2
"360","Fort Scott, KS","Fort Scott","KS",2013,37.8283,-94.7038,0,0,0,0,0,1,0,0,0,0,0,0,0,0,0,0,0,0,0,0,0,0,0,0,0,0,0,0,0,0,0,0,0,0,0,1
"361","Andover, KS","Andover","KS",2013,37.6869,-97.1354,0,0,0,0,0,0,0,0,0,0,1,0,0,0,0,0,0,1,0,0,0,0,0,0,0,0,0,0,0,0,0,0,0,0,0,2
"362","Protection, KS","Protection","KS",2013,37.2004,-99.4808,0,0,0,0,0,0,0,0,0,0,1,0,0,0,0,0,0,0,0,0,0,0,0,0,0,0,0,0,0,0,0,0,0,0,0,1
"363","Arkansas City, KS","Arkansas City","KS",2013,37.0726,-97.0385,0,0,0,0,0,1,0,0,0,0,0,0,0,0,0,0,0,0,0,0,0,0,0,0,0,0,0,0,0,0,0,0,0,1,0,2
"364","Pittsburg, KS","Pittsburg","KS",2013,37.4129,-94.6984,0,0,0,0,0,0,0,0,0,0,0,0,0,0,0,0,0,0,0,0,0,0,0,0,0,0,0,0,0,0,0,0,0,1,0,1
"365","Lawrence, KS","Lawrence","KS",2013,38.9597,-95.2641,0,0,0,0,0,2,0,0,0,0,0,0,0,0,2,1,0,1,0,1,0,0,0,0,0,0,0,0,0,0,0,0,0,3,0,10
"366","Hays, KS","Hays","KS",2013,38.8815,-99.3218,0,0,0,0,0,1,0,0,0,0,1,0,0,0,0,0,0,0,0,0,0,0,0,0,0,0,0,0,0,0,0,0,0,0,0,2
"367","Dodge City, KS","Dodge City","KS",2013,37.761,-100.0183,0,0,0,0,0,1,0,0,0,0,0,0,0,0,0,0,0,0,0,0,0,0,0,0,0,0,0,0,0,0,0,0,0,0,0,1
"368","Lenexa, KS","Lenexa","KS",2013,38.9609,-94.8018,0,0,0,0,0,1,0,0,0,0,0,0,0,0,0,0,0,0,0,0,0,0,0,0,0,0,0,0,0,0,0,0,0,0,0,1
"369","Gardner, KS","Gardner","KS",2013,38.8158,-94.93,0,0,0,0,0,0,0,0,0,0,0,0,0,0,0,0,0,0,0,0,0,0,0,0,0,0,0,0,1,0,0,0,0,0,0,1
"370","Parsons, KS","Parsons","KS",2013,37.3405,-95.2959,0,0,0,0,0,0,0,0,0,0,0,0,0,0,0,0,0,0,0,0,0,0,0,2,0,0,0,0,0,0,0,0,0,0,0,2
"371","Leavenworth, KS","Leavenworth","KS",2013,39.3239,-94.924,0,0,0,0,0,1,0,0,0,0,0,0,0,0,0,0,0,0,0,0,0,0,0,0,0,0,0,0,0,0,0,0,0,0,0,1
"372","Lansing, KS","Lansing","KS",2013,39.2428,-94.8971,0,0,0,0,0,0,0,0,0,0,0,0,0,0,0,0,0,0,0,0,0,0,0,0,0,0,0,0,0,0,0,0,0,2,0,2
"373","McPherson, KS","McPherson","KS",2013,38.3714,-97.6605,0,0,0,0,0,1,0,0,0,0,0,0,0,0,0,0,0,0,0,1,0,0,0,0,0,0,0,0,0,1,0,0,0,0,0,3
"374","Moundridge, KS","Moundridge","KS",2013,38.2028,-97.515,0,0,0,0,0,1,0,0,0,0,0,0,0,0,0,0,0,0,0,0,0,0,0,0,0,0,0,0,0,0,0,0,0,0,0,1
"375","Louisburg, KS","Louisburg","KS",2013,38.6203,-94.677,0,0,0,0,0,0,0,0,0,0,0,0,1,0,0,0,0,0,0,0,0,0,0,0,0,0,0,0,0,0,0,0,0,0,0,1
"376","Larned, KS","Larned","KS",2013,38.1834,-99.1014,0,0,0,0,0,1,0,0,0,0,0,0,0,0,0,0,0,0,0,0,0,0,0,0,0,0,0,0,0,0,0,0,0,0,0,1
"377","Pratt, KS","Pratt","KS",2013,37.6764,-98.7451,0,0,0,0,0,0,0,0,0,0,0,0,0,0,0,0,0,0,0,0,0,0,0,0,0,0,0,0,0,0,0,0,0,1,0,1
"378","Hutchinson, KS","Hutchinson","KS",2013,38.0671,-97.9081,1,0,0,0,0,1,0,0,0,0,0,0,0,0,0,0,0,0,0,0,0,0,0,1,0,0,0,0,0,0,1,0,0,0,0,4
"379","Belleville, KS","Belleville","KS",2013,39.8245,-97.6337,0,0,0,0,0,0,0,0,0,0,0,0,0,0,0,0,0,0,0,0,0,0,0,0,0,0,0,0,0,0,0,0,0,1,0,1
"380","Wichita, KS","Wichita","KS",2013,37.6896,-97.3442,0,0,1,0,0,7,0,0,0,0,1,0,0,0,1,0,0,0,0,2,0,0,0,0,0,0,0,0,0,0,0,0,0,2,0,14
"381","Cheney, KS","Cheney","KS",2013,37.6353,-97.7797,0,0,0,0,0,1,0,0,0,0,0,0,0,0,0,0,0,0,0,0,0,0,0,0,0,0,0,0,0,0,0,0,0,0,0,1
"382","Mulvane, KS","Mulvane","KS",2013,37.4788,-97.2724,0,0,0,0,0,1,0,0,0,0,0,0,0,0,0,0,0,0,0,0,0,0,0,0,0,0,0,0,0,0,0,0,0,0,0,1
"383","Florence, KY","Florence","KY",2013,38.99,-84.647,0,0,0,0,0,1,0,0,0,0,0,0,0,0,0,0,0,0,0,0,0,1,0,0,0,0,0,0,0,1,0,0,0,0,0,3
"384","Paris, KY","Paris","KY",2013,38.2016,-84.2719,0,0,0,0,0,1,0,0,0,0,0,0,0,0,0,0,0,0,0,0,0,0,0,0,0,0,0,0,0,0,0,0,0,0,0,1
"385","Ashland, KY","Ashland","KY",2013,38.4592,-82.6449,0,0,0,0,0,3,0,0,0,0,0,0,0,0,0,0,0,0,0,0,0,0,0,0,0,0,0,0,0,0,0,0,0,0,0,3
"386","Danville, KY","Danville","KY",2013,37.6418,-84.7777,0,0,0,0,0,0,0,0,0,0,1,0,0,0,0,0,0,0,0,0,0,0,0,0,0,0,0,0,0,0,0,0,0,0,0,1
"387","Shepherdsville, KY","Shepherdsville","KY",2013,37.9806,-85.6999,0,0,0,0,0,0,0,0,0,0,0,0,0,0,0,0,0,0,0,0,0,0,0,0,0,0,0,0,1,0,0,0,0,0,0,1
"388","Mount Washington, KY","Mount Washington","KY",2013,38.043,-85.5549,0,0,0,0,0,0,0,0,0,0,0,0,0,0,0,0,0,0,0,0,0,0,0,0,0,0,0,0,0,0,0,0,0,1,0,1
"389","Hillview, KY","Hillview","KY",2013,38.0563,-85.6848,0,0,0,0,0,0,0,0,0,0,1,0,0,0,0,0,0,0,0,0,0,0,0,0,0,0,0,0,0,0,0,0,0,0,0,1
"390","Murray, KY","Murray","KY",2013,36.6146,-88.3206,0,0,0,0,0,1,0,0,0,0,0,0,0,0,0,0,0,0,0,1,0,0,0,0,0,0,0,0,0,0,0,0,0,0,0,2
"391","Bellevue, KY","Bellevue","KY",2013,39.1011,-84.4776,0,0,0,0,0,0,0,0,0,0,1,0,0,0,0,0,0,0,0,0,0,0,0,0,0,0,0,0,0,0,0,0,0,0,0,1
"392","Newport, KY","Newport","KY",2013,39.0855,-84.4868,0,0,0,0,0,2,0,0,0,0,0,0,0,0,0,0,0,0,0,0,0,0,0,1,0,0,0,0,0,0,0,0,0,2,0,5
"393","Carrollton, KY","Carrollton","KY",2013,38.68,-85.1656,0,0,0,0,0,1,0,0,0,0,0,0,0,0,0,0,0,0,0,0,0,0,0,0,0,0,0,0,0,0,0,0,0,0,0,1
"394","Hopkinsville, KY","Hopkinsville","KY",2013,36.8386,-87.4776,0,0,0,0,0,1,0,0,0,0,0,0,0,0,0,0,0,0,1,0,0,0,0,0,0,0,0,0,0,0,0,0,0,0,0,2
"395","Oak Grove, KY","Oak Grove","KY",2013,36.6686,-87.4216,0,0,0,0,0,0,0,0,0,0,0,0,0,0,0,0,0,0,0,0,0,0,0,0,0,0,0,0,0,0,0,0,0,1,0,1
"396","Winchester, KY","Winchester","KY",2013,38.0017,-84.1907,0,0,0,0,0,1,0,0,0,0,0,0,0,0,0,0,0,0,0,0,0,0,0,0,0,0,0,0,0,0,0,0,0,4,0,5
"397","Burkesville, KY","Burkesville","KY",2013,36.7906,-85.3674,0,0,0,0,0,0,0,0,0,0,0,0,0,0,0,0,0,0,0,0,0,0,0,0,0,0,0,0,0,0,0,0,0,1,0,1
"398","Owensboro, KY","Owensboro","KY",2013,37.7574,-87.1173,0,0,0,0,0,2,0,0,0,0,0,0,0,0,1,0,0,0,1,0,0,0,0,0,0,0,0,0,0,0,0,0,0,0,0,4
"399","Ravenna, KY","Ravenna","KY",2013,37.6871,-83.9502,0,0,0,0,0,0,0,0,0,0,0,0,0,0,0,0,0,0,0,0,0,0,0,0,0,0,0,0,0,0,0,0,0,1,0,1
"400","Lexington, KY","Lexington","KY",2013,38.0423,-84.4587,0,0,1,0,0,9,0,0,0,0,1,0,0,0,4,0,0,0,3,1,0,1,0,1,1,0,0,0,0,0,0,0,0,5,0,27
"401","Frankfort, KY","Frankfort","KY",2013,38.1924,-84.8643,0,0,0,0,0,1,0,0,0,0,1,0,0,0,0,0,0,0,0,0,0,0,0,0,0,0,0,1,0,0,0,0,0,0,0,3
"402","Leitchfield, KY","Leitchfield","KY",2013,37.4862,-86.2857,0,0,0,0,0,0,0,0,0,0,0,0,0,0,0,0,0,0,0,0,0,0,0,0,0,0,0,0,0,0,0,0,0,1,0,1
"403","Flatwoods, KY","Flatwoods","KY",2013,38.521,-82.7195,0,0,0,0,0,1,0,0,0,0,0,0,0,0,0,0,0,0,0,0,0,0,0,0,0,0,0,0,0,0,0,0,0,0,0,1
"404","Elizabethtown, KY","Elizabethtown","KY",2013,37.703,-85.877,0,0,0,0,0,1,0,0,0,0,0,0,0,0,0,0,0,0,0,0,0,0,0,0,0,0,0,0,0,0,0,0,0,1,0,2
"405","Radcliff, KY","Radcliff","KY",2013,37.8206,-85.9366,0,0,0,0,0,0,0,0,0,0,0,0,0,0,0,0,0,0,0,0,0,0,0,0,0,0,0,0,0,0,0,0,0,2,0,2
"406","Vine Grove, KY","Vine Grove","KY",2013,37.8133,-85.9828,0,0,0,0,0,1,0,0,0,0,0,0,0,0,0,0,0,0,0,0,0,0,0,0,0,0,0,0,0,0,0,0,0,0,0,1
"407","Cynthiana, KY","Cynthiana","KY",2013,38.386,-84.2993,0,0,0,0,0,0,0,0,0,0,0,0,0,0,0,0,0,0,0,0,0,0,0,0,0,0,0,0,0,0,0,0,0,1,0,1
"408","Henderson, KY","Henderson","KY",2013,37.8397,-87.5798,0,0,0,0,0,0,0,0,0,0,0,0,0,0,0,0,0,0,0,0,0,0,0,0,0,0,0,0,0,0,0,0,0,2,0,2
"409","Madisonville, KY","Madisonville","KY",2013,37.3408,-87.5034,0,0,0,0,0,1,0,0,0,0,0,0,0,0,0,0,0,0,0,0,0,0,0,0,0,0,0,0,0,0,0,0,0,0,0,1
"410","St. Matthews, KY","St. Matthews","KY",2013,38.2497,-85.6383,0,0,0,0,0,1,0,0,0,0,0,0,0,0,0,0,0,0,0,0,0,0,0,0,0,0,0,0,0,0,0,0,0,1,0,2
"411","Shively, KY","Shively","KY",2013,38.197,-85.8136,0,0,0,0,0,0,0,0,0,0,0,0,0,0,1,0,0,0,0,0,0,0,0,0,0,0,0,0,0,0,0,0,0,0,0,1
"412","Covington, KY","Covington","KY",2013,39.0334,-84.5166,0,0,0,0,0,1,0,0,0,0,3,0,0,0,3,0,0,0,0,0,0,0,0,0,0,0,0,0,0,0,0,0,0,2,0,9
"413","Elsmere, KY","Elsmere","KY",2013,38.9949,-84.6017,0,0,0,0,0,0,0,0,0,0,0,0,0,0,0,0,0,0,0,0,0,0,0,0,0,0,0,0,0,0,0,0,0,1,0,1
"414","Ludlow, KY","Ludlow","KY",2013,39.0904,-84.5498,0,0,0,0,0,1,0,0,0,0,0,0,0,0,0,0,0,0,0,0,0,1,0,0,0,0,0,0,0,0,0,0,0,0,0,2
"415","Russellville, KY","Russellville","KY",2013,36.8393,-86.895,0,0,0,0,0,1,0,0,0,0,1,0,0,0,0,0,0,0,0,0,0,0,0,0,0,0,0,0,0,0,0,0,0,0,0,2
"416","Paducah, KY","Paducah","KY",2013,37.0711,-88.6436,0,0,0,0,0,0,0,0,0,0,0,0,0,0,0,0,0,0,0,0,0,0,0,0,0,0,0,0,0,0,0,0,0,1,0,1
"417","Berea, KY","Berea","KY",2013,37.5904,-84.2898,0,0,0,0,0,0,0,0,0,0,1,0,0,0,0,0,0,0,0,0,0,0,0,0,0,0,0,0,1,0,0,0,0,0,0,2
"418","Richmond, KY","Richmond","KY",2013,37.7306,-84.2926,0,0,0,0,0,1,0,0,0,0,0,0,0,0,0,1,0,0,0,1,0,0,0,0,0,0,0,0,0,0,0,0,0,0,0,3
"419","Harrodsburg, KY","Harrodsburg","KY",2013,37.7654,-84.8474,0,0,0,0,0,1,0,0,0,0,0,0,0,0,0,0,0,0,0,0,0,0,0,0,0,0,0,0,0,0,0,0,0,0,0,1
"420","Carlisle, KY","Carlisle","KY",2013,38.3162,-84.0333,0,0,0,0,0,1,0,0,0,0,0,0,0,0,0,0,0,0,0,0,0,0,0,0,0,0,0,0,0,0,0,0,0,0,0,1
"421","Hazard, KY","Hazard","KY",2013,37.2583,-83.1977,0,0,0,0,0,1,0,0,0,0,0,0,0,0,0,0,0,0,0,0,0,0,0,0,0,0,0,0,0,0,0,0,0,0,0,1
"422","Morehead, KY","Morehead","KY",2013,38.1906,-83.4467,0,0,0,0,0,0,0,0,0,0,0,0,0,0,0,0,0,0,0,0,0,0,0,1,0,0,0,0,0,0,0,0,0,0,0,1
"423","Georgetown, KY","Georgetown","KY",2013,38.2249,-84.5482,0,0,0,0,0,1,0,0,0,0,0,0,0,0,0,0,0,0,0,0,0,0,0,0,0,0,0,0,0,0,0,0,0,1,0,2
"424","Shelbyville, KY","Shelbyville","KY",2013,38.2069,-85.2293,0,0,1,0,0,0,0,0,0,0,0,0,0,0,0,0,0,0,0,0,0,0,0,0,0,0,0,0,0,0,0,0,0,3,0,4
"425","Elkton, KY","Elkton","KY",2013,36.8135,-87.161,0,0,0,0,0,1,0,0,0,0,0,0,0,0,0,0,0,0,0,0,0,0,0,0,0,0,0,0,0,0,0,0,0,0,0,1
"426","Cadiz, KY","Cadiz","KY",2013,36.8695,-87.8048,0,0,0,0,0,0,0,0,0,0,2,0,0,0,0,0,0,0,0,0,0,0,0,0,0,0,0,0,0,0,0,0,0,0,0,2
"427","Bowling Green, KY","Bowling Green","KY",2013,36.9719,-86.4373,0,0,0,0,0,4,0,0,0,0,0,0,0,0,1,0,0,0,0,2,0,0,0,0,0,0,0,1,0,0,0,0,0,0,0,8
"428","Corbin, KY","Corbin","KY",2013,36.9321,-84.1004,0,0,0,0,0,1,0,0,0,0,0,0,0,0,0,0,0,0,0,0,0,0,0,0,0,0,0,0,0,0,0,0,0,1,0,2
"429","Williamsburg, KY","Williamsburg","KY",2013,36.7392,-84.1647,0,0,0,0,0,0,0,0,0,0,0,0,0,0,0,0,0,0,0,0,0,0,0,0,0,0,0,0,0,0,0,0,0,1,0,1
"430","Westlake, LA","Westlake","LA",2013,30.2606,-93.2638,0,0,0,0,0,2,0,0,0,0,0,0,0,0,0,0,0,0,0,0,0,0,0,0,0,0,0,0,0,0,0,0,0,0,0,2
"431","New Orleans, LA","New Orleans","LA",2013,30.0687,-89.9288,0,0,0,0,0,1,0,0,0,0,5,0,0,0,0,0,0,0,0,0,0,0,0,0,1,0,0,1,0,0,0,0,0,0,0,8
"432","Barnstable, MA","Barnstable","MA",2013,41.6722,-70.3599,0,0,0,0,0,0,0,0,0,0,0,0,0,0,0,0,0,0,0,0,0,0,0,0,0,0,0,0,1,0,0,0,0,0,0,1
"433","Pittsfield, MA","Pittsfield","MA",2013,42.4517,-73.2605,0,0,0,0,0,0,0,0,0,0,1,0,0,0,0,0,0,0,0,0,0,0,0,0,0,0,0,0,0,0,0,0,0,0,0,1
"434","Attleboro, MA","Attleboro","MA",2013,41.9311,-71.295,0,0,0,0,0,1,0,0,0,0,0,0,0,0,0,0,0,0,0,0,0,0,0,0,0,0,0,1,0,0,0,0,0,0,0,2
"435","Fall River, MA","Fall River","MA",2013,41.7137,-71.1014,0,0,0,0,0,1,0,0,0,0,0,0,0,0,0,0,0,0,0,0,0,0,0,0,0,0,0,0,0,0,0,0,0,0,0,1
"436","New Bedford, MA","New Bedford","MA",2013,41.6697,-70.9428,0,0,0,0,0,0,0,0,0,0,0,0,0,0,1,0,0,0,0,0,0,0,0,0,0,0,0,0,0,0,0,0,0,0,0,1
"437","Taunton, MA","Taunton","MA",2013,41.9036,-71.0943,0,0,0,0,0,0,0,0,0,0,0,0,0,0,0,0,0,0,0,0,0,0,0,0,0,0,0,0,0,0,0,0,0,2,0,2
"438","Amesbury, MA","Amesbury","MA",2013,42.853,-70.9446,0,0,0,0,0,0,0,0,0,0,0,0,0,0,0,0,0,1,0,0,0,0,0,0,0,0,0,0,0,0,0,0,0,0,0,1
"439","Beverly, MA","Beverly","MA",2013,42.5681,-70.8627,0,0,0,0,0,0,0,0,0,0,0,0,0,0,0,0,0,1,0,0,0,0,0,0,0,0,0,0,0,0,0,0,0,0,0,1
"440","Haverhill, MA","Haverhill","MA",2013,42.7838,-71.0871,0,0,0,0,0,2,0,0,0,0,3,0,0,0,1,0,0,1,0,0,0,0,0,0,0,0,0,1,0,0,0,0,0,0,0,8
"441","Lynn, MA","Lynn","MA",2013,42.4779,-70.9663,0,0,1,0,0,2,0,1,0,0,5,0,0,0,2,1,0,0,0,0,0,1,0,0,0,0,0,2,0,1,0,0,0,0,0,16
"442","Newburyport, MA","Newburyport","MA",2013,42.8124,-70.8878,0,0,0,0,0,0,0,0,0,0,1,0,0,0,0,0,0,0,0,0,0,0,0,0,0,0,0,0,0,0,0,0,0,0,0,1
"443","Peabody, MA","Peabody","MA",2013,42.5335,-70.9724,0,0,0,0,0,0,0,0,0,0,0,0,0,0,1,0,0,0,0,0,0,0,0,0,0,0,0,1,0,0,0,0,0,0,0,2
"444","Salem, MA","Salem","MA",2013,42.5129,-70.902,0,0,0,0,0,1,0,0,0,0,0,0,0,0,0,0,0,0,0,0,0,0,0,0,0,0,0,0,0,0,0,0,0,0,0,1
"445","Greenfield, MA","Greenfield","MA",2013,42.614,-72.5985,0,0,0,0,0,0,0,0,0,0,0,0,0,0,0,0,0,0,1,0,0,0,0,0,0,0,0,0,0,0,0,0,0,0,0,1
"446","Springfield, MA","Springfield","MA",2013,42.1155,-72.5395,0,0,0,0,0,1,0,0,0,0,2,0,0,0,1,0,0,0,0,0,0,0,0,0,0,0,0,0,0,0,0,0,0,0,0,4
"447","West Springfield, MA","West Springfield","MA",2013,42.1253,-72.6503,0,0,0,0,0,0,0,0,0,0,0,0,0,0,0,1,0,0,0,0,0,0,0,0,0,0,0,0,0,0,0,0,0,0,0,1
"448","Amherst, MA","Amherst","MA",2013,42.3645,-72.5069,0,0,0,0,0,1,0,0,0,0,0,0,0,0,0,0,0,0,0,0,0,0,0,0,0,0,0,0,0,0,0,0,0,0,0,1
"449","Cambridge, MA","Cambridge","MA",2013,42.3759,-71.1185,0,0,0,0,0,4,0,0,0,0,3,0,0,0,1,2,0,0,0,0,0,0,0,0,0,0,0,2,1,0,0,0,0,0,0,13
"450","Framingham, MA","Framingham","MA",2013,42.3085,-71.4368,0,0,0,0,0,2,0,0,0,0,0,0,0,0,0,0,0,0,0,0,0,0,0,0,0,0,0,0,0,0,0,0,0,0,0,2
"451","Lowell, MA","Lowell","MA",2013,42.6389,-71.3217,0,0,0,0,0,0,0,0,0,0,1,0,0,0,1,0,0,0,0,0,0,0,0,0,0,0,0,0,0,0,0,0,0,0,0,2
"452","Malden, MA","Malden","MA",2013,42.4305,-71.0576,0,0,1,0,0,0,0,0,0,0,0,0,0,0,0,1,0,1,0,0,0,0,0,0,0,0,0,0,0,0,0,0,0,0,0,3
"453","Marlborough, MA","Marlborough","MA",2013,42.3494,-71.5468,0,0,0,0,0,0,0,0,0,0,0,0,0,0,1,0,0,0,0,0,0,0,0,0,0,0,0,0,0,0,0,0,0,0,0,1
"454","Medford, MA","Medford","MA",2013,42.4234,-71.1087,0,0,1,0,0,4,0,0,0,0,0,0,0,0,1,0,0,3,0,0,0,1,0,0,0,0,0,0,0,0,0,0,0,0,0,10
"455","Somerville, MA","Somerville","MA",2013,42.3908,-71.1013,0,0,0,0,0,0,0,0,0,0,0,0,0,0,1,0,0,0,1,0,0,0,0,0,0,0,0,0,0,0,0,0,0,0,0,2
"456","Waltham, MA","Waltham","MA",2013,42.3889,-71.2423,0,0,0,0,0,0,0,0,0,0,1,0,0,0,0,1,0,0,0,0,0,0,0,0,0,0,0,0,0,0,0,0,0,0,0,2
"457","Braintree, MA","Braintree","MA",2013,42.2039,-71.0022,0,0,0,0,0,0,0,0,0,0,0,0,0,0,0,0,0,0,0,0,0,0,0,0,0,0,0,0,0,0,0,0,0,3,0,3
"458","Quincy, MA","Quincy","MA",2013,42.2516,-71.0183,0,0,2,0,0,4,0,1,0,0,0,0,0,0,2,0,0,2,0,0,0,0,0,0,0,0,0,2,0,0,0,0,0,0,0,13
"459","Randolph, MA","Randolph","MA",2013,42.1778,-71.0539,0,0,0,0,0,0,0,0,0,0,1,0,0,0,0,0,0,0,1,0,0,0,0,0,0,0,0,0,0,0,0,0,0,0,0,2
"460","Boston, MA","Boston","MA",2013,42.3188,-71.0846,1,0,3,0,0,46,0,1,0,0,49,0,0,0,9,5,0,13,3,1,0,0,0,1,0,0,0,6,2,0,0,0,3,22,0,165
"461","Chelsea, MA","Chelsea","MA",2013,42.3959,-71.0325,0,0,0,0,0,1,0,0,0,0,0,0,0,0,0,0,0,0,0,0,0,0,0,0,0,0,0,0,0,0,0,0,0,0,0,1
"462","Revere, MA","Revere","MA",2013,42.4192,-71.0036,0,0,0,0,0,0,0,0,0,0,0,0,0,0,0,1,0,1,0,0,0,0,0,0,0,0,0,1,0,0,0,0,0,0,0,3
"463","Worcester, MA","Worcester","MA",2013,42.2705,-71.8079,0,0,0,0,0,1,0,0,0,0,1,0,0,0,0,0,0,0,0,0,0,0,0,0,0,0,0,0,0,0,0,0,0,0,0,2
"464","Annapolis, MD","Annapolis","MD",2013,38.9706,-76.5047,0,0,0,0,0,0,0,0,0,0,0,0,0,0,0,0,0,1,0,0,0,0,0,0,0,0,0,0,0,0,0,0,0,0,0,1
"465","Frederick, MD","Frederick","MD",2013,39.4336,-77.4141,0,0,0,0,0,2,0,0,0,0,0,0,0,0,0,0,0,0,0,0,0,0,0,0,0,0,0,0,0,0,0,0,0,0,0,2
"466","Aberdeen, MD","Aberdeen","MD",2013,39.5146,-76.173,0,0,0,0,0,0,0,0,0,0,0,0,0,0,0,0,0,1,0,0,0,0,0,0,0,0,0,0,0,0,0,0,0,0,0,1
"467","Bel Air, MD","Bel Air","MD",2013,39.5348,-76.346,0,0,0,0,0,1,0,0,0,0,0,0,0,0,0,0,0,0,0,0,0,0,0,0,0,0,0,0,0,0,0,0,0,0,0,1
"468","Greenbelt, MD","Greenbelt","MD",2013,38.9953,-76.8885,0,0,0,0,0,0,0,0,0,0,0,0,0,0,0,0,0,0,1,0,0,0,0,0,0,0,0,0,0,0,0,0,0,0,0,1
"469","Baltimore, MD","Baltimore","MD",2013,39.3051,-76.6144,0,0,0,0,0,0,0,0,0,0,0,0,0,0,1,1,0,0,0,0,0,0,0,0,0,0,0,0,0,0,0,0,0,0,0,2
"470","Auburn, ME","Auburn","ME",2013,44.085,-70.2492,0,0,0,0,0,0,0,0,0,0,0,0,0,0,0,0,0,0,0,0,0,0,0,0,0,0,0,0,0,0,0,0,0,2,0,2
"471","Lewiston, ME","Lewiston","ME",2013,44.0915,-70.1681,0,0,0,0,0,0,0,0,0,0,1,0,0,0,0,0,0,0,0,0,0,0,0,0,0,0,0,0,0,0,0,0,0,0,0,1
"472","Portland, ME","Portland","ME",2013,43.6773,-70.2715,0,0,0,0,0,1,0,0,0,0,0,0,0,0,0,1,0,0,0,0,0,0,0,0,0,0,0,0,0,0,0,0,0,0,0,2
"473","South Portland, ME","South Portland","ME",2013,43.631,-70.2895,0,0,0,0,0,1,0,0,0,0,1,0,0,0,0,0,0,1,1,0,0,0,0,0,0,0,0,0,0,0,1,0,0,0,0,5
"474","Ellsworth, ME","Ellsworth","ME",2013,44.5847,-68.4875,0,0,0,0,0,1,0,0,0,0,0,0,0,0,0,0,0,0,0,0,0,0,0,0,0,0,0,0,0,0,0,0,0,0,0,1
"475","Belfast, ME","Belfast","ME",2013,44.428,-69.0325,0,0,0,0,0,0,0,0,0,0,0,0,0,0,0,0,0,0,0,1,0,0,0,0,0,0,0,0,0,0,0,0,0,0,0,1
"476","Wayland, MI","Wayland","MI",2013,42.6725,-85.6408,0,0,0,0,0,0,0,0,0,0,0,0,0,0,0,0,0,0,0,0,0,1,0,0,0,0,0,0,0,0,0,0,0,0,0,1
"477","Alpena, MI","Alpena","MI",2013,45.074,-83.4399,0,0,0,0,0,1,0,1,0,0,0,0,0,0,0,0,0,0,0,0,0,0,0,0,0,0,0,0,0,0,0,0,0,0,0,2
"478","Elk Rapids, MI","Elk Rapids","MI",2013,44.895,-85.4055,0,0,0,0,0,0,0,0,0,0,0,0,0,0,0,0,0,0,0,0,0,0,0,0,0,0,0,0,0,0,0,0,0,1,0,1
"479","Essexville, MI","Essexville","MI",2013,43.6123,-83.8423,0,0,0,0,0,0,0,0,0,0,0,0,0,0,0,0,0,0,0,0,0,0,0,0,0,0,0,0,1,0,0,0,0,0,0,1
"480","Benton Harbor, MI","Benton Harbor","MI",2013,42.1159,-86.4488,0,0,0,0,0,0,0,0,0,0,0,0,0,0,0,0,0,0,0,0,0,0,0,0,0,0,0,0,0,0,0,0,0,3,0,3
"481","Buchanan, MI","Buchanan","MI",2013,41.8283,-86.3657,0,0,0,0,0,1,0,0,0,0,0,0,0,0,0,0,0,0,0,0,0,0,0,0,0,0,0,0,0,0,0,0,0,0,0,1
"482","St. Joseph, MI","St. Joseph","MI",2013,42.0967,-86.485,0,0,0,0,0,0,0,0,0,0,0,0,0,0,0,0,0,0,0,0,0,0,0,0,0,0,0,0,0,0,0,0,0,1,0,1
"483","Coldwater, MI","Coldwater","MI",2013,41.9465,-84.9989,0,0,0,0,0,1,0,0,0,0,0,0,0,0,0,0,0,0,2,0,0,0,0,0,0,0,0,0,0,0,0,0,0,0,0,3
"484","Albion, MI","Albion","MI",2013,42.2478,-84.7572,1,0,0,0,0,0,0,0,0,0,0,0,0,0,0,0,0,0,0,0,0,0,0,0,0,0,0,0,0,0,0,0,0,0,0,1
"485","Battle Creek, MI","Battle Creek","MI",2013,42.2986,-85.2296,0,0,0,0,0,0,0,0,0,0,0,0,0,0,0,0,0,0,0,0,0,0,0,0,1,0,0,0,0,0,0,0,0,0,0,1
"486","Marshall, MI","Marshall","MI",2013,42.2617,-84.9597,0,0,1,0,0,0,0,0,0,0,0,0,0,0,0,0,0,0,0,0,0,0,0,0,0,0,0,0,0,0,0,0,0,0,0,1
"487","Sault Ste. Marie, MI","Sault Ste. Marie","MI",2013,46.4817,-84.3723,0,0,0,0,0,0,0,0,0,0,0,0,0,0,0,0,0,1,0,0,0,0,0,0,0,0,0,0,0,0,0,0,0,1,0,2
"488","Clare, MI","Clare","MI",2013,43.8258,-84.763,0,0,0,0,0,1,0,0,0,0,0,0,0,0,0,0,0,0,0,0,0,0,0,0,0,0,0,0,0,0,0,0,0,0,0,1
"489","Grayling, MI","Grayling","MI",2013,44.6566,-84.7091,0,0,0,0,0,1,0,0,0,0,0,0,0,0,0,0,0,0,0,0,0,0,0,0,0,0,0,0,0,0,0,0,0,0,0,1
"490","Escanaba, MI","Escanaba","MI",2013,45.7477,-87.09,0,0,0,0,0,0,0,0,0,0,0,0,0,0,0,0,0,0,0,0,0,0,0,1,0,0,0,0,0,0,0,0,0,0,0,1
"491","Charlotte, MI","Charlotte","MI",2013,42.5662,-84.8304,0,0,0,0,0,1,0,0,0,0,0,0,0,0,0,0,0,0,0,0,0,0,0,0,0,0,0,0,0,0,0,0,0,0,0,1
"492","Flushing, MI","Flushing","MI",2013,43.0637,-83.8403,0,0,0,0,0,0,0,0,0,0,0,0,0,0,0,0,0,0,1,0,0,0,0,0,0,0,0,0,0,0,0,0,0,0,0,1
"493","Burton, MI","Burton","MI",2013,42.9974,-83.6175,0,0,0,0,0,2,0,0,0,0,0,0,0,0,0,0,0,0,0,0,0,0,0,0,0,0,0,0,0,0,0,0,0,0,0,2
"494","Traverse City, MI","Traverse City","MI",2013,44.7547,-85.6035,0,0,0,0,0,0,0,0,0,0,1,0,0,0,0,0,0,0,0,0,0,0,0,0,0,0,0,0,0,0,0,0,0,0,0,1
"495","Jonesville, MI","Jonesville","MI",2013,41.9785,-84.6656,0,0,1,0,0,0,0,0,0,0,0,0,0,0,0,0,0,0,0,0,0,0,0,0,0,0,0,0,0,0,0,0,0,0,0,1
"496","Harbor Beach, MI","Harbor Beach","MI",2013,43.8456,-82.6554,0,0,0,0,0,0,0,0,0,0,0,0,0,0,0,0,0,0,0,1,0,0,0,0,0,0,0,0,0,0,0,0,0,0,0,1
"497","Lansing, MI","Lansing","MI",2013,42.7142,-84.5601,0,0,0,0,0,1,0,0,0,0,1,0,0,0,1,0,0,1,0,0,0,0,0,0,0,0,0,0,0,0,0,0,0,1,0,5
"498","Mount Pleasant, MI","Mount Pleasant","MI",2013,43.5966,-84.7759,0,0,0,0,0,3,0,0,0,0,0,0,0,0,0,0,0,0,0,1,0,1,0,0,0,0,0,0,0,0,0,0,0,0,0,5
"499","Jackson, MI","Jackson","MI",2013,42.2431,-84.4037,0,0,0,0,0,0,0,0,0,0,0,0,0,0,0,0,0,0,0,0,0,0,0,0,0,0,0,0,0,0,0,0,0,1,0,1
"500","Kalamazoo, MI","Kalamazoo","MI",2013,42.2749,-85.5882,0,0,0,0,0,4,0,0,0,0,0,0,0,0,0,0,0,0,0,0,0,0,0,0,0,0,0,0,0,0,0,0,0,0,0,4
"501","Portage, MI","Portage","MI",2013,42.2,-85.5906,0,0,0,0,0,1,0,0,0,0,0,0,0,0,0,0,0,0,0,0,0,0,0,0,0,0,0,0,0,0,0,0,0,0,0,1
"502","East Grand Rapids, MI","East Grand Rapids","MI",2013,42.9464,-85.6088,0,0,0,0,0,1,0,0,0,0,0,0,0,0,0,0,0,0,0,0,0,0,0,0,0,0,0,0,0,0,0,0,0,0,0,1
"503","Grand Rapids, MI","Grand Rapids","MI",2013,42.962,-85.6562,0,0,0,0,0,0,0,0,0,0,1,0,0,0,0,0,0,0,0,0,0,0,0,0,0,0,0,0,0,0,0,0,0,2,0,3
"504","Grandville, MI","Grandville","MI",2013,42.9003,-85.7564,0,0,0,0,0,1,0,0,0,0,1,0,0,0,1,0,0,0,0,0,0,1,0,0,0,0,0,0,0,0,0,0,0,0,0,4
"505","Sparta, MI","Sparta","MI",2013,43.1575,-85.7091,0,0,0,1,0,0,0,0,0,0,0,0,0,0,0,0,0,0,0,0,0,0,0,0,1,0,0,0,0,0,0,0,0,0,0,2
"506","Wyoming, MI","Wyoming","MI",2013,42.8909,-85.7066,0,0,0,0,0,1,0,0,0,0,0,0,0,0,0,0,0,1,0,0,0,0,0,0,0,0,0,0,0,0,0,0,0,0,0,2
"507","Kentwood, MI","Kentwood","MI",2013,42.8852,-85.5925,0,0,0,0,0,0,0,0,0,0,0,0,0,0,0,0,0,0,0,0,0,0,0,0,0,0,0,0,0,0,0,0,0,1,0,1
"508","Adrian, MI","Adrian","MI",2013,41.8994,-84.0446,0,0,0,0,0,0,0,0,0,0,0,0,0,0,0,0,0,0,1,0,0,0,0,0,0,0,0,0,0,0,0,0,0,0,0,1
"509","Mackinac Island, MI","Mackinac Island","MI",2013,45.8593,-84.6253,0,0,0,0,0,0,0,0,0,0,0,0,0,0,0,0,0,1,0,0,0,0,0,0,0,0,0,0,0,0,0,0,0,0,0,1
"510","Eastpointe, MI","Eastpointe","MI",2013,42.4657,-82.9461,0,0,0,0,0,0,0,0,0,0,0,0,0,0,1,0,0,0,0,0,0,0,0,0,0,0,0,0,0,0,0,0,0,1,0,2
"511","Fraser, MI","Fraser","MI",2013,42.5388,-82.9496,0,0,0,0,0,2,0,0,0,0,0,0,0,0,0,0,0,0,0,0,0,0,0,0,0,0,0,0,0,0,0,0,0,0,0,2
"512","Romeo, MI","Romeo","MI",2013,42.8049,-83.0041,0,0,0,0,0,1,0,0,0,0,0,0,0,0,0,0,0,0,0,0,0,0,0,1,0,0,0,0,0,0,0,0,0,0,0,2
"513","Roseville, MI","Roseville","MI",2013,42.5074,-82.9369,0,0,0,0,0,2,0,0,0,0,1,0,0,0,0,0,0,0,0,0,0,0,0,0,0,0,0,0,0,0,0,0,0,3,0,6
"514","Utica, MI","Utica","MI",2013,42.629,-83.0218,0,0,0,0,0,2,0,0,0,0,0,0,0,0,0,0,0,0,0,0,0,0,0,0,0,0,0,0,0,0,0,0,0,0,0,2
"515","Warren, MI","Warren","MI",2013,42.4934,-83.027,0,0,0,0,0,2,0,0,0,1,0,0,0,0,0,0,0,1,0,0,0,0,0,0,0,0,0,0,0,0,0,0,0,5,0,9
"516","Midland, MI","Midland","MI",2013,43.6241,-84.2319,0,0,0,0,0,0,0,0,0,0,0,0,0,0,0,0,0,0,0,2,0,0,0,0,0,0,0,0,0,0,0,0,0,0,0,2
"517","Monroe, MI","Monroe","MI",2013,41.9154,-83.385,0,0,0,0,0,1,0,0,0,0,0,0,0,0,0,0,0,0,0,0,0,0,0,0,0,0,0,0,0,0,0,0,0,1,0,2
"518","Muskegon, MI","Muskegon","MI",2013,43.2281,-86.2563,0,0,0,0,0,1,0,0,0,0,0,0,0,0,0,0,0,0,0,0,0,0,0,0,0,0,0,0,0,0,0,0,0,2,0,3
"519","Muskegon Heights, MI","Muskegon Heights","MI",2013,43.2024,-86.242,0,0,0,0,0,0,0,0,0,0,0,0,0,0,0,0,0,0,0,0,0,0,0,0,0,0,0,0,0,0,0,0,0,6,0,6
"520","Norton Shores, MI","Norton Shores","MI",2013,43.1621,-86.2519,0,0,0,0,0,1,0,0,0,0,0,0,0,0,0,0,0,0,0,1,0,0,0,0,0,0,0,0,0,0,0,0,0,0,0,2
"521","Newaygo, MI","Newaygo","MI",2013,43.4162,-85.8031,0,0,0,0,0,0,0,0,0,0,0,0,0,0,0,0,0,0,0,0,0,0,0,0,0,0,0,0,0,0,0,0,0,1,0,1
"522","Birmingham, MI","Birmingham","MI",2013,42.5447,-83.2166,0,0,0,0,0,1,0,0,0,0,0,0,0,0,0,0,0,1,0,0,0,0,0,0,0,0,0,0,0,0,0,0,0,0,0,2
"523","Farmington, MI","Farmington","MI",2013,42.4614,-83.3784,0,0,0,0,0,1,0,0,0,0,0,0,0,0,0,0,0,0,0,0,0,0,0,0,0,0,0,0,0,0,0,0,0,0,0,1
"524","Ferndale, MI","Ferndale","MI",2013,42.4592,-83.1314,0,0,0,0,0,0,0,0,0,0,1,0,0,0,0,0,0,0,0,0,0,0,0,0,0,0,0,0,0,0,0,0,0,0,0,1
"525","Franklin, MI","Franklin","MI",2013,42.5187,-83.303,0,0,0,0,0,1,0,0,0,0,0,0,0,0,0,0,0,0,0,0,0,0,0,1,0,0,0,0,0,0,0,0,0,0,0,2
"526","Hazel Park, MI","Hazel Park","MI",2013,42.4619,-83.0977,0,0,0,0,0,1,0,0,0,0,0,0,0,0,0,0,0,0,0,0,0,0,0,0,0,0,0,0,0,0,0,0,0,0,0,1
"527","Huntington Woods, MI","Huntington Woods","MI",2013,42.4816,-83.1685,0,0,0,0,0,0,0,0,0,0,0,0,0,0,0,0,0,2,0,0,0,0,0,0,0,0,0,0,0,0,0,0,0,0,0,2
"528","Lake Orion, MI","Lake Orion","MI",2013,42.7827,-83.2455,0,0,0,0,0,1,0,0,0,0,0,0,0,0,0,0,0,0,0,0,0,0,0,0,0,0,0,0,0,0,0,0,0,0,0,1
"529","Madison Heights, MI","Madison Heights","MI",2013,42.5073,-83.1034,0,0,0,0,0,3,0,0,0,0,0,0,0,0,0,1,0,0,0,0,0,0,0,0,0,0,0,0,0,0,0,0,0,1,0,5
"530","Milford, MI","Milford","MI",2013,42.587,-83.6012,0,0,0,0,0,0,0,0,0,0,0,0,0,0,0,0,0,1,0,0,0,0,0,0,0,0,0,0,0,0,0,0,0,0,0,1
"531","Novi, MI","Novi","MI",2013,42.4786,-83.4893,0,0,0,0,0,1,0,0,0,0,0,0,0,0,0,0,0,0,0,0,0,0,0,0,0,0,0,0,0,0,0,0,0,0,0,1
"532","Royal Oak, MI","Royal Oak","MI",2013,42.5084,-83.1539,0,0,0,0,0,1,0,0,0,0,0,0,0,0,0,0,0,0,0,0,0,0,0,0,0,0,0,0,0,0,0,0,0,0,0,1
"533","Southfield, MI","Southfield","MI",2013,42.4765,-83.2605,0,0,0,0,0,2,0,0,0,0,0,0,0,0,0,0,0,0,0,0,0,0,0,0,1,0,0,0,0,0,0,0,0,0,0,3
"534","Troy, MI","Troy","MI",2013,42.5818,-83.1457,0,0,1,0,0,1,0,0,0,0,0,0,0,0,0,0,0,1,0,0,0,0,0,0,0,0,0,0,0,0,0,0,0,0,0,3
"535","Holland, MI","Holland","MI",2013,42.7677,-86.0985,0,0,0,0,0,1,0,0,0,0,0,0,0,0,1,0,0,0,0,0,0,0,0,0,0,0,0,0,0,0,0,0,0,0,0,2
"536","Saginaw, MI","Saginaw","MI",2013,43.4199,-83.9501,0,0,0,0,0,3,0,0,0,0,1,0,0,0,0,0,0,0,1,0,0,0,0,0,0,0,0,0,0,0,0,0,0,1,0,6
"537","Port Huron, MI","Port Huron","MI",2013,42.9822,-82.4387,0,0,0,0,0,0,0,0,0,0,2,0,0,0,0,0,0,0,0,0,0,0,0,0,0,0,0,0,0,0,0,0,0,0,0,2
"538","Three Rivers, MI","Three Rivers","MI",2013,41.9465,-85.6281,0,0,0,0,0,1,0,0,0,0,0,0,0,0,0,0,0,0,0,0,0,0,0,0,0,0,0,0,0,0,0,0,0,0,0,1
"539","Durand, MI","Durand","MI",2013,42.9127,-83.989,0,0,0,0,0,0,0,0,0,0,0,0,0,0,0,0,0,0,0,0,1,0,0,0,0,0,0,0,0,0,0,0,0,1,0,2
"540","Owosso, MI","Owosso","MI",2013,42.9955,-84.176,0,0,0,0,0,1,0,0,0,0,0,0,0,0,0,0,0,0,0,0,0,0,0,0,0,0,0,0,0,0,0,0,0,0,0,1
"541","Bangor, MI","Bangor","MI",2013,42.312,-86.1135,0,0,0,0,0,0,0,0,0,1,0,0,0,0,0,0,0,0,0,0,0,0,0,0,0,0,0,0,0,0,0,0,0,0,0,1
"542","Hartford, MI","Hartford","MI",2013,42.2047,-86.1661,0,0,0,0,0,2,0,0,0,0,0,0,0,0,0,0,0,0,0,0,0,0,0,0,0,0,0,0,0,0,0,0,0,1,0,3
"543","Ann Arbor, MI","Ann Arbor","MI",2013,42.2755,-83.7312,0,0,0,0,0,1,0,0,0,0,1,0,0,0,0,0,0,0,0,0,0,0,0,0,0,0,0,0,1,0,0,0,0,0,0,3
"544","Milan, MI","Milan","MI",2013,42.0816,-83.6853,0,0,0,0,0,1,0,0,0,0,0,0,0,0,0,0,0,0,0,0,0,0,0,0,0,0,0,0,0,0,0,0,0,0,0,1
"545","Saline, MI","Saline","MI",2013,42.1741,-83.778,0,0,0,0,0,1,0,0,0,0,0,0,0,0,0,0,0,0,0,0,0,0,0,0,0,0,0,0,0,0,0,0,0,0,0,1
"546","Dearborn, MI","Dearborn","MI",2013,42.3127,-83.2129,0,0,0,0,0,5,0,0,0,0,0,0,0,0,0,0,0,2,0,2,0,0,0,0,0,0,0,3,0,0,0,0,0,2,0,14
"547","Detroit, MI","Detroit","MI",2013,42.3834,-83.1024,0,0,0,0,0,2,0,0,0,0,0,0,0,0,0,0,0,0,0,1,0,0,0,0,0,0,0,0,0,0,0,0,0,0,0,3
"548","Garden City, MI","Garden City","MI",2013,42.3244,-83.3412,0,0,0,0,0,1,0,0,0,0,0,0,0,0,0,0,0,0,0,0,0,0,0,0,0,0,0,0,0,0,0,0,0,0,0,1
"549","Grosse Pointe Park, MI","Grosse Pointe Park","MI",2013,42.3794,-82.9288,0,0,0,0,0,1,0,0,0,0,0,0,0,0,0,0,0,0,0,0,0,0,0,0,0,0,0,0,0,0,0,0,0,0,0,1
"550","Grosse Pointe Woods, MI","Grosse Pointe Woods","MI",2013,42.4366,-82.8987,0,0,0,0,0,0,0,0,0,0,0,0,0,0,0,0,0,0,0,0,0,0,0,0,0,0,0,1,0,0,0,0,0,0,0,1
"551","Hamtramck, MI","Hamtramck","MI",2013,42.3954,-83.056,0,0,0,0,0,1,0,0,0,0,0,0,0,0,0,0,0,0,0,1,0,0,0,0,0,0,0,0,0,0,0,0,0,0,0,2
"552","Harper Woods, MI","Harper Woods","MI",2013,42.439,-82.9292,0,0,0,0,0,1,0,0,0,0,0,0,0,0,0,0,0,0,0,0,0,0,0,0,0,0,0,0,0,0,0,0,0,0,0,1
"553","Highland Park, MI","Highland Park","MI",2013,42.4052,-83.0977,0,0,0,0,0,0,0,0,0,0,0,0,0,0,0,0,0,1,0,0,0,0,0,0,0,0,0,0,0,0,0,0,0,0,0,1
"554","Inkster, MI","Inkster","MI",2013,42.2935,-83.3148,0,0,0,0,0,2,0,0,0,0,0,0,0,0,0,0,0,0,0,0,0,0,0,0,0,0,0,0,0,0,0,0,0,1,0,3
"555","Livonia, MI","Livonia","MI",2013,42.3972,-83.3733,0,0,0,0,0,0,0,0,0,0,1,0,0,0,0,0,0,0,0,0,0,0,0,0,0,0,0,0,0,0,0,0,0,0,0,1
"556","Taylor, MI","Taylor","MI",2013,42.226,-83.2688,0,0,0,0,0,1,0,0,0,0,2,0,0,0,0,0,0,0,0,0,0,0,0,0,0,0,0,0,0,0,0,0,0,0,0,3
"557","Trenton, MI","Trenton","MI",2013,42.1394,-83.1929,0,0,0,0,0,0,0,0,0,0,0,0,0,0,0,0,0,0,0,0,0,0,0,0,0,0,0,0,0,0,0,0,0,1,0,1
"558","Wayne, MI","Wayne","MI",2013,42.2774,-83.3877,0,0,0,0,0,4,0,0,0,0,0,0,0,0,0,0,0,0,0,0,0,0,0,0,0,0,0,0,0,0,0,0,0,0,0,4
"559","Westland, MI","Westland","MI",2013,42.3192,-83.3805,0,0,0,0,0,0,0,0,0,0,0,0,0,0,1,0,0,0,0,0,0,0,0,0,0,0,0,0,0,0,0,0,0,1,0,2
"560","Woodhaven, MI","Woodhaven","MI",2013,42.132,-83.2374,0,0,0,0,0,1,0,0,0,0,0,0,0,0,0,0,0,0,0,0,0,0,0,0,0,0,0,0,0,0,0,0,0,0,0,1
"561","Blaine, MN","Blaine","MN",2013,45.1696,-93.2077,1,0,0,0,0,3,0,0,0,0,0,0,0,0,0,0,0,0,0,0,0,0,0,0,0,0,0,0,0,0,0,0,0,0,0,4
"562","Columbia Heights, MN","Columbia Heights","MN",2013,45.0484,-93.2472,0,0,0,0,0,1,0,0,0,0,0,0,0,0,0,0,0,0,0,0,0,0,0,0,0,0,0,1,0,0,0,0,0,0,0,2
"563","Lino Lakes, MN","Lino Lakes","MN",2013,45.1679,-93.083,0,0,0,0,0,0,0,0,0,0,1,0,0,0,0,0,0,0,0,0,0,0,0,0,0,0,0,0,0,0,0,0,0,0,0,1
"564","Spring Lake Park, MN","Spring Lake Park","MN",2013,45.1161,-93.2451,0,0,0,0,0,0,0,0,0,0,0,0,0,0,0,0,0,0,0,0,0,0,0,0,0,0,0,1,0,0,0,0,0,0,0,1
"565","Bemidji, MN","Bemidji","MN",2013,47.4828,-94.8796,0,0,0,0,0,0,0,0,0,0,0,0,0,0,0,0,0,0,1,0,0,0,0,0,0,0,0,0,0,0,0,0,0,0,0,1
"566","Mankato, MN","Mankato","MN",2013,44.1712,-93.9773,0,0,0,0,0,2,0,1,0,0,2,0,0,0,0,0,0,0,0,0,0,0,0,0,0,0,0,0,1,0,0,0,0,0,0,6
"567","Chaska, MN","Chaska","MN",2013,44.8164,-93.6092,0,0,0,0,0,1,0,0,0,0,0,0,0,0,0,0,0,0,0,0,0,0,0,0,0,0,0,0,0,0,0,0,0,0,0,1
"568","Moorhead, MN","Moorhead","MN",2013,46.8673,-96.7461,0,0,0,0,0,1,0,0,0,0,0,0,0,0,0,0,0,0,0,1,0,0,0,0,0,0,0,0,0,0,0,0,0,0,0,2
"569","Crosby, MN","Crosby","MN",2013,46.4892,-93.9573,0,0,0,0,0,1,0,0,0,0,0,0,0,0,0,0,0,0,0,0,0,0,0,0,0,0,0,0,0,0,0,0,0,0,0,1
"570","Mendota Heights, MN","Mendota Heights","MN",2013,44.8815,-93.14,0,0,0,0,0,0,0,0,0,0,1,0,0,0,0,0,0,0,0,0,0,0,0,0,0,0,0,0,0,0,0,0,0,0,0,1
"571","West St. Paul, MN","West St. Paul","MN",2013,44.9018,-93.0858,0,0,0,0,0,1,0,0,0,0,0,0,0,0,0,0,0,0,0,0,0,0,0,0,0,0,0,0,0,0,0,0,0,0,0,1
"572","Eagan, MN","Eagan","MN",2013,44.8169,-93.1638,0,0,0,0,0,0,0,0,0,0,0,0,0,0,0,0,0,1,0,0,0,0,0,0,0,0,0,0,0,0,1,0,0,0,0,2
"573","Inver Grove Heights, MN","Inver Grove Heights","MN",2013,44.8247,-93.0596,0,0,0,0,0,0,0,0,0,0,0,0,0,0,0,1,0,0,0,0,0,0,0,0,0,0,0,0,0,0,0,0,0,0,0,1
"574","Brooklyn Park, MN","Brooklyn Park","MN",2013,45.1112,-93.3505,0,0,0,0,0,2,0,0,0,0,0,0,0,0,0,0,0,0,0,0,0,0,0,0,0,0,0,0,0,0,0,0,0,1,0,3
"575","Minneapolis, MN","Minneapolis","MN",2013,44.9635,-93.2678,0,0,0,0,0,10,0,1,0,0,9,0,0,0,1,2,0,1,0,2,0,0,0,0,0,0,0,2,0,1,0,0,0,10,0,39
"576","Plymouth, MN","Plymouth","MN",2013,45.0225,-93.4618,0,0,0,0,1,3,0,0,0,0,1,0,0,0,0,0,0,2,0,0,0,0,0,0,0,0,0,0,0,0,0,0,0,0,0,7
"577","St. Anthony, MN","St. Anthony","MN",2013,45.0278,-93.2174,0,0,0,0,0,1,0,0,0,0,0,0,0,0,0,0,0,0,0,0,0,0,0,0,0,0,0,0,0,0,0,0,0,0,0,1
"578","St. Louis Park, MN","St. Louis Park","MN",2013,44.9488,-93.3649,0,0,0,0,0,3,0,0,0,0,0,0,0,0,0,1,0,3,0,0,0,0,0,0,0,0,0,0,0,0,0,0,0,0,0,7
"579","Eden Prairie, MN","Eden Prairie","MN",2013,44.8488,-93.4595,0,0,1,0,0,0,0,0,0,0,0,0,0,0,0,0,0,0,0,0,0,0,0,0,0,0,0,0,0,0,0,0,0,0,0,1
"580","Maple Grove, MN","Maple Grove","MN",2013,45.1089,-93.4626,0,0,0,0,0,0,0,0,0,0,0,0,0,0,0,0,0,0,0,1,0,0,0,0,0,0,0,0,0,0,0,0,0,0,0,1
"581","Marshall, MN","Marshall","MN",2013,44.4488,-95.7897,0,0,0,0,0,0,0,0,0,0,0,0,0,0,0,0,0,0,0,0,0,0,0,0,0,0,0,1,0,0,0,0,0,1,0,2
"582","Rochester, MN","Rochester","MN",2013,44.0151,-92.4778,0,0,0,0,0,2,0,0,0,0,0,0,0,0,0,0,0,0,0,0,0,0,0,0,0,0,0,2,0,0,0,0,0,0,0,4
"583","Roseville, MN","Roseville","MN",2013,45.0155,-93.1545,0,0,0,0,0,2,0,0,0,0,1,0,0,0,0,0,0,0,0,0,0,0,0,0,0,0,0,0,0,0,0,0,0,0,0,3
"584","St. Paul, MN","St. Paul","MN",2013,44.9477,-93.104,1,0,2,0,1,10,0,0,0,0,1,0,0,0,0,0,0,1,0,0,0,0,0,0,0,0,0,0,3,0,0,0,0,11,0,30
"585","Shoreview, MN","Shoreview","MN",2013,45.0842,-93.1358,0,0,0,0,0,0,0,0,0,0,0,0,0,0,0,0,0,0,1,0,0,0,0,0,0,0,0,0,0,0,0,0,0,0,0,1
"586","Faribault, MN","Faribault","MN",2013,44.2985,-93.2786,0,0,0,0,0,0,0,0,0,0,1,0,0,0,0,0,0,0,0,0,0,0,0,0,0,0,0,0,0,0,0,0,0,0,0,1
"587","Duluth, MN","Duluth","MN",2013,46.7756,-92.1392,0,0,0,0,0,1,0,0,0,0,0,0,0,0,0,0,0,0,0,0,0,0,0,0,0,0,0,0,0,0,0,0,0,0,0,1
"588","Shakopee, MN","Shakopee","MN",2013,44.7744,-93.4764,0,0,0,0,0,0,0,0,0,0,1,0,0,0,0,0,0,0,0,0,0,0,0,0,0,0,0,0,0,0,0,0,0,0,0,1
"589","Savage, MN","Savage","MN",2013,44.7544,-93.3631,0,0,0,0,0,0,0,0,0,0,1,0,0,0,0,0,0,0,0,0,0,0,0,0,0,0,0,0,0,0,0,0,0,0,0,1
"590","Elk River, MN","Elk River","MN",2013,45.3314,-93.567,0,0,0,0,0,1,0,0,0,0,0,0,0,0,0,0,0,0,0,0,0,0,0,0,0,0,0,0,0,0,0,0,0,0,0,1
"591","St. Cloud, MN","St. Cloud","MN",2013,45.5339,-94.1718,0,0,1,0,0,5,0,0,0,0,0,0,0,0,1,0,0,0,0,0,0,0,0,0,0,0,0,1,0,0,0,0,0,0,0,8
"592","Waite Park, MN","Waite Park","MN",2013,45.5313,-94.2528,0,0,0,0,0,0,0,0,0,0,0,0,0,0,0,0,0,0,0,0,0,0,0,0,0,0,0,1,0,0,0,0,0,0,0,1
"593","Wadena, MN","Wadena","MN",2013,46.4452,-95.1281,0,0,0,0,0,0,0,0,0,0,0,0,0,0,0,0,0,0,0,1,0,0,0,0,0,0,0,0,0,0,0,0,0,0,0,1
"594","Woodbury, MN","Woodbury","MN",2013,44.9056,-92.923,1,0,0,0,0,0,0,0,0,0,0,0,0,0,0,0,0,0,0,0,0,0,0,0,0,0,0,0,0,0,0,0,0,0,0,1
"595","St. Joseph, MO","St. Joseph","MO",2013,39.7599,-94.821,0,0,0,0,0,2,0,0,0,0,0,0,0,0,0,0,0,0,0,0,0,0,0,0,0,0,0,0,0,0,0,0,0,0,0,2
"596","Belton, MO","Belton","MO",2013,38.8193,-94.5334,0,0,0,0,0,1,0,0,0,0,0,0,0,0,0,0,0,0,0,0,0,0,0,0,0,0,0,0,0,0,0,0,0,0,0,1
"597","Springfield, MO","Springfield","MO",2013,37.1943,-93.2916,0,0,0,0,0,0,0,0,0,0,0,0,0,0,0,0,0,0,1,0,0,0,0,0,0,0,0,0,1,0,0,0,0,1,0,3
"598","Blue Springs, MO","Blue Springs","MO",2013,39.0124,-94.2721,0,0,0,0,0,1,0,0,0,0,0,0,0,0,0,0,0,0,0,0,0,0,0,0,0,0,0,0,0,0,0,0,0,0,0,1
"599","Grandview, MO","Grandview","MO",2013,38.8802,-94.5227,0,0,0,0,0,1,0,0,0,0,0,0,0,0,0,0,0,0,0,0,0,0,0,0,0,0,0,0,0,0,0,0,0,0,0,1
"600","Independence, MO","Independence","MO",2013,39.0871,-94.3501,0,0,0,0,0,1,0,0,0,0,0,0,0,0,0,0,0,0,0,1,0,0,0,0,0,0,0,0,0,0,0,0,0,0,0,2
"601","Raytown, MO","Raytown","MO",2013,38.9944,-94.4641,0,0,0,0,0,1,0,0,0,0,0,0,0,0,0,0,0,0,0,0,0,0,0,0,0,0,0,0,0,0,0,0,0,0,0,1
"602","Joplin, MO","Joplin","MO",2013,37.0758,-94.5018,0,0,0,0,0,2,0,0,0,0,0,0,0,0,0,0,0,0,0,0,0,0,0,0,0,0,0,0,0,0,0,0,0,0,0,2
"603","St. Charles, MO","St. Charles","MO",2013,38.7954,-90.5157,0,0,0,0,0,1,0,0,0,0,0,0,0,0,0,0,0,0,0,0,0,0,0,0,0,0,0,0,0,0,0,0,0,0,0,1
"604","Clayton, MO","Clayton","MO",2013,38.6444,-90.3302,0,0,0,0,0,0,0,0,0,0,0,0,0,0,0,0,0,1,0,0,0,0,0,0,0,0,0,0,0,0,0,0,0,0,0,1
"605","University City, MO","University City","MO",2013,38.6657,-90.3315,0,0,0,0,0,1,0,0,0,0,0,0,0,0,0,0,0,0,0,0,0,0,0,0,0,0,0,0,0,0,0,0,0,0,0,1
"606","Branson, MO","Branson","MO",2013,36.651,-93.2635,0,0,0,0,0,0,0,0,0,0,0,0,0,0,1,0,0,0,0,0,0,0,0,0,0,0,0,0,0,0,0,0,0,0,0,1
"607","Kansas City, MO","Kansas City","MO",2013,39.1239,-94.5541,1,0,0,0,0,18,0,1,0,2,6,1,0,0,5,3,0,0,2,6,2,1,0,2,0,0,0,0,3,0,0,0,1,10,0,64
"608","St. Louis, MO","St. Louis","MO",2013,38.6358,-90.2451,0,0,0,0,0,4,0,0,0,0,5,0,0,0,0,1,0,0,2,0,0,0,0,0,0,0,0,0,0,0,0,0,0,0,0,12
"609","Biloxi, MS","Biloxi","MS",2013,30.4422,-88.9512,0,0,1,0,0,0,0,0,0,0,0,0,0,0,0,0,0,0,0,0,0,0,0,0,0,0,0,0,0,0,0,0,0,0,0,1
"610","Gulfport, MS","Gulfport","MS",2013,30.4271,-89.0703,0,0,0,0,0,0,0,0,0,0,0,0,0,0,2,0,0,0,0,0,0,0,0,0,0,0,0,0,0,0,0,0,0,1,0,3
"611","Great Falls, MT","Great Falls","MT",2013,47.5022,-111.2995,0,0,0,0,0,1,0,0,0,0,0,0,0,0,0,0,0,0,0,0,0,0,0,0,0,0,0,0,0,0,0,0,0,0,0,1
"612","Columbia Falls, MT","Columbia Falls","MT",2013,48.3708,-114.1903,0,0,0,0,0,0,0,0,0,0,0,0,0,0,0,0,0,0,0,0,0,0,0,0,0,0,0,0,0,0,0,0,0,1,0,1
"613","Kalispell, MT","Kalispell","MT",2013,48.2156,-114.3262,0,0,0,0,0,2,0,0,0,0,0,0,0,0,0,0,0,0,0,0,0,0,0,0,0,0,0,0,0,0,0,0,0,0,0,2
"614","Helena, MT","Helena","MT",2013,46.5965,-112.0202,0,0,0,0,0,0,0,0,0,0,0,0,0,0,0,0,0,0,0,0,0,0,0,0,0,0,0,0,0,0,0,0,0,12,0,12
"615","Missoula, MT","Missoula","MT",2013,46.875,-114.0214,0,0,0,0,0,0,0,0,0,0,1,0,0,0,0,0,0,0,0,0,0,0,0,0,0,0,0,0,0,0,0,0,0,2,0,3
"616","Hamilton, MT","Hamilton","MT",2013,46.2527,-114.1598,0,0,0,0,0,0,0,0,0,0,0,0,0,0,0,0,0,1,0,0,0,0,0,0,0,0,0,0,0,0,0,0,0,0,0,1
"617","Billings, MT","Billings","MT",2013,45.7891,-108.5524,0,0,0,1,0,3,0,0,0,0,0,0,0,0,0,0,0,0,0,1,0,0,0,1,0,0,0,0,0,0,0,0,0,1,0,7
"618","Burlington, NC","Burlington","NC",2013,36.0758,-79.4686,0,0,0,0,0,1,0,0,0,0,0,0,0,0,0,0,0,0,0,0,0,0,0,0,0,0,0,0,0,0,0,0,0,0,0,1
"619","Wadesboro, NC","Wadesboro","NC",2013,34.9645,-80.0746,0,0,0,0,0,0,0,0,0,0,0,0,0,0,0,0,0,0,0,0,0,0,0,0,0,0,0,0,0,0,0,0,0,1,0,1
"620","Lilesville, NC","Lilesville","NC",2013,34.9675,-79.9845,0,0,0,0,0,1,0,0,0,0,0,0,0,0,0,0,0,0,0,0,0,0,0,0,0,0,0,0,0,0,0,0,0,0,0,1
"621","Leland, NC","Leland","NC",2013,34.2044,-78.0277,0,0,0,0,0,1,0,0,0,0,1,0,0,0,0,0,0,0,0,0,0,0,0,0,0,0,0,0,0,0,0,0,0,0,0,2
"622","Asheville, NC","Asheville","NC",2013,35.5704,-82.5536,0,0,0,0,0,3,0,0,0,0,1,0,0,0,0,0,0,2,1,0,0,0,0,0,0,0,0,1,0,0,0,0,0,2,0,10
"623","Morganton, NC","Morganton","NC",2013,35.7408,-81.7003,0,0,0,0,0,1,0,0,0,0,0,0,0,0,0,0,0,0,0,0,0,0,0,0,0,0,0,0,0,0,0,0,0,0,0,1
"624","Concord, NC","Concord","NC",2013,35.3933,-80.6366,0,0,0,0,0,1,0,0,0,0,0,0,0,0,0,0,0,0,0,0,0,0,0,0,0,0,0,0,0,0,0,0,0,0,0,1
"625","Hickory, NC","Hickory","NC",2013,35.7425,-81.323,0,0,0,0,0,0,0,0,0,0,1,0,0,0,0,0,0,0,0,0,0,0,0,0,0,0,0,0,0,0,0,0,0,0,0,1
"626","Siler City, NC","Siler City","NC",2013,35.7252,-79.4561,0,0,0,0,0,2,0,0,0,0,0,0,0,0,0,0,0,0,0,0,0,0,0,0,0,0,0,0,0,0,0,0,0,0,0,2
"627","New Bern, NC","New Bern","NC",2013,35.0955,-77.0723,0,0,0,0,0,1,0,0,0,0,0,0,0,0,0,0,0,0,0,0,0,0,0,0,0,0,0,0,0,0,0,0,0,0,0,1
"628","Fayetteville, NC","Fayetteville","NC",2013,35.0846,-78.9776,0,0,0,0,0,2,0,0,0,0,0,0,0,0,0,0,0,0,0,0,0,0,0,0,0,0,0,1,1,0,0,0,0,2,0,6
"629","Thomasville, NC","Thomasville","NC",2013,35.8813,-80.0807,0,0,0,0,0,0,0,0,0,0,0,0,0,0,0,0,0,0,0,0,0,0,0,0,0,0,0,0,0,0,0,0,0,1,0,1
"630","Durham, NC","Durham","NC",2013,35.9794,-78.9031,0,0,0,0,0,2,0,0,0,0,2,0,0,0,0,0,0,0,1,0,0,0,0,0,0,0,0,1,1,0,0,0,0,0,0,7
"631","Rocky Mount, NC","Rocky Mount","NC",2013,35.9676,-77.8048,0,0,0,0,0,1,0,0,0,0,1,0,0,0,0,0,0,0,0,0,0,0,0,0,0,0,0,0,0,0,0,0,0,0,0,2
"632","Gastonia, NC","Gastonia","NC",2013,35.2494,-81.1853,0,0,0,0,0,0,0,0,0,0,0,0,0,0,0,0,0,0,0,0,0,0,0,0,0,0,0,0,1,0,0,0,0,0,0,1
"633","Oxford, NC","Oxford","NC",2013,36.3155,-78.5848,0,0,0,0,0,1,0,0,0,0,0,0,0,0,0,0,0,0,0,0,0,0,0,0,0,0,0,0,0,0,0,0,0,0,0,1
"634","Creedmoor, NC","Creedmoor","NC",2013,36.1223,-78.6758,0,0,0,0,0,0,0,0,0,0,0,0,0,0,0,0,0,0,0,0,0,0,0,0,0,0,0,0,0,0,0,0,0,1,0,1
"635","Greensboro, NC","Greensboro","NC",2013,36.0956,-79.8269,0,0,0,0,0,2,0,0,0,0,0,0,0,0,0,0,0,0,0,0,0,0,0,1,0,0,0,0,0,0,0,0,0,0,0,3
"636","Huntersville, NC","Huntersville","NC",2013,35.4058,-80.8727,0,0,0,0,0,1,0,0,0,0,0,0,0,0,0,0,0,0,0,0,0,0,0,0,0,0,0,0,0,0,0,0,0,0,0,1
"637","Mint Hill, NC","Mint Hill","NC",2013,35.1782,-80.6533,0,0,0,0,0,1,0,0,0,0,0,0,0,0,0,0,0,0,0,0,0,0,0,0,0,0,0,0,0,0,0,0,0,0,0,1
"638","Wilmington, NC","Wilmington","NC",2013,34.21,-77.8866,0,0,0,0,0,3,0,0,0,0,1,0,0,0,0,0,0,0,0,0,0,0,0,0,0,0,0,0,0,0,0,0,0,0,0,4
"639","Wrightsville Beach, NC","Wrightsville Beach","NC",2013,34.213,-77.798,0,0,0,0,0,0,0,0,0,0,0,0,0,0,0,0,0,0,0,0,0,0,0,0,0,0,0,0,0,0,0,0,0,1,0,1
"640","Chapel Hill, NC","Chapel Hill","NC",2013,35.927,-79.0391,0,0,0,0,0,0,0,0,0,0,0,0,0,0,1,0,0,0,0,0,0,0,0,0,0,0,0,0,0,0,0,0,0,0,0,1
"641","Carrboro, NC","Carrboro","NC",2013,35.926,-79.0878,0,0,0,0,0,1,0,0,0,0,0,0,0,0,0,0,0,0,0,0,0,0,0,0,0,0,0,0,0,0,0,0,0,0,0,1
"642","Roxboro, NC","Roxboro","NC",2013,36.3879,-78.9812,0,0,0,0,0,0,0,0,0,0,0,0,0,0,0,0,0,0,0,0,0,0,0,0,0,0,0,0,0,0,0,0,0,2,0,2
"643","Greenville, NC","Greenville","NC",2013,35.5956,-77.3768,0,0,0,0,0,0,0,0,0,0,0,0,0,0,0,0,0,0,0,0,0,0,0,0,0,0,0,0,0,0,0,0,0,1,0,1
"644","Asheboro, NC","Asheboro","NC",2013,35.7158,-79.8129,0,0,0,0,0,1,0,0,0,0,0,0,0,0,0,0,0,0,0,0,0,0,0,0,0,0,0,0,0,0,0,0,0,0,0,1
"645","Salisbury, NC","Salisbury","NC",2013,35.6656,-80.4909,0,0,0,0,0,0,0,0,0,0,0,0,0,0,0,0,0,0,0,0,0,0,0,0,0,0,0,0,0,0,0,0,0,1,0,1
"646","Albemarle, NC","Albemarle","NC",2013,35.3594,-80.1915,0,0,0,0,0,0,0,0,0,0,0,0,0,0,0,0,0,0,0,0,0,0,0,0,0,0,0,0,0,0,0,0,0,1,0,1
"647","King, NC","King","NC",2013,36.2766,-80.3564,0,0,0,0,0,0,0,0,0,0,0,0,0,0,0,0,0,0,0,0,0,0,0,0,0,0,0,0,1,0,0,0,0,0,0,1
"648","Raleigh, NC","Raleigh","NC",2013,35.8325,-78.6435,0,0,0,0,0,0,0,0,0,0,0,0,0,0,1,0,0,0,0,0,0,0,0,0,0,0,0,0,0,0,0,0,0,3,0,4
"649","Wilson, NC","Wilson","NC",2013,35.7312,-77.9284,0,0,0,0,0,0,0,0,0,0,1,0,0,0,0,0,0,0,0,0,0,0,0,0,0,0,0,0,0,0,0,0,0,0,0,1
"650","Valley City, ND","Valley City","ND",2013,46.9223,-98.0055,0,0,0,0,0,1,0,0,0,0,0,0,0,0,0,0,0,0,0,0,0,0,0,0,0,0,0,0,0,0,0,0,0,0,0,1
"651","Bismarck, ND","Bismarck","ND",2013,46.8144,-100.7694,0,0,0,0,1,0,0,0,0,0,0,0,0,0,2,0,0,0,0,0,0,0,0,0,0,0,0,3,0,0,0,0,0,0,0,6
"652","Fargo, ND","Fargo","ND",2013,46.8652,-96.8292,1,0,1,0,0,4,0,1,0,0,1,0,0,0,0,0,0,0,0,1,0,0,0,0,0,0,0,1,1,1,0,0,0,2,0,14
"653","West Fargo, ND","West Fargo","ND",2013,46.8573,-96.9057,0,0,0,0,0,2,0,1,0,0,0,0,0,0,0,0,0,0,0,0,0,0,0,0,0,0,0,1,0,0,0,0,0,4,0,8
"654","Carrington, ND","Carrington","ND",2013,47.4521,-99.1304,0,0,0,0,0,1,0,0,0,0,0,0,0,0,0,0,0,0,0,0,0,0,0,0,0,0,0,0,0,0,0,0,0,0,0,1
"655","Beulah, ND","Beulah","ND",2013,47.2665,-101.7733,0,0,0,0,0,0,0,0,0,0,0,0,0,0,0,0,0,0,0,0,0,0,0,0,0,0,0,1,0,0,0,0,0,0,0,1
"656","Mandan, ND","Mandan","ND",2013,46.829,-100.887,2,0,0,0,0,0,0,0,0,0,0,0,0,0,0,0,0,0,0,0,0,0,0,0,0,0,0,0,0,0,0,0,0,0,0,2
"657","Devils Lake, ND","Devils Lake","ND",2013,48.1131,-98.875,0,0,0,0,0,0,0,0,0,0,1,0,0,0,0,0,0,0,0,0,0,0,0,0,0,0,0,0,0,0,0,0,0,0,0,1
"658","Dickinson, ND","Dickinson","ND",2013,46.8917,-102.7924,0,0,0,0,0,0,0,0,0,0,0,0,0,0,0,0,0,1,0,0,0,0,0,0,0,0,0,0,0,0,0,0,0,0,0,1
"659","Minot, ND","Minot","ND",2013,48.2375,-101.2781,1,0,0,0,0,0,0,0,0,0,0,0,0,0,0,0,0,0,0,0,0,0,0,0,0,0,0,0,0,0,0,0,0,0,0,1
"660","Williston, ND","Williston","ND",2013,48.1814,-103.6364,0,0,0,0,0,1,0,0,0,0,0,0,0,0,0,0,0,0,0,0,0,0,0,0,0,0,0,0,0,0,0,0,0,0,0,1
"661","Keene, NH","Keene","NH",2013,42.9494,-72.2997,0,0,0,0,0,0,0,0,0,0,0,0,0,0,0,0,0,1,0,0,0,0,0,0,0,0,0,0,0,0,0,0,0,0,0,1
"662","Manchester, NH","Manchester","NH",2013,42.9848,-71.4447,0,0,0,0,0,1,0,0,0,0,0,0,0,0,0,0,0,0,0,0,0,0,0,0,0,0,0,0,0,0,0,0,0,0,0,1
"663","Concord, NH","Concord","NH",2013,43.2305,-71.5595,0,0,0,0,0,2,0,0,0,0,0,0,0,0,0,0,0,0,0,0,0,0,0,0,0,0,0,0,1,0,0,0,0,0,0,3
"664","Margate City, NJ","Margate City","NJ",2013,39.3307,-74.5071,0,0,0,0,0,1,0,0,0,0,0,0,0,0,0,0,0,0,0,0,0,0,0,0,0,0,0,0,0,0,0,0,0,0,0,1
"665","Closter, NJ","Closter","NJ",2013,40.9733,-73.9604,0,0,0,0,0,0,0,0,0,0,1,0,0,0,0,0,0,0,0,0,0,0,0,0,0,0,0,0,0,0,0,0,0,0,0,1
"666","Elmwood Park, NJ","Elmwood Park","NJ",2013,40.905,-74.1201,0,0,0,0,0,0,0,0,0,0,0,0,0,0,0,0,0,0,0,0,0,0,0,0,0,0,0,0,0,1,0,0,0,1,0,2
"667","Fairview, NJ","Fairview","NJ",2013,40.8182,-74.0022,0,0,0,0,0,0,0,0,0,0,0,0,0,0,1,0,0,0,0,0,0,0,0,0,0,0,0,0,0,0,0,0,0,0,0,1
"668","Fort Lee, NJ","Fort Lee","NJ",2013,40.8509,-73.9712,0,0,0,0,0,2,0,0,0,0,1,0,0,0,0,0,0,0,0,0,0,0,0,0,0,0,0,0,0,0,0,0,0,0,0,3
"669","Franklin Lakes, NJ","Franklin Lakes","NJ",2013,41.0086,-74.2083,0,0,0,0,0,0,0,0,0,0,0,0,0,0,0,0,0,1,0,0,0,0,0,0,0,0,0,1,0,0,0,0,0,0,0,2
"670","Oakland, NJ","Oakland","NJ",2013,41.0313,-74.2408,0,0,0,0,0,1,0,0,0,0,1,0,0,0,0,0,0,2,1,0,0,0,0,0,0,0,0,0,0,0,0,0,0,0,0,5
"671","Paramus, NJ","Paramus","NJ",2013,40.9455,-74.0712,0,0,0,0,0,0,0,0,0,0,0,0,0,0,0,0,0,0,0,0,0,0,0,0,0,0,0,1,0,0,0,0,0,0,0,1
"672","Medford Lakes, NJ","Medford Lakes","NJ",2013,39.8582,-74.8054,0,0,0,0,0,0,0,0,0,0,0,0,0,0,0,0,0,0,0,1,0,0,0,0,0,0,0,0,0,0,0,0,0,0,0,1
"673","Palmyra, NJ","Palmyra","NJ",2013,40.0025,-75.036,0,0,0,0,0,0,0,0,0,0,0,0,0,0,0,0,0,0,0,0,0,0,0,0,0,0,0,0,0,0,0,0,0,1,0,1
"674","Haddonfield, NJ","Haddonfield","NJ",2013,39.8955,-75.0346,0,0,0,0,0,0,0,0,0,0,0,0,0,0,0,0,0,1,0,0,0,0,0,0,0,0,0,0,0,0,0,0,0,0,0,1
"675","Pine Hill, NJ","Pine Hill","NJ",2013,39.7879,-74.9857,0,0,0,0,0,1,0,0,0,0,0,0,0,0,0,0,0,0,0,0,0,0,0,0,0,0,0,0,0,0,0,0,0,0,0,1
"676","Runnemede, NJ","Runnemede","NJ",2013,39.8521,-75.0739,0,0,0,0,0,0,0,0,0,0,0,0,0,0,0,0,0,1,0,0,0,0,0,0,0,0,0,0,0,0,0,0,0,0,0,1
"677","Vineland, NJ","Vineland","NJ",2013,39.4653,-74.9981,0,0,0,0,0,0,0,0,0,0,1,0,0,0,0,0,0,1,0,0,0,0,0,0,0,0,0,0,0,0,0,0,0,0,0,2
"678","Caldwell, NJ","Caldwell","NJ",2013,40.839,-74.2776,0,0,0,0,0,1,0,0,0,0,0,0,0,0,0,0,0,0,0,0,0,0,0,0,0,0,0,0,0,0,0,0,0,0,0,1
"679","East Orange, NJ","East Orange","NJ",2013,40.7651,-74.2117,0,0,0,0,0,0,0,0,0,0,0,0,0,0,0,1,0,0,0,0,0,0,0,0,0,0,0,0,0,0,0,0,0,0,0,1
"680","Glen Ridge, NJ","Glen Ridge","NJ",2013,40.8041,-74.2043,0,0,0,0,0,0,0,0,0,0,0,0,0,0,0,0,0,1,0,0,0,0,0,0,0,0,0,0,0,0,0,0,0,0,0,1
"681","Glassboro, NJ","Glassboro","NJ",2013,39.7014,-75.1113,0,0,0,0,0,7,0,0,0,0,2,0,0,0,1,0,0,0,0,0,0,0,0,0,0,0,0,1,0,0,0,0,0,1,0,12
"682","Paulsboro, NJ","Paulsboro","NJ",2013,39.84,-75.2397,0,0,0,0,0,1,0,0,0,0,0,0,0,0,0,0,0,0,0,0,0,0,0,0,0,0,0,0,0,0,0,0,0,0,0,1
"683","Pitman, NJ","Pitman","NJ",2013,39.7335,-75.1306,0,0,0,0,0,6,0,0,0,0,0,0,0,0,0,0,0,0,0,0,0,0,0,0,0,0,0,0,1,0,0,0,0,0,0,7
"684","Woodbury, NJ","Woodbury","NJ",2013,39.8379,-75.1524,0,0,0,0,0,2,0,0,0,0,0,0,0,0,0,0,0,0,0,0,0,0,0,0,0,0,0,0,1,0,0,0,0,2,0,5
"685","Woodbury Heights, NJ","Woodbury Heights","NJ",2013,39.816,-75.1512,0,0,0,0,0,1,0,0,0,0,0,0,0,0,0,0,0,0,0,0,0,0,0,0,0,0,0,0,0,0,0,0,0,0,0,1
"686","Harrison, NJ","Harrison","NJ",2013,40.7431,-74.1531,0,0,0,0,0,0,0,0,0,0,1,0,0,0,0,0,0,0,0,0,0,0,0,0,0,0,0,0,0,0,0,0,0,0,0,1
"687","Hoboken, NJ","Hoboken","NJ",2013,40.7453,-74.0279,1,0,1,0,0,0,0,1,0,0,1,0,0,0,0,0,0,1,0,0,0,0,0,0,0,0,0,0,1,0,0,0,0,1,0,7
"688","Jersey City, NJ","Jersey City","NJ",2013,40.7161,-74.0682,0,0,0,0,0,2,0,0,0,0,2,0,0,0,0,0,0,0,0,0,0,0,0,0,0,0,0,1,0,0,0,0,0,0,0,5
"689","Secaucus, NJ","Secaucus","NJ",2013,40.781,-74.0659,0,0,0,0,0,0,0,0,0,0,1,0,0,0,0,0,0,2,1,0,0,0,0,0,0,0,0,0,0,0,0,0,0,0,0,4
"690","Union City, NJ","Union City","NJ",2013,40.7674,-74.0323,0,0,0,0,0,0,0,0,0,0,1,0,0,0,0,1,0,0,0,0,0,0,0,0,0,0,0,0,0,0,0,0,0,0,0,2
"691","Hightstown, NJ","Hightstown","NJ",2013,40.2686,-74.5253,0,0,0,0,0,1,0,0,0,0,0,0,0,0,1,0,0,1,0,0,0,0,0,0,0,0,0,0,0,0,0,0,0,0,0,3
"692","Trenton, NJ","Trenton","NJ",2013,40.2236,-74.7641,0,0,0,0,0,0,0,0,0,0,0,0,0,0,0,0,0,0,0,1,0,0,0,0,0,0,0,0,0,0,0,0,0,1,0,2
"693","Highland Park, NJ","Highland Park","NJ",2013,40.5006,-74.4283,0,0,0,0,0,2,0,0,0,0,2,0,0,0,0,0,0,3,1,0,0,0,0,0,0,0,0,0,0,0,0,0,0,0,0,8
"694","New Brunswick, NJ","New Brunswick","NJ",2013,40.487,-74.445,0,0,1,0,0,2,0,0,0,0,1,0,0,0,0,0,0,1,0,0,0,0,0,0,0,0,0,0,0,0,0,0,0,0,0,5
"695","South Plainfield, NJ","South Plainfield","NJ",2013,40.5748,-74.4153,0,0,0,0,0,1,0,0,0,0,0,0,0,0,0,0,0,0,0,0,0,0,0,0,0,0,0,1,0,0,0,0,0,0,0,2
"696","Spotswood, NJ","Spotswood","NJ",2013,40.3949,-74.392,0,0,0,0,0,0,0,0,0,0,0,0,0,0,0,0,0,2,0,0,0,0,0,0,0,0,0,0,0,0,0,0,0,0,0,2
"697","Allenhurst, NJ","Allenhurst","NJ",2013,40.2362,-74.0017,0,0,0,0,0,0,0,0,0,0,0,0,0,0,0,0,0,2,0,0,0,0,0,0,0,0,0,0,0,0,0,0,0,0,0,2
"698","Asbury Park, NJ","Asbury Park","NJ",2013,40.2226,-74.0119,0,0,0,0,0,1,0,0,0,0,2,0,0,0,0,0,0,0,0,1,0,0,0,0,0,0,0,0,0,0,0,0,0,0,0,4
"699","Keansburg, NJ","Keansburg","NJ",2013,40.4471,-74.1316,0,0,0,0,0,3,0,0,0,0,1,0,0,0,0,0,0,0,0,0,0,0,0,0,0,0,0,0,0,0,0,0,0,0,0,4
"700","Manasquan, NJ","Manasquan","NJ",2013,40.1186,-74.045,0,0,0,0,0,1,0,0,0,0,0,0,0,0,0,0,0,2,0,0,0,0,0,0,0,0,0,0,0,0,0,0,0,0,0,3
"701","Oceanport, NJ","Oceanport","NJ",2013,40.316,-74.0205,0,0,0,0,0,0,0,0,0,0,0,0,0,0,0,0,0,1,0,0,0,0,0,0,0,0,0,0,0,0,0,0,0,0,0,1
"702","Shrewsbury, NJ","Shrewsbury","NJ",2013,40.3249,-74.06,0,0,0,0,0,1,0,0,0,0,0,0,0,0,0,0,0,0,0,0,0,0,0,0,0,0,0,0,0,0,0,0,0,1,0,2
"703","Union Beach, NJ","Union Beach","NJ",2013,40.4454,-74.1699,0,0,0,0,0,0,0,0,0,0,0,0,0,0,1,0,0,0,0,0,0,0,0,0,0,0,0,0,0,0,0,0,0,0,0,1
"704","West Long Branch, NJ","West Long Branch","NJ",2013,40.2883,-74.0185,0,0,0,0,0,0,0,0,0,0,0,0,0,0,0,0,0,1,0,0,0,0,0,0,0,0,0,0,0,0,0,0,0,0,0,1
"705","Point Pleasant, NJ","Point Pleasant","NJ",2013,40.0772,-74.0702,0,0,1,0,0,3,0,0,0,0,0,0,0,0,1,0,0,1,0,0,0,0,0,0,0,0,0,0,0,0,0,0,0,0,0,6
"706","Passaic, NJ","Passaic","NJ",2013,40.8574,-74.1282,0,0,0,0,0,2,0,0,0,0,0,0,0,0,1,1,0,1,0,0,0,0,0,0,0,0,0,0,0,0,0,0,0,0,0,5
"707","Totowa, NJ","Totowa","NJ",2013,40.9039,-74.2213,0,0,0,0,0,0,0,0,0,0,1,0,0,0,0,0,0,1,0,0,0,0,0,0,0,0,0,0,0,0,0,0,0,1,0,3
"708","Salem, NJ","Salem","NJ",2013,39.5681,-75.4724,0,0,0,0,0,0,0,0,0,0,0,0,0,0,0,0,0,0,0,0,0,0,0,0,0,0,0,0,0,0,0,0,0,1,0,1
"709","Somerville, NJ","Somerville","NJ",2013,40.5696,-74.6092,0,0,0,0,0,0,0,0,0,0,0,0,0,0,0,0,0,1,0,0,0,0,0,0,0,0,0,0,0,0,0,0,0,0,0,1
"710","Watchung, NJ","Watchung","NJ",2013,40.6432,-74.4391,0,0,0,0,0,0,0,0,0,0,0,0,0,0,0,0,0,1,0,0,0,0,0,0,0,0,0,0,0,0,0,0,0,0,0,1
"711","Fanwood, NJ","Fanwood","NJ",2013,40.6417,-74.3857,0,0,0,0,0,0,0,0,0,0,0,0,0,0,0,0,0,1,0,0,0,0,0,0,0,0,0,0,0,0,0,0,0,0,0,1
"712","New Providence, NJ","New Providence","NJ",2013,40.6996,-74.4034,0,0,0,0,0,1,0,0,0,0,0,0,0,0,0,0,0,2,0,0,0,0,0,0,0,0,0,0,0,0,0,0,0,0,0,3
"713","Phillipsburg, NJ","Phillipsburg","NJ",2013,40.6895,-75.1821,0,0,0,0,0,0,0,0,0,0,0,0,0,0,1,0,0,1,0,0,0,0,0,0,0,0,0,0,0,0,0,0,0,0,0,2
"714","Washington, NJ","Washington","NJ",2013,40.7587,-74.9825,0,0,0,0,0,2,0,0,0,0,0,0,0,0,0,0,0,1,0,0,0,0,0,0,0,0,0,0,0,0,0,0,0,1,0,4
"715","Newark, NJ","Newark","NJ",2013,40.7245,-74.1725,0,0,0,0,0,1,0,0,0,0,1,0,0,0,0,0,0,0,0,0,0,0,0,0,0,0,0,0,0,0,0,0,0,1,0,3
"716","Albuquerque, NM","Albuquerque","NM",2013,35.1053,-106.6464,2,0,1,0,0,2,0,0,0,0,3,0,0,0,0,1,0,0,1,0,0,0,0,0,0,0,0,0,0,0,0,0,0,0,0,10
"717","Belen, NM","Belen","NM",2013,34.7115,-106.7985,0,0,0,0,0,0,0,0,0,0,0,0,0,0,1,0,0,0,0,0,0,0,0,0,0,0,0,0,0,0,0,0,0,0,0,1
"718","Los Lunas, NM","Los Lunas","NM",2013,34.8115,-106.7803,0,0,0,0,0,1,0,0,0,0,0,0,0,0,0,0,0,0,0,0,0,0,0,0,0,0,0,0,0,0,0,0,0,0,0,1
"719","North Las Vegas, NV","North Las Vegas","NV",2013,36.288,-115.0901,0,0,0,0,0,0,0,0,0,0,0,0,0,0,1,0,0,0,0,1,0,0,0,0,0,0,0,0,0,0,0,0,0,0,0,2
"720","Henderson, NV","Henderson","NV",2013,36.0133,-115.038,0,0,0,0,0,0,0,0,0,0,0,0,0,0,0,0,0,0,0,0,0,0,0,0,0,1,0,0,0,0,0,0,0,0,0,1
"721","Carlin, NV","Carlin","NV",2013,40.719,-116.108,0,0,0,0,0,1,0,0,0,0,0,0,0,0,0,0,0,0,0,0,0,0,0,0,0,0,0,0,0,0,0,0,0,0,0,1
"722","Reno, NV","Reno","NV",2013,39.5497,-119.8483,0,0,0,0,0,2,0,0,0,0,1,0,0,0,0,1,0,0,0,0,0,0,0,0,0,0,0,0,0,0,0,0,0,0,0,4
"723","Albany, NY","Albany","NY",2013,42.6664,-73.7987,0,0,0,0,0,0,0,0,0,0,0,0,0,0,0,1,0,1,0,0,0,0,0,0,0,0,0,0,0,0,0,0,0,1,0,3
"724","Cohoes, NY","Cohoes","NY",2013,42.7732,-73.7077,0,0,0,0,0,1,0,0,0,0,0,0,0,0,0,0,0,0,0,0,0,0,0,0,0,0,0,0,0,0,0,0,0,0,0,1
"725","Salamanca, NY","Salamanca","NY",2013,42.1631,-78.7233,0,0,0,0,0,0,0,0,0,0,0,0,0,0,0,0,0,0,0,0,0,0,0,0,0,0,0,0,0,0,0,0,0,1,0,1
"726","Jamestown, NY","Jamestown","NY",2013,42.0975,-79.2366,0,0,0,0,0,2,0,0,0,0,0,0,0,0,0,0,0,0,0,0,0,0,0,0,0,0,0,0,0,0,0,0,0,0,0,2
"727","Poughkeepsie, NY","Poughkeepsie","NY",2013,41.6949,-73.921,0,0,0,0,0,0,0,0,0,0,0,0,0,0,0,0,0,0,0,0,0,0,0,0,0,0,0,2,0,1,0,0,0,0,0,3
"728","Buffalo, NY","Buffalo","NY",2013,42.9016,-78.8487,0,0,0,0,0,6,0,0,0,1,0,0,0,0,0,1,0,0,2,0,0,0,0,0,0,0,0,2,0,0,0,0,0,5,0,17
"729","Batavia, NY","Batavia","NY",2013,42.9987,-78.1802,0,0,0,0,0,1,0,0,0,0,0,0,0,0,0,0,0,0,0,0,0,0,0,0,0,0,0,0,0,0,0,0,0,0,0,1
"730","Rochester, NY","Rochester","NY",2013,43.168,-77.6162,0,0,0,0,0,1,0,0,0,0,0,0,0,0,0,1,0,0,0,0,0,0,0,0,0,0,0,0,0,0,0,0,0,2,0,4
"731","New York, NY","New York","NY",2013,40.6943,-73.9249,1,0,7,0,0,21,0,13,0,0,90,1,0,0,7,17,0,119,9,0,0,0,0,3,2,0,0,10,0,1,1,0,0,12,0,314
"732","Niagara Falls, NY","Niagara Falls","NY",2013,43.0921,-79.0147,0,0,0,0,0,1,0,0,0,0,0,0,0,0,1,0,0,0,0,0,0,0,0,0,0,0,0,0,0,0,0,0,0,1,0,3
"733","Utica, NY","Utica","NY",2013,43.0961,-75.226,0,0,0,0,0,1,0,0,0,0,0,0,0,0,0,0,0,0,0,0,0,0,0,0,0,0,0,0,0,0,0,0,0,0,0,1
"734","Middletown, NY","Middletown","NY",2013,41.4459,-74.4236,0,0,0,0,0,1,0,0,0,0,0,0,0,0,0,0,0,0,0,0,0,0,0,0,0,0,0,0,0,0,0,0,0,0,0,1
"735","Troy, NY","Troy","NY",2013,42.7354,-73.6751,0,0,0,0,0,0,0,0,0,0,0,0,0,0,0,0,0,0,0,0,0,0,0,0,0,0,0,0,0,0,0,0,0,1,0,1
"736","Saratoga Springs, NY","Saratoga Springs","NY",2013,43.0674,-73.7775,0,0,0,0,0,1,0,0,0,0,0,0,0,0,0,0,0,2,0,0,0,0,0,0,0,0,0,0,0,0,0,0,0,0,0,3
"737","Ithaca, NY","Ithaca","NY",2013,42.4442,-76.5032,0,0,0,0,0,0,0,0,0,0,0,0,0,0,0,0,0,0,1,0,0,0,0,0,0,0,0,0,0,0,0,0,0,0,0,1
"738","Mount Vernon, NY","Mount Vernon","NY",2013,40.9136,-73.8291,0,0,0,0,0,2,0,0,0,0,0,0,0,0,1,0,0,0,0,0,0,0,0,0,0,0,0,0,0,0,0,0,0,0,0,3
"739","New Rochelle, NY","New Rochelle","NY",2013,40.9305,-73.7836,0,0,0,0,0,1,0,0,0,0,0,0,0,0,0,0,0,1,0,0,0,0,0,0,0,0,0,0,1,0,0,0,0,0,0,3
"740","Yonkers, NY","Yonkers","NY",2013,40.9466,-73.8674,0,0,0,0,0,1,0,1,0,0,1,1,0,0,0,0,0,2,0,0,1,0,0,0,0,0,0,0,0,0,0,0,0,0,0,7
"741","Ashland, OH","Ashland","OH",2013,40.8668,-82.3156,0,0,0,0,0,1,0,0,0,0,0,0,0,0,0,0,0,0,0,0,0,0,0,0,0,0,0,0,0,0,0,0,0,0,0,1
"742","Athens, OH","Athens","OH",2013,39.3269,-82.0988,0,0,0,0,0,0,0,0,0,0,1,0,0,0,0,0,0,0,0,0,0,0,0,0,0,0,0,0,0,0,0,0,0,0,0,1
"743","Nelsonville, OH","Nelsonville","OH",2013,39.456,-82.2219,0,0,0,0,0,1,0,0,0,0,0,0,0,0,0,0,0,0,0,0,0,0,0,0,0,0,0,0,0,0,0,0,0,0,0,1
"744","Wapakoneta, OH","Wapakoneta","OH",2013,40.5663,-84.1915,0,0,0,0,0,1,0,0,0,0,0,0,0,0,0,0,0,0,0,0,0,0,0,0,0,0,0,0,0,0,0,0,0,0,0,1
"745","Fairfield, OH","Fairfield","OH",2013,39.3301,-84.5409,0,0,0,0,0,0,0,0,0,0,0,0,0,0,0,0,0,1,0,0,0,0,0,0,0,0,0,0,0,0,0,0,0,0,0,1
